timestamp,voltage_v,voltage_filtered_v,current_a,current_filtered_a,average_current_a,discharged_mah,remaining,scale,temperature,cell_count,voltage_cell_v[0],voltage_cell_v[1],voltage_cell_v[2],voltage_cell_v[3],voltage_cell_v[4],voltage_cell_v[5],voltage_cell_v[6],voltage_cell_v[7],voltage_cell_v[8],voltage_cell_v[9],max_cell_voltage_delta,capacity,cycle_count,run_time_to_empty,average_time_to_empty,serial_number,manufacture_date,state_of_health,max_error,interface_error,connected,source,priority,id,is_powering_off,warning
293830494,23.652847,23.753065,4.9223995,3.0892282,0.0,539.5745,1.0,1.0,nan,4,5.9382663,5.9382663,5.9382663,5.9382663,0.0,0.0,0.0,0.0,0.0,0.0,0.0,0,0,0,0,0,0,0,0,0,1,0,0,1,0,0
294130528,23.127876,23.70228,4.5122,3.9144049,0.0,539.9857,1.0,1.0,nan,4,5.92557,5.92557,5.92557,5.92557,0.0,0.0,0.0,0.0,0.0,0.0,0.0,0,0,0,0,0,0,0,0,0,1,0,0,1,0,0
294430487,23.346613,23.661068,6.6218,4.5456185,0.0,540.42206,1.0,1.0,nan,4,5.915267,5.915267,5.915267,5.915267,0.0,0.0,0.0,0.0,0.0,0.0,0.0,0,0,0,0,0,0,0,0,0,1,0,0,1,0,0
294730506,23.011215,23.581524,11.1047,6.141166,0.0,541.08685,1.0,1.0,nan,4,5.895381,5.895381,5.895381,5.895381,0.0,0.0,0.0,0.0,0.0,0.0,0.0,0,0,0,0,0,0,0,0,0,1,0,0,1,0,0
295030517,23.302866,23.497673,11.6321,8.676805,0.0,542.0689,1.0,1.0,nan,4,5.8744183,5.8744183,5.8744183,5.8744183,0.0,0.0,0.0,0.0,0.0,0.0,0.0,0,0,0,0,0,0,0,0,0,1,0,0,1,0,0
295330743,23.317448,23.428387,12.2767,10.159384,0.0,543.0699,1.0,1.0,nan,4,5.8570967,5.8570967,5.8570967,5.8570967,0.0,0.0,0.0,0.0,0.0,0.0,0.0,0,0,0,0,0,0,0,0,0,1,0,0,1,0,0
295630497,23.113295,23.32679,15.7048,12.030228,0.0,544.24994,1.0,1.0,nan,4,5.8316975,5.8316975,5.8316975,5.8316975,0.0,0.0,0.0,0.0,0.0,0.0,0.0,0,0,0,0,0,0,0,0,0,1,0,0,1,0,0
295930523,23.08413,23.25302,18.0488,14.318737,0.0,545.67096,1.0,1.0,nan,4,5.813255,5.813255,5.813255,5.813255,0.0,0.0,0.0,0.0,0.0,0.0,0.0,0,0,0,0,0,0,0,0,0,1,0,0,1,0,0
296230496,23.113295,23.168905,18.1367,15.874954,0.0,547.15375,1.0,1.0,nan,4,5.7922263,5.7922263,5.7922263,5.7922263,0.0,0.0,0.0,0.0,0.0,0.0,0.0,0,0,0,0,0,0,0,0,0,1,0,0,1,0,0
296830516,22.661234,23.023277,20.129099,18.126152,0.0,550.28015,1.0,1.0,nan,4,5.7558193,5.7558193,5.7558193,5.7558193,0.0,0.0,0.0,0.0,0.0,0.0,0.0,0,0,0,0,0,0,0,0,0,1,0,0,1,0,0
297130490,22.821644,22.9751,20.4807,19.018837,0.0,551.9571,1.0,1.0,nan,4,5.743775,5.743775,5.743775,5.743775,0.0,0.0,0.0,0.0,0.0,0.0,0.0,0,0,0,0,0,0,0,0,0,1,0,0,1,0,0
297430510,22.719566,22.89902,22.1801,19.80788,0.0,553.6819,1.0,1.0,nan,4,5.724755,5.724755,5.724755,5.724755,0.0,0.0,0.0,0.0,0.0,0.0,0.0,0,0,0,0,0,0,0,0,0,1,0,0,1,0,0
297730574,22.6904,22.819044,24.7292,21.438578,0.0,555.6278,1.0,1.0,nan,4,5.704761,5.704761,5.704761,5.704761,0.0,0.0,0.0,0.0,0.0,0.0,0.0,0,0,0,0,0,0,0,0,0,1,0,0,1,0,0
298030621,22.471663,22.762764,22.766098,22.48638,0.0,557.6096,1.0,1.0,nan,4,5.690691,5.690691,5.690691,5.690691,0.0,0.0,0.0,0.0,0.0,0.0,0.0,0,0,0,0,0,0,0,0,0,1,0,0,1,0,0
298330487,22.617487,22.744286,21.3011,22.091766,0.0,559.4153,1.0,1.0,nan,4,5.6860714,5.6860714,5.6860714,5.6860714,0.0,0.0,0.0,0.0,0.0,0.0,0.0,0,0,0,0,0,0,0,0,0,1,0,0,1,0,0
298630517,22.777897,22.733713,22.561,22.24257,0.0,561.2815,1.0,1.0,nan,4,5.6834283,5.6834283,5.6834283,5.6834283,0.0,0.0,0.0,0.0,0.0,0.0,0.0,0,0,0,0,0,0,0,0,0,1,0,0,1,0,0
298931957,22.51541,22.690577,20.7151,21.85089,0.0,563.07715,1.0,1.0,nan,4,5.672644,5.672644,5.672644,5.672644,0.0,0.0,0.0,0.0,0.0,0.0,0.0,0,0,0,0,0,0,0,0,0,1,0,0,1,0,0
299230490,22.6904,22.711468,20.2463,20.9946,0.0,564.7362,1.0,1.0,nan,4,5.677867,5.677867,5.677867,5.677867,0.0,0.0,0.0,0.0,0.0,0.0,0.0,0,0,0,0,0,0,0,0,0,1,0,0,1,0,0
299530518,22.29667,22.688717,20.8323,20.78236,0.0,566.44055,1.0,1.0,nan,4,5.672179,5.672179,5.672179,5.672179,0.0,0.0,0.0,0.0,0.0,0.0,0.0,0,0,0,0,0,0,0,0,0,1,0,0,1,0,0
299830536,23.098711,22.665995,23.498598,21.339338,0.0,568.2668,1.0,1.0,nan,4,5.6664987,5.6664987,5.6664987,5.6664987,0.0,0.0,0.0,0.0,0.0,0.0,0.0,0,0,0,0,0,0,0,0,0,1,0,0,1,0,0
300130490,22.967468,22.61787,22.2973,22.042711,0.0,570.17584,1.0,1.0,nan,4,5.6544676,5.6544676,5.6544676,5.6544676,0.0,0.0,0.0,0.0,0.0,0.0,0.0,0,0,0,0,0,0,0,0,0,1,0,0,1,0,0
300430563,22.617487,22.600435,23.0005,22.056175,0.0,572.0095,1.0,1.0,nan,4,5.650109,5.650109,5.650109,5.650109,0.0,0.0,0.0,0.0,0.0,0.0,0.0,0,0,0,0,0,0,0,0,0,1,0,0,1,0,0
300730491,22.6904,22.59272,23.0298,22.154163,0.0,573.8686,1.0,1.0,nan,4,5.64818,5.64818,5.64818,5.64818,0.0,0.0,0.0,0.0,0.0,0.0,0.0,0,0,0,0,0,0,0,0,0,1,0,0,1,0,0
301030489,22.486246,22.575031,21.096,22.206978,0.0,575.7297,1.0,1.0,nan,4,5.643758,5.643758,5.643758,5.643758,0.0,0.0,0.0,0.0,0.0,0.0,0.0,0,0,0,0,0,0,0,0,0,1,0,0,1,0,0
301330537,22.223759,22.562035,21.271801,22.083426,0.0,577.5551,1.0,1.0,nan,4,5.6405087,5.6405087,5.6405087,5.6405087,0.0,0.0,0.0,0.0,0.0,0.0,0.0,0,0,0,0,0,0,0,0,0,1,0,0,1,0,0
301630489,22.617487,22.546328,22.9126,22.135464,0.0,579.39996,1.0,1.0,nan,4,5.636582,5.636582,5.636582,5.636582,0.0,0.0,0.0,0.0,0.0,0.0,0.0,0,0,0,0,0,0,0,0,0,1,0,0,1,0,0
301930488,22.6904,22.544947,22.590302,22.02987,0.0,581.2244,1.0,1.0,nan,4,5.6362367,5.6362367,5.6362367,5.6362367,0.0,0.0,0.0,0.0,0.0,0.0,0.0,0,0,0,0,0,0,0,0,0,1,0,0,1,0,0
302240488,22.646652,22.53947,23.1763,22.188477,0.0,583.14966,1.0,1.0,nan,4,5.6348677,5.6348677,5.6348677,5.6348677,0.0,0.0,0.0,0.0,0.0,0.0,0.0,0,0,0,0,0,0,0,0,0,1,0,0,1,0,0
302830491,22.646652,22.53139,20.949501,22.170898,0.0,586.8038,1.0,1.0,nan,4,5.6328473,5.6328473,5.6328473,5.6328473,0.0,0.0,0.0,0.0,0.0,0.0,0.0,0,0,0,0,0,0,0,0,0,1,0,0,1,0,0
303130488,22.16543,22.529512,21.506199,21.886673,0.0,588.59546,1.0,1.0,nan,4,5.632378,5.632378,5.632378,5.632378,0.0,0.0,0.0,0.0,0.0,0.0,0.0,0,0,0,0,0,0,0,0,0,1,0,0,1,0,0
303430562,22.559158,22.50057,24.1725,22.708662,0.0,590.5617,1.0,1.0,nan,4,5.6251426,5.6251426,5.6251426,5.6251426,0.0,0.0,0.0,0.0,0.0,0.0,0.0,0,0,0,0,0,0,0,0,0,1,0,0,1,0,0
303730488,22.471663,22.477942,20.9788,22.938532,0.0,592.50494,1.0,1.0,nan,4,5.6194854,5.6194854,5.6194854,5.6194854,0.0,0.0,0.0,0.0,0.0,0.0,0.0,0,0,0,0,0,0,0,0,0,1,0,0,1,0,0
304030488,22.602905,22.492723,22.062899,22.503218,0.0,594.33545,1.0,1.0,nan,4,5.623181,5.623181,5.623181,5.623181,0.0,0.0,0.0,0.0,0.0,0.0,0.0,0,0,0,0,0,0,0,0,0,1,0,0,1,0,0
304330511,22.617487,22.496817,20.6272,22.012169,0.0,596.1218,1.0,1.0,nan,4,5.624204,5.624204,5.624204,5.624204,0.0,0.0,0.0,0.0,0.0,0.0,0.0,0,0,0,0,0,0,0,0,0,1,0,0,1,0,0
304630494,22.45708,22.495268,22.9126,21.84451,0.0,597.9212,1.0,1.0,nan,4,5.623817,5.623817,5.623817,5.623817,0.0,0.0,0.0,0.0,0.0,0.0,0.0,0,0,0,0,0,0,0,0,0,1,0,0,1,0,0
304930488,22.1071,22.47729,24.260399,22.381887,0.0,599.8349,1.0,1.0,nan,4,5.6193223,5.6193223,5.6193223,5.6193223,0.0,0.0,0.0,0.0,0.0,0.0,0.0,0,0,0,0,0,0,0,0,0,1,0,0,1,0,0
305230517,22.005022,22.433123,22.3266,22.861353,0.0,601.79407,1.0,1.0,nan,4,5.6082807,5.6082807,5.6082807,5.6082807,0.0,0.0,0.0,0.0,0.0,0.0,0.0,0,0,0,0,0,0,0,0,0,1,0,0,1,0,0
305530681,21.742537,22.439363,21.9457,22.28746,0.0,603.6013,1.0,1.0,nan,4,5.609841,5.609841,5.609841,5.609841,0.0,0.0,0.0,0.0,0.0,0.0,0.0,0,0,0,0,0,0,0,0,0,1,0,0,1,0,0
305830489,21.888361,22.425646,22.1508,22.432545,0.0,605.4767,1.0,1.0,nan,4,5.6064115,5.6064115,5.6064115,5.6064115,0.0,0.0,0.0,0.0,0.0,0.0,0.0,0,0,0,0,0,0,0,0,0,1,0,0,1,0,0
306131356,22.180012,22.385279,21.740599,23.363497,0.0,607.5281,1.0,1.0,nan,4,5.5963197,5.5963197,5.5963197,5.5963197,0.0,0.0,0.0,0.0,0.0,0.0,0.0,0,0,0,0,0,0,0,0,0,1,0,0,1,0,0
306430491,22.369585,22.377853,22.971199,23.260866,0.0,609.4439,1.0,1.0,nan,4,5.5944633,5.5944633,5.5944633,5.5944633,0.0,0.0,0.0,0.0,0.0,0.0,0.0,0,0,0,0,0,0,0,0,0,1,0,0,1,0,0
306730497,22.500828,22.373611,23.5572,22.997421,0.0,611.34033,1.0,1.0,nan,4,5.593403,5.593403,5.593403,5.593403,0.0,0.0,0.0,0.0,0.0,0.0,0.0,0,0,0,0,0,0,0,0,0,1,0,0,1,0,0
307030540,22.559158,22.374046,23.3814,22.943405,0.0,613.2473,1.0,1.0,nan,4,5.5935116,5.5935116,5.5935116,5.5935116,0.0,0.0,0.0,0.0,0.0,0.0,0.0,0,0,0,0,0,0,0,0,0,1,0,0,1,0,0
307330516,22.471663,22.403238,20.392801,21.976788,0.0,614.99426,1.0,1.0,nan,4,5.6008096,5.6008096,5.6008096,5.6008096,0.0,0.0,0.0,0.0,0.0,0.0,0.0,0,0,0,0,0,0,0,0,0,1,0,0,1,0,0
307630491,22.413334,22.39754,22.7075,21.967756,0.0,616.8104,1.0,1.0,nan,4,5.599385,5.599385,5.599385,5.599385,0.0,0.0,0.0,0.0,0.0,0.0,0.0,0,0,0,0,0,0,0,0,0,1,0,0,1,0,0
307930521,22.29667,22.352371,26.4872,23.540384,0.0,618.91675,1.0,1.0,nan,4,5.588093,5.588093,5.588093,5.588093,0.0,0.0,0.0,0.0,0.0,0.0,0.0,0,0,0,0,0,0,0,0,0,1,0,0,1,0,0
308230488,22.617487,22.334547,22.268,23.670315,0.0,620.91956,1.0,1.0,nan,4,5.5836368,5.5836368,5.5836368,5.5836368,0.0,0.0,0.0,0.0,0.0,0.0,0.0,0,0,0,0,0,0,0,0,0,1,0,0,1,0,0
308530489,22.602905,22.358774,20.1877,22.31578,0.0,622.64655,1.0,1.0,nan,4,5.5896935,5.5896935,5.5896935,5.5896935,0.0,0.0,0.0,0.0,0.0,0.0,0.0,0,0,0,0,0,0,0,0,0,1,0,0,1,0,0
308830587,22.894556,22.36589,22.268,21.8478,0.0,624.41144,1.0,1.0,nan,4,5.5914726,5.5914726,5.5914726,5.5914726,0.0,0.0,0.0,0.0,0.0,0.0,0.0,0,0,0,0,0,0,0,0,0,1,0,0,1,0,0
309130496,22.6904,22.359303,22.3852,21.813995,0.0,626.22986,1.0,1.0,nan,4,5.5898256,5.5898256,5.5898256,5.5898256,0.0,0.0,0.0,0.0,0.0,0.0,0.0,0,0,0,0,0,0,0,0,0,1,0,0,1,0,0
309430541,22.29667,22.318462,23.527899,22.588915,0.0,628.1911,1.0,1.0,nan,4,5.5796156,5.5796156,5.5796156,5.5796156,0.0,0.0,0.0,0.0,0.0,0.0,0.0,0,0,0,0,0,0,0,0,0,1,0,0,1,0,0
309730850,22.252924,22.309523,23.5865,23.150322,0.0,630.17944,1.0,1.0,nan,4,5.5773807,5.5773807,5.5773807,5.5773807,0.0,0.0,0.0,0.0,0.0,0.0,0.0,0,0,0,0,0,0,0,0,0,1,0,0,1,0,0
310030488,21.742537,22.314312,21.4476,22.844103,0.0,632.0588,1.0,1.0,nan,4,5.578578,5.578578,5.578578,5.578578,0.0,0.0,0.0,0.0,0.0,0.0,0.0,0,0,0,0,0,0,0,0,0,1,0,0,1,0,0
310330486,22.355003,22.323126,22.2094,22.51127,0.0,633.90173,1.0,1.0,nan,4,5.5807815,5.5807815,5.5807815,5.5807815,0.0,0.0,0.0,0.0,0.0,0.0,0.0,0,0,0,0,0,0,0,0,0,1,0,0,1,0,0
310630591,22.602905,22.364853,22.473099,21.850208,0.0,635.64874,1.0,1.0,nan,4,5.591213,5.591213,5.591213,5.591213,0.0,0.0,0.0,0.0,0.0,0.0,0.0,0,0,0,0,0,0,0,0,0,1,0,0,1,0,0
310930778,21.932108,22.360456,22.736801,22.025087,0.0,637.4977,1.0,1.0,nan,4,5.590114,5.590114,5.590114,5.590114,0.0,0.0,0.0,0.0,0.0,0.0,0.0,0,0,0,0,0,0,0,0,0,1,0,0,1,0,0
312130493,22.51541,22.362314,20.451399,20.471937,0.0,644.6671,1.0,1.0,nan,4,5.5905786,5.5905786,5.5905786,5.5905786,0.0,0.0,0.0,0.0,0.0,0.0,0.0,0,0,0,0,0,0,0,0,0,1,0,0,1,0,0
312430578,22.544575,22.337519,23.5865,21.387115,0.0,646.53827,1.0,1.0,nan,4,5.5843797,5.5843797,5.5843797,5.5843797,0.0,0.0,0.0,0.0,0.0,0.0,0.0,0,0,0,0,0,0,0,0,0,1,0,0,1,0,0
312730493,22.413334,22.333038,23.352098,21.83283,0.0,648.4102,1.0,1.0,nan,4,5.5832596,5.5832596,5.5832596,5.5832596,0.0,0.0,0.0,0.0,0.0,0.0,0.0,0,0,0,0,0,0,0,0,0,1,0,0,1,0,0
313030488,22.311255,22.290098,23.5572,22.683321,0.0,650.3883,1.0,1.0,nan,4,5.5725245,5.5725245,5.5725245,5.5725245,0.0,0.0,0.0,0.0,0.0,0.0,0.0,0,0,0,0,0,0,0,0,0,1,0,0,1,0,0
313330908,22.355003,22.29273,21.2132,22.845764,0.0,652.32214,1.0,1.0,nan,4,5.5731826,5.5731826,5.5731826,5.5731826,0.0,0.0,0.0,0.0,0.0,0.0,0.0,0,0,0,0,0,0,0,0,0,1,0,0,1,0,0
313640509,22.29667,22.292786,21.008099,22.212858,0.0,654.1667,1.0,1.0,nan,4,5.5731964,5.5731964,5.5731964,5.5731964,0.0,0.0,0.0,0.0,0.0,0.0,0.0,0,0,0,0,0,0,0,0,0,1,0,0,1,0,0
313930489,22.019606,22.271622,25.813301,22.934963,0.0,656.0726,1.0,1.0,nan,4,5.5679054,5.5679054,5.5679054,5.5679054,0.0,0.0,0.0,0.0,0.0,0.0,0.0,0,0,0,0,0,0,0,0,0,1,0,0,1,0,0
314230680,22.1071,22.242321,22.9419,23.228548,0.0,658.05255,1.0,1.0,nan,4,5.5605803,5.5605803,5.5605803,5.5605803,0.0,0.0,0.0,0.0,0.0,0.0,0.0,0,0,0,0,0,0,0,0,0,1,0,0,1,0,0
314830539,22.223759,22.230246,23.0884,23.172009,0.0,661.9211,1.0,1.0,nan,4,5.5575614,5.5575614,5.5575614,5.5575614,0.0,0.0,0.0,0.0,0.0,0.0,0.0,0,0,0,0,0,0,0,0,0,1,0,0,1,0,0
315130678,22.136265,22.24109,22.268,22.996574,0.0,663.8219,1.0,1.0,nan,4,5.5602727,5.5602727,5.5602727,5.5602727,0.0,0.0,0.0,0.0,0.0,0.0,0.0,0,0,0,0,0,0,0,0,0,1,0,0,1,0,0
315430490,22.28209,22.267458,22.1801,22.217724,0.0,665.5859,1.0,1.0,nan,4,5.5668645,5.5668645,5.5668645,5.5668645,0.0,0.0,0.0,0.0,0.0,0.0,0.0,0,0,0,0,0,0,0,0,0,1,0,0,1,0,0
315730516,22.28209,22.246601,21.7992,22.585438,0.0,667.5041,1.0,1.0,nan,4,5.5616503,5.5616503,5.5616503,5.5616503,0.0,0.0,0.0,0.0,0.0,0.0,0.0,0,0,0,0,0,0,0,0,0,1,0,0,1,0,0
316030599,22.28209,22.27692,22.5317,21.471197,0.0,669.16437,1.0,1.0,nan,4,5.56923,5.56923,5.56923,5.56923,0.0,0.0,0.0,0.0,0.0,0.0,0.0,0,0,0,0,0,0,0,0,0,1,0,0,1,0,0
316330821,22.471663,22.272802,22.9419,21.855589,0.0,671.0257,1.0,1.0,nan,4,5.5682006,5.5682006,5.5682006,5.5682006,0.0,0.0,0.0,0.0,0.0,0.0,0.0,0,0,0,0,0,0,0,0,0,1,0,0,1,0,0
316630489,22.238342,22.236748,26.0184,23.223764,0.0,673.08636,1.0,1.0,nan,4,5.559187,5.559187,5.559187,5.559187,0.0,0.0,0.0,0.0,0.0,0.0,0.0,0,0,0,0,0,0,0,0,0,1,0,0,1,0,0
316930861,22.427916,22.221235,22.7075,23.49717,0.0,675.092,1.0,1.0,nan,4,5.555309,5.555309,5.555309,5.555309,0.0,0.0,0.0,0.0,0.0,0.0,0.0,0,0,0,0,0,0,0,0,0,1,0,0,1,0,0
317231077,22.39875,22.21852,22.062899,22.364008,0.0,676.8334,1.0,1.0,nan,4,5.55463,5.55463,5.55463,5.55463,0.0,0.0,0.0,0.0,0.0,0.0,0.0,0,0,0,0,0,0,0,0,0,1,0,0,1,0,0
317841078,21.902945,22.246315,21.2425,22.229599,0.0,680.533,1.0,1.0,nan,4,5.5615788,5.5615788,5.5615788,5.5615788,0.0,0.0,0.0,0.0,0.0,0.0,0.0,0,0,0,0,0,0,0,0,0,1,0,0,1,0,0
318130489,21.859196,22.2309,24.4948,22.673965,0.0,682.38727,1.0,1.0,nan,4,5.557725,5.557725,5.557725,5.557725,0.0,0.0,0.0,0.0,0.0,0.0,0.0,0,0,0,0,0,0,0,0,0,1,0,0,1,0,0
318430491,22.28209,22.223972,20.5393,22.92395,0.0,684.3372,1.0,1.0,nan,4,5.555993,5.555993,5.555993,5.555993,0.0,0.0,0.0,0.0,0.0,0.0,0.0,0,0,0,0,0,0,0,0,0,1,0,0,1,0,0
318730488,22.063353,22.242054,19.2208,22.067734,0.0,686.0953,1.0,1.0,nan,4,5.5605135,5.5605135,5.5605135,5.5605135,0.0,0.0,0.0,0.0,0.0,0.0,0.0,0,0,0,0,0,0,0,0,0,1,0,0,1,0,0
319030799,22.6904,22.270966,20.1877,20.930693,0.0,687.7211,1.0,1.0,nan,4,5.5677414,5.5677414,5.5677414,5.5677414,0.0,0.0,0.0,0.0,0.0,0.0,0.0,0,0,0,0,0,0,0,0,0,1,0,0,1,0,0
319330487,22.369585,22.2794,21.2425,21.278088,0.0,689.52124,1.0,1.0,nan,4,5.56985,5.56985,5.56985,5.56985,0.0,0.0,0.0,0.0,0.0,0.0,0.0,0,0,0,0,0,0,0,0,0,1,0,0,1,0,0
319630641,22.267508,22.24693,21.7699,21.588514,0.0,691.3527,1.0,1.0,nan,4,5.5617323,5.5617323,5.5617323,5.5617323,0.0,0.0,0.0,0.0,0.0,0.0,0.0,0,0,0,0,0,0,0,0,0,1,0,0,1,0,0
319930490,22.427916,22.231377,23.205599,21.962242,0.0,693.214,1.0,1.0,nan,4,5.557844,5.557844,5.557844,5.557844,0.0,0.0,0.0,0.0,0.0,0.0,0.0,0,0,0,0,0,0,0,0,0,1,0,0,1,0,0
320230516,21.742537,22.193638,22.5317,22.635836,0.0,695.16205,1.0,1.0,nan,4,5.5484095,5.5484095,5.5484095,5.5484095,0.0,0.0,0.0,0.0,0.0,0.0,0.0,0,0,0,0,0,0,0,0,0,1,0,0,1,0,0
320830653,22.311255,22.234768,20.5686,21.301943,0.0,698.65594,1.0,1.0,nan,4,5.558692,5.558692,5.558692,5.558692,0.0,0.0,0.0,0.0,0.0,0.0,0.0,0,0,0,0,0,0,0,0,0,1,0,0,1,0,0
321130670,22.136265,22.216362,22.1801,21.752066,0.0,700.5115,1.0,1.0,nan,4,5.5540905,5.5540905,5.5540905,5.5540905,0.0,0.0,0.0,0.0,0.0,0.0,0.0,0,0,0,0,0,0,0,0,0,1,0,0,1,0,0
321430700,21.786283,22.196934,23.0591,22.801752,0.0,702.5216,1.0,1.0,nan,4,5.5492334,5.5492334,5.5492334,5.5492334,0.0,0.0,0.0,0.0,0.0,0.0,0.0,0,0,0,0,0,0,0,0,0,1,0,0,1,0,0
321730502,22.005022,22.175373,21.2425,22.429127,0.0,704.3547,1.0,1.0,nan,4,5.5438433,5.5438433,5.5438433,5.5438433,0.0,0.0,0.0,0.0,0.0,0.0,0.0,0,0,0,0,0,0,0,0,0,1,0,0,1,0,0
322030558,22.369585,22.204906,20.0998,22.245367,0.0,706.1969,1.0,1.0,nan,4,5.5512266,5.5512266,5.5512266,5.5512266,0.0,0.0,0.0,0.0,0.0,0.0,0.0,0,0,0,0,0,0,0,0,0,1,0,0,1,0,0
322330497,22.500828,22.242002,22.0922,21.649895,0.0,707.92993,1.0,1.0,nan,4,5.5605006,5.5605006,5.5605006,5.5605006,0.0,0.0,0.0,0.0,0.0,0.0,0.0,0,0,0,0,0,0,0,0,0,1,0,0,1,0,0
322630491,21.902945,22.21098,23.8209,21.975891,0.0,709.78625,1.0,1.0,nan,4,5.552745,5.552745,5.552745,5.552745,0.0,0.0,0.0,0.0,0.0,0.0,0.0,0,0,0,0,0,0,0,0,0,1,0,0,1,0,0
322930541,22.486246,22.206276,20.6858,22.01747,0.0,711.6349,1.0,1.0,nan,4,5.551569,5.551569,5.551569,5.551569,0.0,0.0,0.0,0.0,0.0,0.0,0.0,0,0,0,0,0,0,0,0,0,1,0,0,1,0,0
323230508,22.311255,22.227884,20.51,20.968279,0.0,713.28046,1.0,1.0,nan,4,5.556971,5.556971,5.556971,5.556971,0.0,0.0,0.0,0.0,0.0,0.0,0.0,0,0,0,0,0,0,0,0,0,1,0,0,1,0,0
323830798,22.355003,22.2093,22.0336,21.956276,0.0,717.00464,1.0,1.0,nan,4,5.552325,5.552325,5.552325,5.552325,0.0,0.0,0.0,0.0,0.0,0.0,0.0,0,0,0,0,0,0,0,0,0,1,0,0,1,0,0
324130515,21.46547,22.182442,23.322802,22.607409,0.0,718.941,1.0,1.0,nan,4,5.5456104,5.5456104,5.5456104,5.5456104,0.0,0.0,0.0,0.0,0.0,0.0,0.0,0,0,0,0,0,0,0,0,0,1,0,0,1,0,0
324430934,22.092518,22.194464,22.1215,22.486671,0.0,720.8098,1.0,1.0,nan,4,5.548616,5.548616,5.548616,5.548616,0.0,0.0,0.0,0.0,0.0,0.0,0.0,0,0,0,0,0,0,0,0,0,1,0,0,1,0,0
324730538,22.63207,22.178097,20.5393,22.173155,0.0,722.6343,1.0,1.0,nan,4,5.544524,5.544524,5.544524,5.544524,0.0,0.0,0.0,0.0,0.0,0.0,0.0,0,0,0,0,0,0,0,0,0,1,0,0,1,0,0
325030525,22.559158,22.179369,22.5317,21.559126,0.0,724.35895,1.0,1.0,nan,4,5.5448422,5.5448422,5.5448422,5.5448422,0.0,0.0,0.0,0.0,0.0,0.0,0.0,0,0,0,0,0,0,0,0,0,1,0,0,1,0,0
325330487,21.727955,22.196463,22.5024,21.745296,0.0,726.187,1.0,1.0,nan,4,5.5491157,5.5491157,5.5491157,5.5491157,0.0,0.0,0.0,0.0,0.0,0.0,0.0,0,0,0,0,0,0,0,0,0,1,0,0,1,0,0
325630544,21.946692,22.202324,21.887098,22.16337,0.0,728.0785,1.0,1.0,nan,4,5.550581,5.550581,5.550581,5.550581,0.0,0.0,0.0,0.0,0.0,0.0,0.0,0,0,0,0,0,0,0,0,0,1,0,0,1,0,0
325930520,22.311255,22.211687,22.1215,22.15074,0.0,729.9283,1.0,1.0,nan,4,5.552922,5.552922,5.552922,5.552922,0.0,0.0,0.0,0.0,0.0,0.0,0.0,0,0,0,0,0,0,0,0,0,1,0,0,1,0,0
326230488,22.209177,22.21727,22.5024,21.978638,0.0,731.74066,1.0,1.0,nan,4,5.5543175,5.5543175,5.5543175,5.5543175,0.0,0.0,0.0,0.0,0.0,0.0,0.0,0,0,0,0,0,0,0,0,0,1,0,0,1,0,0
326830520,22.063353,22.237122,21.2132,21.22693,0.0,735.22266,1.0,1.0,nan,4,5.5592804,5.5592804,5.5592804,5.5592804,0.0,0.0,0.0,0.0,0.0,0.0,0.0,0,0,0,0,0,0,0,0,0,1,0,0,1,0,0
327130584,22.063353,22.196018,24.084599,21.918682,0.0,737.10535,1.0,1.0,nan,4,5.5490046,5.5490046,5.5490046,5.5490046,0.0,0.0,0.0,0.0,0.0,0.0,0.0,0,0,0,0,0,0,0,0,0,1,0,0,1,0,0
327430539,21.669624,22.160177,21.3011,22.527983,0.0,739.0503,1.0,1.0,nan,4,5.5400443,5.5400443,5.5400443,5.5400443,0.0,0.0,0.0,0.0,0.0,0.0,0.0,0,0,0,0,0,0,0,0,0,1,0,0,1,0,0
327730533,21.611296,22.17204,20.8323,22.115204,0.0,740.8518,1.0,1.0,nan,4,5.54301,5.54301,5.54301,5.54301,0.0,0.0,0.0,0.0,0.0,0.0,0.0,0,0,0,0,0,0,0,0,0,1,0,0,1,0,0
328030784,22.223759,22.199701,22.268,21.793037,0.0,742.63275,1.0,1.0,nan,4,5.5499253,5.5499253,5.5499253,5.5499253,0.0,0.0,0.0,0.0,0.0,0.0,0.0,0,0,0,0,0,0,0,0,0,1,0,0,1,0,0
328330545,22.471663,22.188498,22.8247,21.819551,0.0,744.44995,1.0,1.0,nan,4,5.5471244,5.5471244,5.5471244,5.5471244,0.0,0.0,0.0,0.0,0.0,0.0,0.0,0,0,0,0,0,0,0,0,0,1,0,0,1,0,0
328630517,22.136265,22.180069,22.004301,22.311243,0.0,746.3589,1.0,1.0,nan,4,5.5450172,5.5450172,5.5450172,5.5450172,0.0,0.0,0.0,0.0,0.0,0.0,0.0,0,0,0,0,0,0,0,0,0,1,0,0,1,0,0
328930492,22.005022,22.179182,22.062899,22.139053,0.0,748.1865,1.0,1.0,nan,4,5.5447955,5.5447955,5.5447955,5.5447955,0.0,0.0,0.0,0.0,0.0,0.0,0.0,0,0,0,0,0,0,0,0,0,1,0,0,1,0,0
329230644,21.975859,22.160496,19.689598,22.07396,0.0,750.02356,1.0,1.0,nan,4,5.540124,5.540124,5.540124,5.540124,0.0,0.0,0.0,0.0,0.0,0.0,0.0,0,0,0,0,0,0,0,0,0,1,0,0,1,0,0
329830731,22.311255,22.199963,25.080801,21.581371,0.0,753.4975,1.0,1.0,nan,4,5.5499907,5.5499907,5.5499907,5.5499907,0.0,0.0,0.0,0.0,0.0,0.0,0.0,0,0,0,0,0,0,0,0,0,1,0,0,1,0,0
330130522,22.223759,22.155275,25.2566,23.259373,0.0,755.6106,1.0,1.0,nan,4,5.538819,5.538819,5.538819,5.538819,0.0,0.0,0.0,0.0,0.0,0.0,0.0,0,0,0,0,0,0,0,0,0,1,0,0,1,0,0
330430488,22.194595,22.147356,20.803,23.193129,0.0,757.5577,1.0,1.0,nan,4,5.536839,5.536839,5.536839,5.536839,0.0,0.0,0.0,0.0,0.0,0.0,0.0,0,0,0,0,0,0,0,0,0,1,0,0,1,0,0
330730490,22.442497,22.15349,19.4259,22.465801,0.0,759.36414,1.0,1.0,nan,4,5.5383725,5.5383725,5.5383725,5.5383725,0.0,0.0,0.0,0.0,0.0,0.0,0.0,0,0,0,0,0,0,0,0,0,1,0,0,1,0,0
331030571,22.45708,22.174276,19.865398,20.772217,0.0,760.91724,1.0,1.0,nan,4,5.543569,5.543569,5.543569,5.543569,0.0,0.0,0.0,0.0,0.0,0.0,0.0,0,0,0,0,0,0,0,0,0,1,0,0,1,0,0
331330488,22.04877,22.151812,23.1763,21.054134,0.0,762.6842,1.0,1.0,nan,4,5.537953,5.537953,5.537953,5.537953,0.0,0.0,0.0,0.0,0.0,0.0,0.0,0,0,0,0,0,0,0,0,0,1,0,0,1,0,0
331630825,22.486246,22.143417,21.887098,21.738249,0.0,764.57465,1.0,1.0,nan,4,5.5358543,5.5358543,5.5358543,5.5358543,0.0,0.0,0.0,0.0,0.0,0.0,0.0,0,0,0,0,0,0,0,0,0,1,0,0,1,0,0
331930635,22.092518,22.157297,21.389,21.829397,0.0,766.3992,1.0,1.0,nan,4,5.5393243,5.5393243,5.5393243,5.5393243,0.0,0.0,0.0,0.0,0.0,0.0,0.0,0,0,0,0,0,0,0,0,0,1,0,0,1,0,0
332230533,22.29667,22.118912,24.1139,22.821028,0.0,768.39484,1.0,1.0,nan,4,5.529728,5.529728,5.529728,5.529728,0.0,0.0,0.0,0.0,0.0,0.0,0.0,0,0,0,0,0,0,0,0,0,1,0,0,1,0,0
332830543,21.946692,22.107082,22.0922,21.97414,0.0,772.03046,1.0,1.0,nan,4,5.5267706,5.5267706,5.5267706,5.5267706,0.0,0.0,0.0,0.0,0.0,0.0,0.0,0,0,0,0,0,0,0,0,0,1,0,0,1,0,0
333130488,21.523798,22.093216,22.3852,22.14777,0.0,773.89264,1.0,1.0,nan,4,5.523304,5.523304,5.523304,5.523304,0.0,0.0,0.0,0.0,0.0,0.0,0.0,0,0,0,0,0,0,0,0,0,1,0,0,1,0,0
333430498,21.961273,22.10043,21.3597,22.50946,0.0,775.817,1.0,1.0,nan,4,5.5251074,5.5251074,5.5251074,5.5251074,0.0,0.0,0.0,0.0,0.0,0.0,0.0,0,0,0,0,0,0,0,0,0,1,0,0,1,0,0
333730501,22.311255,22.119621,21.183899,21.894934,0.0,777.58405,1.0,1.0,nan,4,5.5299053,5.5299053,5.5299053,5.5299053,0.0,0.0,0.0,0.0,0.0,0.0,0.0,0,0,0,0,0,0,0,0,0,1,0,0,1,0,0
334030488,21.888361,22.118137,20.8909,21.751963,0.0,779.3769,1.0,1.0,nan,4,5.5295343,5.5295343,5.5295343,5.5295343,0.0,0.0,0.0,0.0,0.0,0.0,0.0,0,0,0,0,0,0,0,0,0,1,0,0,1,0,0
334330605,21.87378,22.102884,22.766098,21.859856,0.0,781.2042,1.0,1.0,nan,4,5.525721,5.525721,5.525721,5.525721,0.0,0.0,0.0,0.0,0.0,0.0,0.0,0,0,0,0,0,0,0,0,0,1,0,0,1,0,0
334630606,21.64046,22.083838,22.9126,22.610159,0.0,783.1651,1.0,1.0,nan,4,5.5209594,5.5209594,5.5209594,5.5209594,0.0,0.0,0.0,0.0,0.0,0.0,0.0,0,0,0,0,0,0,0,0,0,1,0,0,1,0,0
334930489,21.87378,22.105696,21.3011,21.893385,0.0,784.9271,1.0,1.0,nan,4,5.526424,5.526424,5.526424,5.526424,0.0,0.0,0.0,0.0,0.0,0.0,0.0,0,0,0,0,0,0,0,0,0,1,0,0,1,0,0
335231243,22.150846,22.121344,21.008099,21.209427,0.0,786.62744,1.0,1.0,nan,4,5.530336,5.530336,5.530336,5.530336,0.0,0.0,0.0,0.0,0.0,0.0,0.0,0,0,0,0,0,0,0,0,0,1,0,0,1,0,0
335830490,22.180012,22.063982,22.1508,23.530735,0.0,790.68304,1.0,1.0,nan,4,5.5159955,5.5159955,5.5159955,5.5159955,0.0,0.0,0.0,0.0,0.0,0.0,0.0,0,0,0,0,0,0,0,0,0,1,0,0,1,0,0
336130584,22.39875,22.083584,18.0195,22.012945,0.0,792.3871,1.0,1.0,nan,4,5.520896,5.520896,5.520896,5.520896,0.0,0.0,0.0,0.0,0.0,0.0,0.0,0,0,0,0,0,0,0,0,0,1,0,0,1,0,0
336430497,21.815449,22.111704,19.7482,21.025394,0.0,794.022,1.0,1.0,nan,4,5.527926,5.527926,5.527926,5.527926,0.0,0.0,0.0,0.0,0.0,0.0,0.0,0,0,0,0,0,0,0,0,0,1,0,0,1,0,0
336730488,22.180012,22.118761,21.2132,20.69271,0.0,795.71094,1.0,1.0,nan,4,5.5296903,5.5296903,5.5296903,5.5296903,0.0,0.0,0.0,0.0,0.0,0.0,0.0,0,0,0,0,0,0,0,0,0,1,0,0,1,0,0
337030549,22.034187,22.100883,22.1215,20.839594,0.0,797.4644,1.0,1.0,nan,4,5.525221,5.525221,5.525221,5.525221,0.0,0.0,0.0,0.0,0.0,0.0,0.0,0,0,0,0,0,0,0,0,0,1,0,0,1,0,0
337330857,21.815449,22.103111,23.322802,21.87722,0.0,799.3904,1.0,1.0,nan,4,5.525778,5.525778,5.525778,5.525778,0.0,0.0,0.0,0.0,0.0,0.0,0.0,0,0,0,0,0,0,0,0,0,1,0,0,1,0,0
337630493,21.815449,22.047556,24.231098,23.549461,0.0,801.52277,1.0,1.0,nan,4,5.511889,5.511889,5.511889,5.511889,0.0,0.0,0.0,0.0,0.0,0.0,0.0,0,0,0,0,0,0,0,0,0,1,0,0,1,0,0
337930565,22.16543,22.040384,23.2349,23.605179,0.0,803.5094,1.0,1.0,nan,4,5.510096,5.510096,5.510096,5.510096,0.0,0.0,0.0,0.0,0.0,0.0,0.0,0,0,0,0,0,0,0,0,0,1,0,0,1,0,0
338230488,22.355003,22.05688,21.154598,22.662964,0.0,805.31165,1.0,1.0,nan,4,5.51422,5.51422,5.51422,5.51422,0.0,0.0,0.0,0.0,0.0,0.0,0.0,0,0,0,0,0,0,0,0,0,1,0,0,1,0,0
338530486,22.019606,22.050646,22.268,22.279657,0.0,807.12054,1.0,1.0,nan,4,5.5126615,5.5126615,5.5126615,5.5126615,0.0,0.0,0.0,0.0,0.0,0.0,0.0,0,0,0,0,0,0,0,0,0,1,0,0,1,0,0
338830840,21.932108,22.060995,22.854,22.477427,0.0,809.01,1.0,1.0,nan,4,5.515249,5.515249,5.515249,5.515249,0.0,0.0,0.0,0.0,0.0,0.0,0.0,0,0,0,0,0,0,0,0,0,1,0,0,1,0,0
339130526,21.655043,22.078407,20.7151,22.172432,0.0,810.82104,1.0,1.0,nan,4,5.519602,5.519602,5.519602,5.519602,0.0,0.0,0.0,0.0,0.0,0.0,0.0,0,0,0,0,0,0,0,0,0,1,0,0,1,0,0
339430488,21.494633,22.027168,23.8209,23.321678,0.0,812.8774,1.0,1.0,nan,4,5.506792,5.506792,5.506792,5.506792,0.0,0.0,0.0,0.0,0.0,0.0,0.0,0,0,0,0,0,0,0,0,0,1,0,0,1,0,0
339730625,22.413334,22.051506,18.3711,22.96039,0.0,814.78467,1.0,1.0,nan,4,5.5128765,5.5128765,5.5128765,5.5128765,0.0,0.0,0.0,0.0,0.0,0.0,0.0,0,0,0,0,0,0,0,0,0,1,0,0,1,0,0
340030559,21.946692,22.096018,19.3673,21.410618,0.0,816.4043,1.0,1.0,nan,4,5.5240045,5.5240045,5.5240045,5.5240045,0.0,0.0,0.0,0.0,0.0,0.0,0.0,0,0,0,0,0,0,0,0,0,1,0,0,1,0,0
340330490,22.121683,22.092644,24.905,21.517157,0.0,818.18616,1.0,1.0,nan,4,5.523161,5.523161,5.523161,5.523161,0.0,0.0,0.0,0.0,0.0,0.0,0.0,0,0,0,0,0,0,0,0,0,1,0,0,1,0,0
340630591,21.538382,22.047173,27.3662,23.731995,0.0,820.3746,1.0,1.0,nan,4,5.511793,5.511793,5.511793,5.511793,0.0,0.0,0.0,0.0,0.0,0.0,0.0,0,0,0,0,0,0,0,0,0,1,0,0,1,0,0
340930519,22.16543,22.025505,23.0298,24.114332,0.0,822.44336,1.0,1.0,nan,4,5.5063763,5.5063763,5.5063763,5.5063763,0.0,0.0,0.0,0.0,0.0,0.0,0.0,0,0,0,0,0,0,0,0,0,1,0,0,1,0,0
341230490,22.325836,22.065947,19.660301,22.811777,0.0,824.2196,1.0,1.0,nan,4,5.5164866,5.5164866,5.5164866,5.5164866,0.0,0.0,0.0,0.0,0.0,0.0,0.0,0,0,0,0,0,0,0,0,0,1,0,0,1,0,0
341830491,21.99044,22.114698,22.619598,20.964548,0.0,827.53516,1.0,1.0,nan,4,5.5286746,5.5286746,5.5286746,5.5286746,0.0,0.0,0.0,0.0,0.0,0.0,0.0,0,0,0,0,0,0,0,0,0,1,0,0,1,0,0
342130489,21.87378,22.099379,23.6158,21.55212,0.0,829.3854,1.0,1.0,nan,4,5.5248446,5.5248446,5.5248446,5.5248446,0.0,0.0,0.0,0.0,0.0,0.0,0.0,0,0,0,0,0,0,0,0,0,1,0,0,1,0,0
342430872,22.16543,22.08543,22.062899,22.454943,0.0,831.3564,1.0,1.0,nan,4,5.5213575,5.5213575,5.5213575,5.5213575,0.0,0.0,0.0,0.0,0.0,0.0,0.0,0,0,0,0,0,0,0,0,0,1,0,0,1,0,0
342730730,22.413334,22.061596,22.238699,22.454493,0.0,833.2202,1.0,1.0,nan,4,5.515399,5.515399,5.515399,5.515399,0.0,0.0,0.0,0.0,0.0,0.0,0.0,0,0,0,0,0,0,0,0,0,1,0,0,1,0,0
343030521,22.442497,22.053646,21.7992,22.2231,0.0,835.051,1.0,1.0,nan,4,5.5134115,5.5134115,5.5134115,5.5134115,0.0,0.0,0.0,0.0,0.0,0.0,0.0,0,0,0,0,0,0,0,0,0,1,0,0,1,0,0
343330638,22.194595,22.03272,23.0884,22.065348,0.0,836.8647,1.0,1.0,nan,4,5.50818,5.50818,5.50818,5.50818,0.0,0.0,0.0,0.0,0.0,0.0,0.0,0,0,0,0,0,0,0,0,0,1,0,0,1,0,0
343630488,21.844614,22.02243,23.0591,22.254787,0.0,838.7329,1.0,1.0,nan,4,5.5056076,5.5056076,5.5056076,5.5056076,0.0,0.0,0.0,0.0,0.0,0.0,0.0,0,0,0,0,0,0,0,0,0,1,0,0,1,0,0
343930489,21.669624,21.976057,23.6744,22.905111,0.0,840.7049,1.0,1.0,nan,4,5.4940143,5.4940143,5.4940143,5.4940143,0.0,0.0,0.0,0.0,0.0,0.0,0.0,0,0,0,0,0,0,0,0,0,1,0,0,1,0,0
344230598,22.45708,22.024996,20.8909,21.840246,0.0,842.4388,1.0,1.0,nan,4,5.506249,5.506249,5.506249,5.506249,0.0,0.0,0.0,0.0,0.0,0.0,0.0,0,0,0,0,0,0,0,0,0,1,0,0,1,0,0
344830489,21.582129,21.99991,23.322802,22.555122,0.0,846.16833,1.0,1.0,nan,4,5.4999776,5.4999776,5.4999776,5.4999776,0.0,0.0,0.0,0.0,0.0,0.0,0.0,0,0,0,0,0,0,0,0,0,1,0,0,1,0,0
345130597,22.092518,22.01416,20.9202,22.852541,0.0,848.12384,1.0,1.0,nan,4,5.50354,5.50354,5.50354,5.50354,0.0,0.0,0.0,0.0,0.0,0.0,0.0,0,0,0,0,0,0,0,0,0,1,0,0,1,0,0
345430567,22.1071,22.031376,22.3852,22.041988,0.0,849.87427,1.0,1.0,nan,4,5.507844,5.507844,5.507844,5.507844,0.0,0.0,0.0,0.0,0.0,0.0,0.0,0,0,0,0,0,0,0,0,0,1,0,0,1,0,0
345730488,22.252924,22.048647,19.543098,21.444899,0.0,851.6142,1.0,1.0,nan,4,5.5121617,5.5121617,5.5121617,5.5121617,0.0,0.0,0.0,0.0,0.0,0.0,0.0,0,0,0,0,0,0,0,0,0,1,0,0,1,0,0
346031396,22.369585,22.068874,22.561,21.243446,0.0,853.34503,1.0,1.0,nan,4,5.5172186,5.5172186,5.5172186,5.5172186,0.0,0.0,0.0,0.0,0.0,0.0,0.0,0,0,0,0,0,0,0,0,0,1,0,0,1,0,0
346330617,21.932108,22.056381,23.0884,21.561829,0.0,855.1769,1.0,1.0,nan,4,5.5140953,5.5140953,5.5140953,5.5140953,0.0,0.0,0.0,0.0,0.0,0.0,0.0,0,0,0,0,0,0,0,0,0,1,0,0,1,0,0
346630487,21.902945,22.022598,26.4872,23.299051,0.0,857.28143,1.0,1.0,nan,4,5.5056496,5.5056496,5.5056496,5.5056496,0.0,0.0,0.0,0.0,0.0,0.0,0.0,0,0,0,0,0,0,0,0,0,1,0,0,1,0,0
346930489,21.655043,22.027927,20.7737,23.12123,0.0,859.2149,1.0,1.0,nan,4,5.506982,5.506982,5.506982,5.506982,0.0,0.0,0.0,0.0,0.0,0.0,0.0,0,0,0,0,0,0,0,0,0,1,0,0,1,0,0
347230491,22.150846,22.028975,19.1329,22.188507,0.0,860.9825,1.0,1.0,nan,4,5.5072436,5.5072436,5.5072436,5.5072436,0.0,0.0,0.0,0.0,0.0,0.0,0.0,0,0,0,0,0,0,0,0,0,1,0,0,1,0,0
347830493,22.413334,22.032804,22.1508,22.842709,0.0,864.8152,1.0,1.0,nan,4,5.508201,5.508201,5.508201,5.508201,0.0,0.0,0.0,0.0,0.0,0.0,0.0,0,0,0,0,0,0,0,0,0,1,0,0,1,0,0
348130688,22.238342,22.008013,21.0374,23.009354,0.0,866.75494,1.0,1.0,nan,4,5.502003,5.502003,5.502003,5.502003,0.0,0.0,0.0,0.0,0.0,0.0,0.0,0,0,0,0,0,0,0,0,0,1,0,0,1,0,0
348430493,21.946692,22.02613,19.396599,21.096268,0.0,868.31555,1.0,1.0,nan,4,5.5065327,5.5065327,5.5065327,5.5065327,0.0,0.0,0.0,0.0,0.0,0.0,0.0,0,0,0,0,0,0,0,0,0,1,0,0,1,0,0
348730490,22.194595,22.038902,22.8247,21.559643,0.0,870.1519,1.0,1.0,nan,4,5.5097256,5.5097256,5.5097256,5.5097256,0.0,0.0,0.0,0.0,0.0,0.0,0.0,0,0,0,0,0,0,0,0,0,1,0,0,1,0,0
349030491,21.742537,22.036757,18.0488,21.783514,0.0,872.00793,1.0,1.0,nan,4,5.509189,5.509189,5.509189,5.509189,0.0,0.0,0.0,0.0,0.0,0.0,0.0,0,0,0,0,0,0,0,0,0,1,0,0,1,0,0
349330490,21.217566,22.043074,20.0998,21.154215,0.0,873.70605,1.0,1.0,nan,4,5.5107684,5.5107684,5.5107684,5.5107684,0.0,0.0,0.0,0.0,0.0,0.0,0.0,0,0,0,0,0,0,0,0,0,1,0,0,1,0,0
349630943,21.815449,21.984861,24.5241,21.891438,0.0,875.59045,1.0,1.0,nan,4,5.4962153,5.4962153,5.4962153,5.4962153,0.0,0.0,0.0,0.0,0.0,0.0,0.0,0,0,0,0,0,0,0,0,0,1,0,0,1,0,0
349930661,22.121683,21.982897,21.6234,22.413824,0.0,877.52686,1.0,1.0,nan,4,5.495724,5.495724,5.495724,5.495724,0.0,0.0,0.0,0.0,0.0,0.0,0.0,0,0,0,0,0,0,0,0,0,1,0,0,1,0,0
350230489,22.019606,21.977585,23.8795,23.183699,0.0,879.5361,1.0,1.0,nan,4,5.494396,5.494396,5.494396,5.494396,0.0,0.0,0.0,0.0,0.0,0.0,0.0,0,0,0,0,0,0,0,0,0,1,0,0,1,0,0
350830921,22.209177,22.01248,22.5024,21.820265,0.0,883.0219,1.0,1.0,nan,4,5.50312,5.50312,5.50312,5.50312,0.0,0.0,0.0,0.0,0.0,0.0,0.0,0,0,0,0,0,0,0,0,0,1,0,0,1,0,0
351130539,22.04877,22.01041,23.205599,21.5903,0.0,884.78076,1.0,1.0,nan,4,5.5026026,5.5026026,5.5026026,5.5026026,0.0,0.0,0.0,0.0,0.0,0.0,0.0,0,0,0,0,0,0,0,0,0,1,0,0,1,0,0
351430501,21.75712,21.92671,24.4655,22.807922,0.0,886.8036,1.0,1.0,nan,4,5.4816775,5.4816775,5.4816775,5.4816775,0.0,0.0,0.0,0.0,0.0,0.0,0.0,0,0,0,0,0,0,0,0,0,1,0,0,1,0,0
351730493,21.59671,21.895967,23.9674,23.693666,0.0,888.8728,1.0,1.0,nan,4,5.473992,5.473992,5.473992,5.473992,0.0,0.0,0.0,0.0,0.0,0.0,0.0,0,0,0,0,0,0,0,0,0,1,0,0,1,0,0
352030549,22.092518,21.933784,20.51,22.430696,0.0,890.6448,1.0,1.0,nan,4,5.483446,5.483446,5.483446,5.483446,0.0,0.0,0.0,0.0,0.0,0.0,0.0,0,0,0,0,0,0,0,0,0,1,0,0,1,0,0
352330513,22.092518,21.978111,20.1877,21.495197,0.0,892.3456,1.0,1.0,nan,4,5.494528,5.494528,5.494528,5.494528,0.0,0.0,0.0,0.0,0.0,0.0,0.0,0,0,0,0,0,0,0,0,0,1,0,0,1,0,0
352630492,22.194595,21.998075,20.392801,20.933445,0.0,894.03076,1.0,1.0,nan,4,5.499519,5.499519,5.499519,5.499519,0.0,0.0,0.0,0.0,0.0,0.0,0.0,0,0,0,0,0,0,0,0,0,1,0,0,1,0,0
352930546,21.59671,22.004803,22.2973,21.213465,0.0,895.8191,1.0,1.0,nan,4,5.5012007,5.5012007,5.5012007,5.5012007,0.0,0.0,0.0,0.0,0.0,0.0,0.0,0,0,0,0,0,0,0,0,0,1,0,0,1,0,0
353230515,22.092518,21.978258,25.3152,22.227554,0.0,897.7621,1.0,1.0,nan,4,5.4945645,5.4945645,5.4945645,5.4945645,0.0,0.0,0.0,0.0,0.0,0.0,0.0,0,0,0,0,0,0,0,0,0,1,0,0,1,0,0
353830494,21.786283,21.971241,19.3673,22.277252,0.0,901.61804,1.0,1.0,nan,4,5.4928102,5.4928102,5.4928102,5.4928102,0.0,0.0,0.0,0.0,0.0,0.0,0.0,0,0,0,0,0,0,0,0,0,1,0,0,1,0,0
354130527,21.800867,21.983507,19.513802,21.908882,0.0,903.409,1.0,1.0,nan,4,5.495877,5.495877,5.495877,5.495877,0.0,0.0,0.0,0.0,0.0,0.0,0.0,0,0,0,0,0,0,0,0,0,1,0,0,1,0,0
354430504,21.567545,21.967342,23.5572,22.459223,0.0,905.31195,1.0,1.0,nan,4,5.4918356,5.4918356,5.4918356,5.4918356,0.0,0.0,0.0,0.0,0.0,0.0,0.0,0,0,0,0,0,0,0,0,0,1,0,0,1,0,0
354730489,22.194595,21.955637,23.0298,22.97449,0.0,907.28375,1.0,1.0,nan,4,5.4889092,5.4889092,5.4889092,5.4889092,0.0,0.0,0.0,0.0,0.0,0.0,0.0,0,0,0,0,0,0,0,0,0,1,0,0,1,0,0
355030524,22.077934,21.965904,21.4476,22.272667,0.0,909.0756,1.0,1.0,nan,4,5.491476,5.491476,5.491476,5.491476,0.0,0.0,0.0,0.0,0.0,0.0,0.0,0,0,0,0,0,0,0,0,0,1,0,0,1,0,0
355330493,22.136265,21.958485,21.887098,21.953064,0.0,910.8733,1.0,1.0,nan,4,5.489621,5.489621,5.489621,5.489621,0.0,0.0,0.0,0.0,0.0,0.0,0.0,0,0,0,0,0,0,0,0,0,1,0,0,1,0,0
355630489,21.815449,21.948137,23.0884,22.38846,0.0,912.77856,1.0,1.0,nan,4,5.4870343,5.4870343,5.4870343,5.4870343,0.0,0.0,0.0,0.0,0.0,0.0,0.0,0,0,0,0,0,0,0,0,0,1,0,0,1,0,0
355930520,21.961273,21.959913,25.0515,22.61398,0.0,914.679,1.0,1.0,nan,4,5.4899783,5.4899783,5.4899783,5.4899783,0.0,0.0,0.0,0.0,0.0,0.0,0.0,0,0,0,0,0,0,0,0,0,1,0,0,1,0,0
356230844,21.75712,21.966599,22.004301,22.523958,0.0,916.56116,1.0,1.0,nan,4,5.4916496,5.4916496,5.4916496,5.4916496,0.0,0.0,0.0,0.0,0.0,0.0,0.0,0,0,0,0,0,0,0,0,0,1,0,0,1,0,0
356830516,22.121683,21.936832,21.506199,21.89732,0.0,920.2296,1.0,1.0,nan,4,5.484208,5.484208,5.484208,5.484208,0.0,0.0,0.0,0.0,0.0,0.0,0.0,0,0,0,0,0,0,0,0,0,1,0,0,1,0,0
357131108,22.238342,21.948704,21.4183,21.362564,0.0,921.95874,1.0,1.0,nan,4,5.487176,5.487176,5.487176,5.487176,0.0,0.0,0.0,0.0,0.0,0.0,0.0,0,0,0,0,0,0,0,0,0,1,0,0,1,0,0
357430499,22.384169,21.930973,24.1432,22.412354,0.0,923.9146,1.0,1.0,nan,4,5.4827433,5.4827433,5.4827433,5.4827433,0.0,0.0,0.0,0.0,0.0,0.0,0.0,0,0,0,0,0,0,0,0,0,1,0,0,1,0,0
357730518,22.209177,21.921957,25.784,23.413101,0.0,925.96155,1.0,1.0,nan,4,5.4804893,5.4804893,5.4804893,5.4804893,0.0,0.0,0.0,0.0,0.0,0.0,0.0,0,0,0,0,0,0,0,0,0,1,0,0,1,0,0
358030492,22.034187,21.898897,23.0884,23.784521,0.0,927.9952,1.0,1.0,nan,4,5.4747243,5.4747243,5.4747243,5.4747243,0.0,0.0,0.0,0.0,0.0,0.0,0.0,0,0,0,0,0,0,0,0,0,1,0,0,1,0,0
358330488,22.063353,21.918016,21.4769,22.940977,0.0,929.8263,1.0,1.0,nan,4,5.479504,5.479504,5.479504,5.479504,0.0,0.0,0.0,0.0,0.0,0.0,0.0,0,0,0,0,0,0,0,0,0,1,0,0,1,0,0
358630517,21.480051,21.923693,20.597898,22.208948,0.0,931.605,1.0,1.0,nan,4,5.480923,5.480923,5.480923,5.480923,0.0,0.0,0.0,0.0,0.0,0.0,0.0,0,0,0,0,0,0,0,0,0,1,0,0,1,0,0
358930687,21.87378,21.905907,22.9126,21.915262,0.0,933.38574,1.0,1.0,nan,4,5.4764767,5.4764767,5.4764767,5.4764767,0.0,0.0,0.0,0.0,0.0,0.0,0.0,0,0,0,0,0,0,0,0,0,1,0,0,1,0,0
359230551,21.450886,21.94526,21.5648,21.557161,0.0,935.1412,1.0,1.0,nan,4,5.486315,5.486315,5.486315,5.486315,0.0,0.0,0.0,0.0,0.0,0.0,0.0,0,0,0,0,0,0,0,0,0,1,0,0,1,0,0
359830497,22.1071,21.922947,25.0515,23.283848,0.0,939.0915,1.0,1.0,nan,4,5.4807367,5.4807367,5.4807367,5.4807367,0.0,0.0,0.0,0.0,0.0,0.0,0.0,0,0,0,0,0,0,0,0,0,1,0,0,1,0,0
360130488,21.625877,21.893616,20.0705,23.418264,0.0,941.0726,1.0,1.0,nan,4,5.473404,5.473404,5.473404,5.473404,0.0,0.0,0.0,0.0,0.0,0.0,0.0,0,0,0,0,0,0,0,0,0,1,0,0,1,0,0
360430488,22.077934,21.90255,20.0705,21.788002,0.0,942.71783,1.0,1.0,nan,4,5.4756374,5.4756374,5.4756374,5.4756374,0.0,0.0,0.0,0.0,0.0,0.0,0.0,0,0,0,0,0,0,0,0,0,1,0,0,1,0,0
360731137,21.917526,21.884996,22.2094,21.4597,0.0,944.47424,1.0,1.0,nan,4,5.471249,5.471249,5.471249,5.471249,0.0,0.0,0.0,0.0,0.0,0.0,0.0,0,0,0,0,0,0,0,0,0,1,0,0,1,0,0
361030490,21.59671,21.873198,25.1101,22.27724,0.0,946.39233,1.0,1.0,nan,4,5.4682994,5.4682994,5.4682994,5.4682994,0.0,0.0,0.0,0.0,0.0,0.0,0.0,0,0,0,0,0,0,0,0,0,1,0,0,1,0,0
361330488,21.830032,21.868996,21.154598,22.825186,0.0,948.37573,1.0,1.0,nan,4,5.467249,5.467249,5.467249,5.467249,0.0,0.0,0.0,0.0,0.0,0.0,0.0,0,0,0,0,0,0,0,0,0,1,0,0,1,0,0
361630493,21.786283,21.866762,20.0412,21.199999,0.0,949.97217,1.0,1.0,nan,4,5.4666905,5.4666905,5.4666905,5.4666905,0.0,0.0,0.0,0.0,0.0,0.0,0.0,0,0,0,0,0,0,0,0,0,1,0,0,1,0,0
361930489,21.917526,21.902058,22.561,20.843147,0.0,951.66016,1.0,1.0,nan,4,5.4755144,5.4755144,5.4755144,5.4755144,0.0,0.0,0.0,0.0,0.0,0.0,0.0,0,0,0,0,0,0,0,0,0,1,0,0,1,0,0
362230547,21.100906,21.870054,26.545801,23.170443,0.0,953.8114,1.0,1.0,nan,4,5.4675136,5.4675136,5.4675136,5.4675136,0.0,0.0,0.0,0.0,0.0,0.0,0.0,0,0,0,0,0,0,0,0,0,1,0,0,1,0,0
362830489,22.034187,21.838972,23.0884,24.136316,0.0,957.99396,1.0,1.0,nan,4,5.459743,5.459743,5.459743,5.459743,0.0,0.0,0.0,0.0,0.0,0.0,0.0,0,0,0,0,0,0,0,0,0,1,0,0,1,0,0
363131472,21.523798,21.865856,21.3011,23.224695,0.0,959.8452,1.0,1.0,nan,4,5.466464,5.466464,5.466464,5.466464,0.0,0.0,0.0,0.0,0.0,0.0,0.0,0,0,0,0,0,0,0,0,0,1,0,0,1,0,0
363430539,22.092518,21.886793,20.0998,22.313375,0.0,961.6143,1.0,1.0,nan,4,5.4716983,5.4716983,5.4716983,5.4716983,0.0,0.0,0.0,0.0,0.0,0.0,0.0,0,0,0,0,0,0,0,0,0,1,0,0,1,0,0
363730489,22.194595,21.897455,21.506199,21.442865,0.0,963.30115,1.0,1.0,nan,4,5.474364,5.474364,5.474364,5.474364,0.0,0.0,0.0,0.0,0.0,0.0,0.0,0,0,0,0,0,0,0,0,0,1,0,0,1,0,0
364030491,22.121683,21.91451,21.740599,21.359816,0.0,965.07,1.0,1.0,nan,4,5.4786277,5.4786277,5.4786277,5.4786277,0.0,0.0,0.0,0.0,0.0,0.0,0.0,0,0,0,0,0,0,0,0,0,1,0,0,1,0,0
364332693,21.917526,21.91497,23.322802,21.789352,0.0,966.9349,1.0,1.0,nan,4,5.4787426,5.4787426,5.4787426,5.4787426,0.0,0.0,0.0,0.0,0.0,0.0,0.0,0,0,0,0,0,0,0,0,0,1,0,0,1,0,0
364630488,21.64046,21.900785,20.451399,22.137703,0.0,968.8161,1.0,1.0,nan,4,5.4751964,5.4751964,5.4751964,5.4751964,0.0,0.0,0.0,0.0,0.0,0.0,0.0,0,0,0,0,0,0,0,0,0,1,0,0,1,0,0
364930491,21.655043,21.894386,21.975,22.00132,0.0,970.63043,1.0,1.0,nan,4,5.4735966,5.4735966,5.4735966,5.4735966,0.0,0.0,0.0,0.0,0.0,0.0,0.0,0,0,0,0,0,0,0,0,0,1,0,0,1,0,0
365230505,21.888361,21.889597,22.4438,22.090069,0.0,972.4776,1.0,1.0,nan,4,5.472399,5.472399,5.472399,5.472399,0.0,0.0,0.0,0.0,0.0,0.0,0.0,0,0,0,0,0,0,0,0,0,1,0,0,1,0,0
365530545,21.69879,21.873842,22.971199,22.502756,0.0,974.3921,1.0,1.0,nan,4,5.4684606,5.4684606,5.4684606,5.4684606,0.0,0.0,0.0,0.0,0.0,0.0,0.0,0,0,0,0,0,0,0,0,0,1,0,0,1,0,0
365830489,22.209177,21.867765,22.004301,22.535788,0.0,976.27637,1.0,1.0,nan,4,5.4669414,5.4669414,5.4669414,5.4669414,0.0,0.0,0.0,0.0,0.0,0.0,0.0,0,0,0,0,0,0,0,0,0,1,0,0,1,0,0
366130518,21.75712,21.874704,21.5648,22.028463,0.0,978.05194,1.0,1.0,nan,4,5.468676,5.468676,5.468676,5.468676,0.0,0.0,0.0,0.0,0.0,0.0,0.0,0,0,0,0,0,0,0,0,0,1,0,0,1,0,0
366430664,21.946692,21.829002,26.1356,22.455818,0.0,979.94714,1.0,1.0,nan,4,5.4572506,5.4572506,5.4572506,5.4572506,0.0,0.0,0.0,0.0,0.0,0.0,0.0,0,0,0,0,0,0,0,0,0,1,0,0,1,0,0
366730492,21.844614,21.85082,21.8285,22.956264,0.0,981.9424,1.0,1.0,nan,4,5.462705,5.462705,5.462705,5.462705,0.0,0.0,0.0,0.0,0.0,0.0,0.0,0,0,0,0,0,0,0,0,0,1,0,0,1,0,0
367041319,21.625877,21.8682,20.8909,22.413809,0.0,983.8209,1.0,1.0,nan,4,5.46705,5.46705,5.46705,5.46705,0.0,0.0,0.0,0.0,0.0,0.0,0.0,0,0,0,0,0,0,0,0,0,1,0,0,1,0,0
367330568,21.946692,21.853798,23.322802,22.343718,0.0,985.6009,1.0,1.0,nan,4,5.4634495,5.4634495,5.4634495,5.4634495,0.0,0.0,0.0,0.0,0.0,0.0,0.0,0,0,0,0,0,0,0,0,0,1,0,0,1,0,0
368530489,22.1071,21.817272,22.1801,22.8429,0.0,993.2539,1.0,1.0,nan,4,5.454318,5.454318,5.454318,5.454318,0.0,0.0,0.0,0.0,0.0,0.0,0.0,0,0,0,0,0,0,0,0,0,1,0,0,1,0,0
368830543,22.150846,21.835066,21.0667,21.999832,0.0,995.0064,1.0,1.0,nan,4,5.4587665,5.4587665,5.4587665,5.4587665,0.0,0.0,0.0,0.0,0.0,0.0,0.0,0,0,0,0,0,0,0,0,0,1,0,0,1,0,0
369130665,21.494633,21.838013,25.9012,22.38947,0.0,996.8868,1.0,1.0,nan,4,5.459503,5.459503,5.459503,5.459503,0.0,0.0,0.0,0.0,0.0,0.0,0.0,0,0,0,0,0,0,0,0,0,1,0,0,1,0,0
369430489,21.830032,21.79536,25.6082,24.149055,0.0,999.08124,1.0,1.0,nan,4,5.44884,5.44884,5.44884,5.44884,0.0,0.0,0.0,0.0,0.0,0.0,0.0,0,0,0,0,0,0,0,0,0,1,0,0,1,0,0
369732214,21.684208,21.799877,20.422098,23.172138,0.0,1000.9392,1.0,1.0,nan,4,5.4499693,5.4499693,5.4499693,5.4499693,0.0,0.0,0.0,0.0,0.0,0.0,0.0,0,0,0,0,0,0,0,0,0,1,0,0,1,0,0
370030537,21.771702,21.815435,18.957098,22.10003,0.0,1002.66394,1.0,1.0,nan,4,5.453859,5.453859,5.453859,5.453859,0.0,0.0,0.0,0.0,0.0,0.0,0.0,0,0,0,0,0,0,0,0,0,1,0,0,1,0,0
370330490,21.275896,21.847786,22.0922,21.429352,0.0,1004.36066,1.0,1.0,nan,4,5.4619465,5.4619465,5.4619465,5.4619465,0.0,0.0,0.0,0.0,0.0,0.0,0.0,0,0,0,0,0,0,0,0,0,1,0,0,1,0,0
370630558,21.99044,21.84084,22.1508,21.857635,0.0,1006.2187,1.0,1.0,nan,4,5.46021,5.46021,5.46021,5.46021,0.0,0.0,0.0,0.0,0.0,0.0,0.0,0,0,0,0,0,0,0,0,0,1,0,0,1,0,0
370930593,21.975859,21.862906,20.8909,20.639977,0.0,1007.8157,1.0,1.0,nan,4,5.4657264,5.4657264,5.4657264,5.4657264,0.0,0.0,0.0,0.0,0.0,0.0,0.0,0,0,0,0,0,0,0,0,0,1,0,0,1,0,0
371230489,21.771702,21.8561,23.0884,21.28601,0.0,1009.64276,1.0,1.0,nan,4,5.464025,5.464025,5.464025,5.464025,0.0,0.0,0.0,0.0,0.0,0.0,0.0,0,0,0,0,0,0,0,0,0,1,0,0,1,0,0
371530846,21.450886,21.821205,26.1649,23.693684,0.0,1011.8611,1.0,1.0,nan,4,5.4553013,5.4553013,5.4553013,5.4553013,0.0,0.0,0.0,0.0,0.0,0.0,0.0,0,0,0,0,0,0,0,0,0,1,0,0,1,0,0
371830660,22.29667,21.805786,23.322802,23.209814,0.0,1013.7679,1.0,1.0,nan,4,5.4514465,5.4514465,5.4514465,5.4514465,0.0,0.0,0.0,0.0,0.0,0.0,0.0,0,0,0,0,0,0,0,0,0,1,0,0,1,0,0
372130491,21.611296,21.806519,21.7699,22.975033,0.0,1015.6706,1.0,1.0,nan,4,5.4516296,5.4516296,5.4516296,5.4516296,0.0,0.0,0.0,0.0,0.0,0.0,0.0,0,0,0,0,0,0,0,0,0,1,0,0,1,0,0
372430605,21.961273,21.813425,22.3266,23.10138,0.0,1017.6179,1.0,1.0,nan,4,5.4533563,5.4533563,5.4533563,5.4533563,0.0,0.0,0.0,0.0,0.0,0.0,0.0,0,0,0,0,0,0,0,0,0,1,0,0,1,0,0
372730518,22.180012,21.815868,21.6234,22.763716,0.0,1019.46375,1.0,1.0,nan,4,5.453967,5.453967,5.453967,5.453967,0.0,0.0,0.0,0.0,0.0,0.0,0.0,0,0,0,0,0,0,0,0,0,1,0,0,1,0,0
373030490,22.005022,21.851873,22.3266,21.31223,0.0,1021.07166,1.0,1.0,nan,4,5.4629683,5.4629683,5.4629683,5.4629683,0.0,0.0,0.0,0.0,0.0,0.0,0.0,0,0,0,0,0,0,0,0,0,1,0,0,1,0,0
373330603,21.392557,21.818027,24.8757,22.646313,0.0,1023.0838,1.0,1.0,nan,4,5.454507,5.454507,5.454507,5.454507,0.0,0.0,0.0,0.0,0.0,0.0,0.0,0,0,0,0,0,0,0,0,0,1,0,0,1,0,0
373630536,22.04877,21.791613,21.5648,24.032646,0.0,1025.2556,1.0,1.0,nan,4,5.447903,5.447903,5.447903,5.447903,0.0,0.0,0.0,0.0,0.0,0.0,0.0,0,0,0,0,0,0,0,0,0,1,0,0,1,0,0
373930495,21.975859,21.844276,17.873001,21.669928,0.0,1026.8303,1.0,1.0,nan,4,5.461069,5.461069,5.461069,5.461069,0.0,0.0,0.0,0.0,0.0,0.0,0.0,0,0,0,0,0,0,0,0,0,1,0,0,1,0,0
374230541,21.888361,21.871464,20.597898,20.821978,0.0,1028.4667,1.0,1.0,nan,4,5.467866,5.467866,5.467866,5.467866,0.0,0.0,0.0,0.0,0.0,0.0,0.0,0,0,0,0,0,0,0,0,0,1,0,0,1,0,0
374830490,21.75712,21.818014,20.129099,22.047842,0.0,1032.2174,1.0,1.0,nan,4,5.4545035,5.4545035,5.4545035,5.4545035,0.0,0.0,0.0,0.0,0.0,0.0,0.0,0,0,0,0,0,0,0,0,0,1,0,0,1,0,0
375130822,21.348808,21.822004,24.5534,21.775034,0.0,1033.9822,1.0,1.0,nan,4,5.455501,5.455501,5.455501,5.455501,0.0,0.0,0.0,0.0,0.0,0.0,0.0,0,0,0,0,0,0,0,0,0,1,0,0,1,0,0
375430488,21.902945,21.817863,21.3011,21.89551,0.0,1035.8452,1.0,1.0,nan,4,5.454466,5.454466,5.454466,5.454466,0.0,0.0,0.0,0.0,0.0,0.0,0.0,0,0,0,0,0,0,0,0,0,1,0,0,1,0,0
375730668,21.59671,21.79022,26.3114,22.865013,0.0,1037.8319,1.0,1.0,nan,4,5.447555,5.447555,5.447555,5.447555,0.0,0.0,0.0,0.0,0.0,0.0,0.0,0,0,0,0,0,0,0,0,0,1,0,0,1,0,0
376030597,21.844614,21.74933,23.147,24.143179,0.0,1039.9923,1.0,1.0,nan,4,5.4373326,5.4373326,5.4373326,5.4373326,0.0,0.0,0.0,0.0,0.0,0.0,0.0,0,0,0,0,0,0,0,0,0,1,0,0,1,0,0
376330489,21.87378,21.789974,19.8361,22.556839,0.0,1041.7266,1.0,1.0,nan,4,5.4474936,5.4474936,5.4474936,5.4474936,0.0,0.0,0.0,0.0,0.0,0.0,0.0,0,0,0,0,0,0,0,0,0,1,0,0,1,0,0
376630539,22.180012,21.789976,23.733,22.456589,0.0,1043.5774,1.0,1.0,nan,4,5.447494,5.447494,5.447494,5.447494,0.0,0.0,0.0,0.0,0.0,0.0,0.0,0,0,0,0,0,0,0,0,0,1,0,0,1,0,0
376930564,22.005022,21.795315,21.271801,22.234001,0.0,1045.419,1.0,1.0,nan,4,5.4488287,5.4488287,5.4488287,5.4488287,0.0,0.0,0.0,0.0,0.0,0.0,0.0,0,0,0,0,0,0,0,0,0,1,0,0,1,0,0
377230570,21.611296,21.779306,23.147,22.55483,0.0,1047.326,1.0,1.0,nan,4,5.4448266,5.4448266,5.4448266,5.4448266,0.0,0.0,0.0,0.0,0.0,0.0,0.0,0,0,0,0,0,0,0,0,0,1,0,0,1,0,0
377830563,22.209177,21.77337,20.0119,22.154089,0.0,1051.0544,1.0,1.0,nan,4,5.4433427,5.4433427,5.4433427,5.4433427,0.0,0.0,0.0,0.0,0.0,0.0,0.0,0,0,0,0,0,0,0,0,0,1,0,0,1,0,0
378130491,21.99044,21.802113,20.9202,20.930733,0.0,1052.6648,1.0,1.0,nan,4,5.450528,5.450528,5.450528,5.450528,0.0,0.0,0.0,0.0,0.0,0.0,0.0,0,0,0,0,0,0,0,0,0,1,0,0,1,0,0
378430487,21.830032,21.818829,20.597898,21.263693,0.0,1054.4696,1.0,1.0,nan,4,5.454707,5.454707,5.454707,5.454707,0.0,0.0,0.0,0.0,0.0,0.0,0.0,0,0,0,0,0,0,0,0,0,1,0,0,1,0,0
378730859,21.582129,21.786451,25.2859,22.224506,0.0,1056.4105,1.0,1.0,nan,4,5.446613,5.446613,5.446613,5.446613,0.0,0.0,0.0,0.0,0.0,0.0,0.0,0,0,0,0,0,0,0,0,0,1,0,0,1,0,0
379030521,21.69879,21.754131,24.1139,23.657288,0.0,1058.5364,1.0,1.0,nan,4,5.438533,5.438533,5.438533,5.438533,0.0,0.0,0.0,0.0,0.0,0.0,0.0,0,0,0,0,0,0,0,0,0,1,0,0,1,0,0
379330573,21.59671,21.773746,19.3087,22.852549,0.0,1060.3835,1.0,1.0,nan,4,5.4434366,5.4434366,5.4434366,5.4434366,0.0,0.0,0.0,0.0,0.0,0.0,0.0,0,0,0,0,0,0,0,0,0,1,0,0,1,0,0
379630686,21.902945,21.774292,23.9967,22.66673,0.0,1062.2446,1.0,1.0,nan,4,5.443573,5.443573,5.443573,5.443573,0.0,0.0,0.0,0.0,0.0,0.0,0.0,0,0,0,0,0,0,0,0,0,1,0,0,1,0,0
379930569,21.509216,21.738798,24.3776,23.468798,0.0,1064.2769,1.0,1.0,nan,4,5.4346995,5.4346995,5.4346995,5.4346995,0.0,0.0,0.0,0.0,0.0,0.0,0.0,0,0,0,0,0,0,0,0,0,1,0,0,1,0,0
380230487,21.946692,21.76154,19.0743,22.674908,0.0,1066.1134,1.0,1.0,nan,4,5.440385,5.440385,5.440385,5.440385,0.0,0.0,0.0,0.0,0.0,0.0,0.0,0,0,0,0,0,0,0,0,0,1,0,0,1,0,0
380530578,21.830032,21.804384,19.7775,21.613691,0.0,1067.8136,1.0,1.0,nan,4,5.451096,5.451096,5.451096,5.451096,0.0,0.0,0.0,0.0,0.0,0.0,0.0,0,0,0,0,0,0,0,0,0,1,0,0,1,0,0
380830490,22.180012,21.805838,23.0884,21.330704,0.0,1069.5537,1.0,1.0,nan,4,5.4514594,5.4514594,5.4514594,5.4514594,0.0,0.0,0.0,0.0,0.0,0.0,0.0,0,0,0,0,0,0,0,0,0,1,0,0,1,0,0
381130488,21.786283,21.777092,25.6375,22.907955,0.0,1071.6072,1.0,1.0,nan,4,5.444273,5.444273,5.444273,5.444273,0.0,0.0,0.0,0.0,0.0,0.0,0.0,0,0,0,0,0,0,0,0,0,1,0,0,1,0,0
381430573,22.063353,21.777338,21.4183,22.974306,0.0,1073.5487,1.0,1.0,nan,4,5.4443345,5.4443345,5.4443345,5.4443345,0.0,0.0,0.0,0.0,0.0,0.0,0.0,0,0,0,0,0,0,0,0,0,1,0,0,1,0,0
381730490,21.87378,21.78636,22.1508,22.27119,0.0,1075.3267,1.0,1.0,nan,4,5.44659,5.44659,5.44659,5.44659,0.0,0.0,0.0,0.0,0.0,0.0,0.0,0,0,0,0,0,0,0,0,0,1,0,0,1,0,0
382030502,21.625877,21.799568,21.2132,21.947273,0.0,1077.1256,1.0,1.0,nan,4,5.449892,5.449892,5.449892,5.449892,0.0,0.0,0.0,0.0,0.0,0.0,0.0,0,0,0,0,0,0,0,0,0,1,0,0,1,0,0
382330924,21.888361,21.818066,21.5355,21.07941,0.0,1078.7899,1.0,1.0,nan,4,5.4545164,5.4545164,5.4545164,5.4545164,0.0,0.0,0.0,0.0,0.0,0.0,0.0,0,0,0,0,0,0,0,0,0,1,0,0,1,0,0
382630696,21.684208,21.80731,23.0298,21.292059,0.0,1080.5837,1.0,1.0,nan,4,5.4518275,5.4518275,5.4518275,5.4518275,0.0,0.0,0.0,0.0,0.0,0.0,0.0,0,0,0,0,0,0,0,0,0,1,0,0,1,0,0
382930487,21.844614,21.763384,25.1101,23.224955,0.0,1082.7158,1.0,1.0,nan,4,5.440846,5.440846,5.440846,5.440846,0.0,0.0,0.0,0.0,0.0,0.0,0.0,0,0,0,0,0,0,0,0,0,1,0,0,1,0,0
383230631,22.019606,21.751316,25.491001,23.490088,0.0,1084.6906,1.0,1.0,nan,4,5.437829,5.437829,5.437829,5.437829,0.0,0.0,0.0,0.0,0.0,0.0,0.0,0,0,0,0,0,0,0,0,0,1,0,0,1,0,0
383830494,21.932108,21.797894,20.861599,21.642216,0.0,1088.2422,1.0,1.0,nan,4,5.4494734,5.4494734,5.4494734,5.4494734,0.0,0.0,0.0,0.0,0.0,0.0,0.0,0,0,0,0,0,0,0,0,0,1,0,0,1,0,0
384130587,21.932108,21.796408,22.6782,21.824675,0.0,1090.0725,1.0,1.0,nan,4,5.449102,5.449102,5.449102,5.449102,0.0,0.0,0.0,0.0,0.0,0.0,0.0,0,0,0,0,0,0,0,0,0,1,0,0,1,0,0
384430489,21.348808,21.764542,24.084599,22.997227,0.0,1092.1049,1.0,1.0,nan,4,5.4411354,5.4411354,5.4411354,5.4411354,0.0,0.0,0.0,0.0,0.0,0.0,0.0,0,0,0,0,0,0,0,0,0,1,0,0,1,0,0
384730488,21.830032,21.767504,20.8909,22.045692,0.0,1093.862,1.0,1.0,nan,4,5.441876,5.441876,5.441876,5.441876,0.0,0.0,0.0,0.0,0.0,0.0,0.0,0,0,0,0,0,0,0,0,0,1,0,0,1,0,0
385030590,21.87378,21.755402,23.6744,22.19796,0.0,1095.7168,1.0,1.0,nan,4,5.4388504,5.4388504,5.4388504,5.4388504,0.0,0.0,0.0,0.0,0.0,0.0,0.0,0,0,0,0,0,0,0,0,0,1,0,0,1,0,0
385330491,21.684208,21.75678,22.736801,22.720947,0.0,1097.6669,1.0,1.0,nan,4,5.439195,5.439195,5.439195,5.439195,0.0,0.0,0.0,0.0,0.0,0.0,0.0,0,0,0,0,0,0,0,0,0,1,0,0,1,0,0
385630489,21.64046,21.745455,18.1074,22.52544,0.0,1099.5583,1.0,1.0,nan,4,5.4363637,5.4363637,5.4363637,5.4363637,0.0,0.0,0.0,0.0,0.0,0.0,0.0,0,0,0,0,0,0,0,0,0,1,0,0,1,0,0
385930859,21.917526,21.770613,21.330399,21.512419,0.0,1101.2325,1.0,1.0,nan,4,5.442653,5.442653,5.442653,5.442653,0.0,0.0,0.0,0.0,0.0,0.0,0.0,0,0,0,0,0,0,0,0,0,1,0,0,1,0,0
386230544,21.582129,21.753344,23.352098,22.45483,0.0,1103.1866,1.0,1.0,nan,4,5.438336,5.438336,5.438336,5.438336,0.0,0.0,0.0,0.0,0.0,0.0,0.0,0,0,0,0,0,0,0,0,0,1,0,0,1,0,0
386830625,21.64046,21.744194,20.0998,22.035938,0.0,1106.9414,1.0,1.0,nan,4,5.4360485,5.4360485,5.4360485,5.4360485,0.0,0.0,0.0,0.0,0.0,0.0,0.0,0,0,0,0,0,0,0,0,0,1,0,0,1,0,0
387130494,21.786283,21.758429,24.260399,21.907932,0.0,1108.7405,1.0,1.0,nan,4,5.439607,5.439607,5.439607,5.439607,0.0,0.0,0.0,0.0,0.0,0.0,0.0,0,0,0,0,0,0,0,0,0,1,0,0,1,0,0
387430542,22.034187,21.730267,26.545801,23.579987,0.0,1110.8619,1.0,1.0,nan,4,5.4325666,5.4325666,5.4325666,5.4325666,0.0,0.0,0.0,0.0,0.0,0.0,0.0,0,0,0,0,0,0,0,0,0,1,0,0,1,0,0
387730628,21.946692,21.742857,19.8361,22.704773,0.0,1112.7023,1.0,1.0,nan,4,5.4357142,5.4357142,5.4357142,5.4357142,0.0,0.0,0.0,0.0,0.0,0.0,0.0,0,0,0,0,0,0,0,0,0,1,0,0,1,0,0
388030490,21.29048,21.754444,22.6489,22.00313,0.0,1114.4474,1.0,1.0,nan,4,5.438611,5.438611,5.438611,5.438611,0.0,0.0,0.0,0.0,0.0,0.0,0.0,0,0,0,0,0,0,0,0,0,1,0,0,1,0,0
388330541,21.407139,21.720396,24.4655,23.018543,0.0,1116.4569,1.0,1.0,nan,4,5.430099,5.430099,5.430099,5.430099,0.0,0.0,0.0,0.0,0.0,0.0,0.0,0,0,0,0,0,0,0,0,0,1,0,0,1,0,0
388630613,21.975859,21.722425,22.4438,22.780523,0.0,1118.3466,1.0,1.0,nan,4,5.4306064,5.4306064,5.4306064,5.4306064,0.0,0.0,0.0,0.0,0.0,0.0,0.0,0,0,0,0,0,0,0,0,0,1,0,0,1,0,0
388930494,21.830032,21.735182,20.3635,22.075056,0.0,1120.1261,1.0,1.0,nan,4,5.4337955,5.4337955,5.4337955,5.4337955,0.0,0.0,0.0,0.0,0.0,0.0,0.0,0,0,0,0,0,0,0,0,0,1,0,0,1,0,0
389230489,22.092518,21.760614,21.975,21.716684,0.0,1121.8916,1.0,1.0,nan,4,5.4401536,5.4401536,5.4401536,5.4401536,0.0,0.0,0.0,0.0,0.0,0.0,0.0,0,0,0,0,0,0,0,0,0,1,0,0,1,0,0
389830495,21.538382,21.716253,24.201801,23.37231,0.0,1125.8943,1.0,1.0,nan,4,5.4290633,5.4290633,5.4290633,5.4290633,0.0,0.0,0.0,0.0,0.0,0.0,0.0,0,0,0,0,0,0,0,0,0,1,0,0,1,0,0
390130490,21.742537,21.716606,23.469301,23.217419,0.0,1127.8059,1.0,1.0,nan,4,5.4291515,5.4291515,5.4291515,5.4291515,0.0,0.0,0.0,0.0,0.0,0.0,0.0,0,0,0,0,0,0,0,0,0,1,0,0,1,0,0
390430638,21.684208,21.713894,22.5024,23.111094,0.0,1129.7267,1.0,1.0,nan,4,5.4284735,5.4284735,5.4284735,5.4284735,0.0,0.0,0.0,0.0,0.0,0.0,0.0,0,0,0,0,0,0,0,0,0,1,0,0,1,0,0
390730490,21.552963,21.728674,20.949501,21.966314,0.0,1131.4349,1.0,1.0,nan,4,5.4321685,5.4321685,5.4321685,5.4321685,0.0,0.0,0.0,0.0,0.0,0.0,0.0,0,0,0,0,0,0,0,0,0,1,0,0,1,0,0
391030494,21.946692,21.729147,25.491001,22.440071,0.0,1133.3367,1.0,1.0,nan,4,5.4322867,5.4322867,5.4322867,5.4322867,0.0,0.0,0.0,0.0,0.0,0.0,0.0,0,0,0,0,0,0,0,0,0,1,0,0,1,0,0
391330652,21.917526,21.714773,25.0515,23.262781,0.0,1135.3562,1.0,1.0,nan,4,5.4286933,5.4286933,5.4286933,5.4286933,0.0,0.0,0.0,0.0,0.0,0.0,0.0,0,0,0,0,0,0,0,0,0,1,0,0,1,0,0
391630490,21.523798,21.713577,22.238699,22.859798,0.0,1137.225,1.0,1.0,nan,4,5.4283943,5.4283943,5.4283943,5.4283943,0.0,0.0,0.0,0.0,0.0,0.0,0.0,0,0,0,0,0,0,0,0,0,1,0,0,1,0,0
391930492,21.902945,21.722328,21.2425,22.663244,0.0,1139.0938,1.0,1.0,nan,4,5.430582,5.430582,5.430582,5.430582,0.0,0.0,0.0,0.0,0.0,0.0,0.0,0,0,0,0,0,0,0,0,0,1,0,0,1,0,0
392230592,21.713371,21.736382,21.3011,22.005396,0.0,1140.8534,1.0,1.0,nan,4,5.4340954,5.4340954,5.4340954,5.4340954,0.0,0.0,0.0,0.0,0.0,0.0,0.0,0,0,0,0,0,0,0,0,0,1,0,0,1,0,0
392830488,21.771702,21.726357,21.271801,21.821434,0.0,1144.4912,1.0,1.0,nan,4,5.431589,5.431589,5.431589,5.431589,0.0,0.0,0.0,0.0,0.0,0.0,0.0,0,0,0,0,0,0,0,0,0,1,0,0,1,0,0
393130904,22.092518,21.721457,24.260399,22.556147,0.0,1146.44,1.0,1.0,nan,4,5.430364,5.430364,5.430364,5.430364,0.0,0.0,0.0,0.0,0.0,0.0,0.0,0,0,0,0,0,0,0,0,0,1,0,0,1,0,0
393431057,21.69879,21.710403,24.817099,23.266487,0.0,1148.447,1.0,1.0,nan,4,5.427601,5.427601,5.427601,5.427601,0.0,0.0,0.0,0.0,0.0,0.0,0.0,0,0,0,0,0,0,0,0,0,1,0,0,1,0,0
393730495,21.932108,21.717468,23.6744,22.989426,0.0,1150.3352,1.0,1.0,nan,4,5.429367,5.429367,5.429367,5.429367,0.0,0.0,0.0,0.0,0.0,0.0,0.0,0,0,0,0,0,0,0,0,0,1,0,0,1,0,0
394030623,21.625877,21.732353,23.1177,22.909418,0.0,1152.2365,1.0,1.0,nan,4,5.4330883,5.4330883,5.4330883,5.4330883,0.0,0.0,0.0,0.0,0.0,0.0,0.0,0,0,0,0,0,0,0,0,0,1,0,0,1,0,0
394330489,22.180012,21.751284,19.2501,22.318447,0.0,1154.049,1.0,1.0,nan,4,5.437821,5.437821,5.437821,5.437821,0.0,0.0,0.0,0.0,0.0,0.0,0.0,0,0,0,0,0,0,0,0,0,1,0,0,1,0,0
394630515,21.669624,21.722485,24.1725,22.63601,0.0,1155.9397,1.0,1.0,nan,4,5.430621,5.430621,5.430621,5.430621,0.0,0.0,0.0,0.0,0.0,0.0,0.0,0,0,0,0,0,0,0,0,0,1,0,0,1,0,0
394930595,21.64046,21.685823,26.5751,23.86047,0.0,1158.0463,1.0,1.0,nan,4,5.421456,5.421456,5.421456,5.421456,0.0,0.0,0.0,0.0,0.0,0.0,0.0,0,0,0,0,0,0,0,0,0,1,0,0,1,0,0
395230551,21.523798,21.684992,20.7737,23.37289,0.0,1159.9679,1.0,1.0,nan,4,5.421248,5.421248,5.421248,5.421248,0.0,0.0,0.0,0.0,0.0,0.0,0.0,0,0,0,0,0,0,0,0,0,1,0,0,1,0,0
395830593,21.932108,21.709394,21.330399,21.988657,0.0,1163.525,1.0,1.0,nan,4,5.4273486,5.4273486,5.4273486,5.4273486,0.0,0.0,0.0,0.0,0.0,0.0,0.0,0,0,0,0,0,0,0,0,0,1,0,0,1,0,0
396130607,21.450886,21.706495,22.3559,22.384075,0.0,1165.4229,1.0,1.0,nan,4,5.426624,5.426624,5.426624,5.426624,0.0,0.0,0.0,0.0,0.0,0.0,0.0,0,0,0,0,0,0,0,0,0,1,0,0,1,0,0
396430493,21.932108,21.72551,20.9788,21.30461,0.0,1167.0829,1.0,1.0,nan,4,5.4313774,5.4313774,5.4313774,5.4313774,0.0,0.0,0.0,0.0,0.0,0.0,0.0,0,0,0,0,0,0,0,0,0,1,0,0,1,0,0
396730897,21.100906,21.719753,22.736801,21.904854,0.0,1168.9656,1.0,1.0,nan,4,5.4299383,5.4299383,5.4299383,5.4299383,0.0,0.0,0.0,0.0,0.0,0.0,0.0,0,0,0,0,0,0,0,0,0,1,0,0,1,0,0
397030556,21.727955,21.683529,26.9853,23.182909,0.0,1171.0077,1.0,1.0,nan,4,5.420882,5.420882,5.420882,5.420882,0.0,0.0,0.0,0.0,0.0,0.0,0.0,0,0,0,0,0,0,0,0,0,1,0,0,1,0,0
397330570,21.75712,21.639952,21.4476,23.808075,0.0,1173.0795,1.0,1.0,nan,4,5.409988,5.409988,5.409988,5.409988,0.0,0.0,0.0,0.0,0.0,0.0,0.0,0,0,0,0,0,0,0,0,0,1,0,0,1,0,0
397630621,21.29048,21.6475,23.8502,23.302006,0.0,1174.9575,1.0,1.0,nan,4,5.411875,5.411875,5.411875,5.411875,0.0,0.0,0.0,0.0,0.0,0.0,0.0,0,0,0,0,0,0,0,0,0,1,0,0,1,0,0
397930495,21.932108,21.65938,23.5572,23.010801,0.0,1176.8523,1.0,1.0,nan,4,5.414845,5.414845,5.414845,5.414845,0.0,0.0,0.0,0.0,0.0,0.0,0.0,0,0,0,0,0,0,0,0,0,1,0,0,1,0,0
398231098,21.582129,21.66493,18.927801,22.019112,0.0,1178.6118,1.0,1.0,nan,4,5.4162326,5.4162326,5.4162326,5.4162326,0.0,0.0,0.0,0.0,0.0,0.0,0.0,0,0,0,0,0,0,0,0,0,1,0,0,1,0,0
398830493,21.480051,21.669346,25.1687,22.486816,0.0,1182.3062,1.0,1.0,nan,4,5.4173365,5.4173365,5.4173365,5.4173365,0.0,0.0,0.0,0.0,0.0,0.0,0.0,0,0,0,0,0,0,0,0,0,1,0,0,1,0,0
399130535,21.363392,21.645832,23.2935,23.74792,0.0,1184.422,1.0,1.0,nan,4,5.411458,5.411458,5.411458,5.411458,0.0,0.0,0.0,0.0,0.0,0.0,0.0,0,0,0,0,0,0,0,0,0,1,0,0,1,0,0
399430633,22.092518,21.657097,20.8323,22.923758,0.0,1186.2555,1.0,1.0,nan,4,5.414274,5.414274,5.414274,5.414274,0.0,0.0,0.0,0.0,0.0,0.0,0.0,0,0,0,0,0,0,0,0,0,1,0,0,1,0,0
399730502,21.655043,21.669844,20.51,21.689966,0.0,1187.9374,1.0,1.0,nan,4,5.417461,5.417461,5.417461,5.417461,0.0,0.0,0.0,0.0,0.0,0.0,0.0,0,0,0,0,0,0,0,0,0,1,0,0,1,0,0
400030512,21.480051,21.682714,23.2642,21.937895,0.0,1189.7748,1.0,1.0,nan,4,5.4206786,5.4206786,5.4206786,5.4206786,0.0,0.0,0.0,0.0,0.0,0.0,0.0,0,0,0,0,0,0,0,0,0,1,0,0,1,0,0
400331091,21.538382,21.654947,25.1687,22.430668,0.0,1191.6932,1.0,1.0,nan,4,5.413737,5.413737,5.413737,5.413737,0.0,0.0,0.0,0.0,0.0,0.0,0.0,0,0,0,0,0,0,0,0,0,1,0,0,1,0,0
400630588,21.742537,21.645428,22.7075,23.290554,0.0,1193.731,1.0,1.0,nan,4,5.411357,5.411357,5.411357,5.411357,0.0,0.0,0.0,0.0,0.0,0.0,0.0,0,0,0,0,0,0,0,0,0,1,0,0,1,0,0
400930657,21.786283,21.64612,20.597898,22.37718,0.0,1195.508,1.0,1.0,nan,4,5.41153,5.41153,5.41153,5.41153,0.0,0.0,0.0,0.0,0.0,0.0,0.0,0,0,0,0,0,0,0,0,0,1,0,0,1,0,0
401230636,21.815449,21.677624,18.8985,21.79942,0.0,1197.2736,1.0,1.0,nan,4,5.419406,5.419406,5.419406,5.419406,0.0,0.0,0.0,0.0,0.0,0.0,0.0,0,0,0,0,0,0,0,0,0,1,0,0,1,0,0
401830510,21.59671,21.713552,24.4362,21.257793,0.0,1200.7576,1.0,1.0,nan,4,5.428388,5.428388,5.428388,5.428388,0.0,0.0,0.0,0.0,0.0,0.0,0.0,0,0,0,0,0,0,0,0,0,1,0,0,1,0,0
402130592,21.800867,21.695564,23.9088,21.932035,0.0,1202.6622,1.0,1.0,nan,4,5.423891,5.423891,5.423891,5.423891,0.0,0.0,0.0,0.0,0.0,0.0,0.0,0,0,0,0,0,0,0,0,0,1,0,0,1,0,0
402430494,21.64046,21.6703,26.223501,22.97708,0.0,1204.6772,1.0,1.0,nan,4,5.417575,5.417575,5.417575,5.417575,0.0,0.0,0.0,0.0,0.0,0.0,0.0,0,0,0,0,0,0,0,0,0,1,0,0,1,0,0
402730489,22.019606,21.63157,21.8285,24.014639,0.0,1206.8005,1.0,1.0,nan,4,5.4078927,5.4078927,5.4078927,5.4078927,0.0,0.0,0.0,0.0,0.0,0.0,0.0,0,0,0,0,0,0,0,0,0,1,0,0,1,0,0
403030591,22.005022,21.648678,20.803,22.706055,0.0,1208.5658,1.0,1.0,nan,4,5.4121695,5.4121695,5.4121695,5.4121695,0.0,0.0,0.0,0.0,0.0,0.0,0.0,0,0,0,0,0,0,0,0,0,1,0,0,1,0,0
403330523,22.238342,21.686817,19.7482,21.938381,0.0,1210.3188,1.0,1.0,nan,4,5.4217043,5.4217043,5.4217043,5.4217043,0.0,0.0,0.0,0.0,0.0,0.0,0.0,0,0,0,0,0,0,0,0,0,1,0,0,1,0,0
403630571,21.771702,21.68232,21.2132,22.15979,0.0,1212.1748,1.0,1.0,nan,4,5.42058,5.42058,5.42058,5.42058,0.0,0.0,0.0,0.0,0.0,0.0,0.0,0,0,0,0,0,0,0,0,0,1,0,0,1,0,0
403930961,21.436304,21.671387,21.887098,21.66733,0.0,1213.9269,1.0,1.0,nan,4,5.4178467,5.4178467,5.4178467,5.4178467,0.0,0.0,0.0,0.0,0.0,0.0,0.0,0,0,0,0,0,0,0,0,0,1,0,0,1,0,0
404230716,21.42172,21.65806,24.670599,22.561716,0.0,1215.8829,1.0,1.0,nan,4,5.414515,5.414515,5.414515,5.414515,0.0,0.0,0.0,0.0,0.0,0.0,0.0,0,0,0,0,0,0,0,0,0,1,0,0,1,0,0
404830678,21.713371,21.633493,21.4769,23.367626,0.0,1219.9331,1.0,1.0,nan,4,5.4083734,5.4083734,5.4083734,5.4083734,0.0,0.0,0.0,0.0,0.0,0.0,0.0,0,0,0,0,0,0,0,0,0,1,0,0,1,0,0
405140553,21.552963,21.659712,21.2132,22.490734,0.0,1221.7819,1.0,1.0,nan,4,5.414928,5.414928,5.414928,5.414928,0.0,0.0,0.0,0.0,0.0,0.0,0.0,0,0,0,0,0,0,0,0,0,1,0,0,1,0,0
405430489,21.713371,21.665684,21.2425,21.863295,0.0,1223.4775,1.0,1.0,nan,4,5.416421,5.416421,5.416421,5.416421,0.0,0.0,0.0,0.0,0.0,0.0,0.0,0,0,0,0,0,0,0,0,0,1,0,0,1,0,0
405730588,22.005022,21.67535,22.1801,21.70695,0.0,1225.2709,1.0,1.0,nan,4,5.4188375,5.4188375,5.4188375,5.4188375,0.0,0.0,0.0,0.0,0.0,0.0,0.0,0,0,0,0,0,0,0,0,0,1,0,0,1,0,0
406030488,21.46547,21.665592,25.4617,22.722643,0.0,1227.2576,1.0,1.0,nan,4,5.416398,5.416398,5.416398,5.416398,0.0,0.0,0.0,0.0,0.0,0.0,0.0,0,0,0,0,0,0,0,0,0,1,0,0,1,0,0
406330510,21.377974,21.625029,22.6489,23.572124,0.0,1229.3269,1.0,1.0,nan,4,5.406257,5.406257,5.406257,5.406257,0.0,0.0,0.0,0.0,0.0,0.0,0.0,0,0,0,0,0,0,0,0,0,1,0,0,1,0,0
406630593,21.75712,21.646341,21.857801,22.550314,0.0,1231.1018,1.0,1.0,nan,4,5.4115853,5.4115853,5.4115853,5.4115853,0.0,0.0,0.0,0.0,0.0,0.0,0.0,0,0,0,0,0,0,0,0,0,1,0,0,1,0,0
406930501,21.305061,21.645853,24.406898,22.641357,0.0,1232.9841,1.0,1.0,nan,4,5.4114633,5.4114633,5.4114633,5.4114633,0.0,0.0,0.0,0.0,0.0,0.0,0.0,0,0,0,0,0,0,0,0,0,1,0,0,1,0,0
407230490,21.75712,21.631155,24.406898,23.638079,0.0,1235.0569,1.0,1.0,nan,4,5.4077888,5.4077888,5.4077888,5.4077888,0.0,0.0,0.0,0.0,0.0,0.0,0.0,0,0,0,0,0,0,0,0,0,1,0,0,1,0,0
407532140,21.975859,21.605553,23.9674,23.799995,0.0,1237.0731,1.0,1.0,nan,4,5.401388,5.401388,5.401388,5.401388,0.0,0.0,0.0,0.0,0.0,0.0,0.0,0,0,0,0,0,0,0,0,0,1,0,0,1,0,0
407830867,21.800867,21.613853,18.3125,22.51684,0.0,1238.832,1.0,1.0,nan,4,5.4034634,5.4034634,5.4034634,5.4034634,0.0,0.0,0.0,0.0,0.0,0.0,0.0,0,0,0,0,0,0,0,0,0,1,0,0,1,0,0
