timestamp,timestamp_sample,ref_timestamp,ref_lat,ref_lon,x,y,z,delta_xy[0],delta_xy[1],delta_z,vx,vy,vz,z_deriv,delta_vxy[0],delta_vxy[1],delta_vz,ax,ay,az,heading,delta_heading,ref_alt,dist_bottom,eph,epv,evh,evv,vxy_max,vz_max,hagl_min,hagl_max,xy_valid,z_valid,v_xy_valid,v_z_valid,xy_reset_counter,z_reset_counter,vxy_reset_counter,vz_reset_counter,heading_reset_counter,xy_global,z_global,dist_bottom_valid,dist_bottom_sensor_bitfield
293536224,293535766,0,nan,nan,0.003934336,0.010564238,-8.42553,0.0,0.0,-0.00012689829,-0.008601058,0.021941366,0.15167187,0.11056919,-0.0063445233,0.013964439,-0.020002015,0.05022792,-0.20923895,-0.020098342,-1.1724584,-0.009342181,nan,0.1,0.31446773,0.50594175,0.17815314,0.12695147,inf,inf,inf,inf,0,1,0,1,1,3,1,3,3,0,0,1,0
294031981,294031582,0,nan,nan,-0.015829774,0.026992248,-8.395699,0.0,0.0,-0.00012689829,-0.06865013,0.06251576,0.16888568,0.106935106,-0.0063445233,0.013964439,-0.020002015,-0.8391353,0.0038502088,0.42451242,-1.1710097,-0.009342181,nan,0.1,0.29795125,0.50759697,0.1719907,0.12710148,inf,inf,inf,inf,0,1,0,1,1,3,1,3,3,0,0,1,0
294528076,294527664,0,nan,nan,-0.05600648,0.055981737,-8.39676,0.0,0.0,-0.00012689829,-0.1145237,0.09860528,0.17227401,0.06828278,-0.0063445233,0.013964439,-0.020002015,0.34627053,0.8596313,0.21883292,-1.1702814,-0.009342181,nan,0.1,0.30860114,0.5029324,0.17602506,0.1262908,inf,inf,inf,inf,0,1,0,1,1,3,1,3,3,0,0,1,0
295037483,295036952,0,nan,nan,-0.113472156,0.100380346,-8.400529,0.0,0.0,-0.00012689829,-0.15340899,0.13023362,0.18335497,0.055473734,-0.0063445233,0.013964439,-0.020002015,-0.13570829,-0.40755606,0.7907146,-1.1743273,-0.009342181,nan,0.1,0.35466668,0.50559086,0.19251935,0.12657517,inf,inf,inf,inf,0,1,0,1,1,3,1,3,3,0,0,1,0
295537697,295537072,0,nan,nan,-0.2035959,0.17134257,-8.375265,0.0,0.0,-0.00012689829,-0.21813357,0.18002729,0.16454524,0.043245364,-0.0063445233,0.013964439,-0.020002015,-0.13032266,0.30815277,-0.6242663,-1.1756933,-0.009342181,nan,0.1,0.44306007,0.50716573,0.22165282,0.1266679,inf,inf,inf,inf,0,1,0,1,1,3,1,3,3,0,0,1,0
296033642,296033076,0,nan,nan,-0.32822406,0.28554085,-8.331122,0.0,0.0,-0.00012689829,-0.2936281,0.29951468,0.13149713,0.032602336,-0.0063445233,0.013964439,-0.020002015,0.11086504,0.4066031,-0.26572144,-1.1563717,-0.009342181,nan,0.1,0.5454076,0.50251067,0.25325376,0.1258685,inf,inf,inf,inf,0,1,0,1,1,3,1,3,3,0,0,1,0
296534475,296533219,0,nan,nan,-0.50282115,0.43690675,-8.291124,0.0,0.0,-0.00012689829,-0.37545547,0.24175051,0.16484992,0.07240819,-0.0063445233,0.013964439,-0.020002015,-0.5317783,-1.1794444,0.52629054,-1.149828,-0.009342181,nan,0.1,0.66828436,0.5051098,0.28686765,0.12609357,inf,inf,inf,inf,0,1,0,1,1,3,1,3,3,0,0,1,0
297029748,297029197,0,nan,nan,-0.6871881,0.5249123,-8.2835,0.0,0.0,-0.00012689829,-0.39558494,0.16604571,0.14241937,0.04535548,-0.0063445233,0.013964439,-0.020002015,-0.621552,0.06987465,0.39000988,-1.1512892,-0.009342181,nan,0.1,0.80608666,0.5066552,0.32199892,0.12614615,inf,inf,inf,inf,0,1,0,1,1,3,1,3,3,0,0,1,0
298034551,298034206,0,nan,nan,-1.1889184,0.8434649,-8.322404,0.0,0.0,-0.00012689829,-0.64412546,0.45037916,-0.14078559,-0.27276236,-0.0063445233,0.013964439,-0.020002015,-0.44157606,0.12883332,-0.31031147,-1.1493967,-0.009342181,nan,0.140872,1.1252201,0.503458,0.39535105,0.12539595,inf,inf,inf,inf,0,1,0,1,1,3,1,3,3,0,0,1,0
299036245,299034860,0,nan,nan,-1.8459902,1.3138905,-8.683828,0.0,0.0,-0.00012689829,-0.70012254,0.55090886,-0.109004594,-0.28849992,-0.0063445233,0.013964439,-0.020002015,-0.05701289,-0.0655205,-0.09117204,-1.1290054,-0.009342181,nan,0.50229645,1.5043297,0.5012307,0.46913385,0.12478755,inf,inf,inf,inf,0,1,0,1,1,3,1,3,3,0,0,1,0
299531172,299530756,0,nan,nan,-2.1517625,1.4908065,-8.794361,0.0,0.0,-0.00012689829,-0.68322104,0.39105815,0.18094426,-0.024049353,-0.0063445233,0.013964439,-0.020002015,0.35047144,-0.10337278,0.21980877,-1.1414976,-0.009342181,nan,0.6128292,1.7194179,0.5037197,0.5043263,0.12494444,inf,inf,inf,inf,0,1,0,1,1,3,1,3,3,0,0,1,0
300036136,300035517,0,nan,nan,-2.3926637,1.566395,-8.820439,0.0,0.0,-0.00012689829,-0.48748645,0.23280925,0.15156114,-0.07181682,-0.0063445233,0.013964439,-0.020002015,0.44675303,-0.1412335,-0.9904801,-1.1466537,-0.009342181,nan,0.63890743,1.9211279,0.49998382,0.53579247,0.12431879,inf,inf,inf,inf,0,1,0,1,1,3,1,3,3,0,0,0,0
300536182,300535847,0,nan,nan,-2.5232098,1.5549322,-8.896514,0.0,0.0,-0.00012689829,-0.47188845,0.17076513,0.10789361,-0.12819351,-0.0063445233,0.013964439,-0.020002015,-0.22666435,-0.29622498,0.2654108,-1.1481831,-0.009342181,nan,0.71498203,2.142232,0.50146145,0.56967425,0.12457164,inf,inf,inf,inf,0,1,0,1,1,3,1,3,3,0,0,0,0
301032127,301031667,0,nan,nan,-2.6173058,1.5114154,-8.992638,0.0,0.0,-0.00012689829,-0.40691507,0.099080145,0.031046364,-0.20952487,-0.0063445233,0.013964439,-0.020002015,-0.1471619,-0.1921951,0.4870547,-1.1487342,-0.009342181,nan,0.8111057,2.3662977,0.50298685,0.6024885,0.12492673,inf,inf,inf,inf,0,1,0,1,1,3,1,3,3,0,0,0,0
301537383,301536736,0,nan,nan,-2.6437745,1.4239448,-9.101496,0.0,0.0,-0.00012689829,-0.38148347,0.09259549,0.08397114,-0.16563977,-0.0063445233,0.013964439,-0.020002015,-0.18832555,0.2677381,0.29512218,-1.1552719,-0.009342181,nan,0.91996384,2.5488317,0.49941376,0.6226533,0.12453606,inf,inf,inf,inf,0,1,0,1,1,3,1,3,3,0,0,0,0
302037581,302036876,0,nan,nan,-2.6375732,1.3637425,-9.195787,0.0,0.0,-0.00012689829,-0.397077,0.23625946,0.1223572,-0.13621205,-0.0063445233,0.013964439,-0.020002015,-0.14185366,0.6434024,-0.05725312,-1.1541622,-0.009342181,nan,1.0142555,2.7593782,0.50114715,0.6476634,0.12500526,inf,inf,inf,inf,0,1,0,1,1,3,1,3,3,0,0,0,0
303033580,303032980,0,nan,nan,-2.6300597,1.3484666,-9.326021,0.0,0.0,-0.00012689829,-0.583951,0.37546787,0.22018309,-0.044950187,-0.0063445233,0.013964439,-0.020002015,-0.19658422,0.32768655,0.1868613,-1.1493239,-0.009342181,nan,1.1444893,3.0764072,0.5036638,0.67405665,0.12605853,inf,inf,inf,inf,0,1,0,1,1,3,1,3,3,0,0,0,0
303529757,303528989,0,nan,nan,-2.626258,1.36917,-9.361325,0.0,0.0,-0.00012689829,-0.60401255,0.45171413,0.14443386,-0.120810464,-0.0063445233,0.013964439,-0.020002015,-0.3698355,0.089296326,-0.21289209,-1.1459501,-0.009342181,nan,1.1797934,3.1655123,0.50042915,0.6744903,0.1261011,inf,inf,inf,inf,0,1,0,1,1,3,1,3,3,0,0,0,0
304038978,304038281,0,nan,nan,-2.6144135,1.3904873,-9.450794,0.0,0.0,-0.00012689829,-0.59962934,0.43454865,0.11293344,-0.14468725,-0.0063445233,0.013964439,-0.020002015,0.10112921,-0.0718489,-0.002545757,-1.1457404,-0.009342181,nan,1.2692623,3.3270674,0.5044358,0.6883821,0.12731285,inf,inf,inf,inf,0,1,0,1,1,3,1,3,3,0,0,0,0
305034874,305034414,0,nan,nan,-2.5220342,1.3774155,-9.451215,0.0,0.0,-0.00012689829,-0.5095737,0.33574724,0.26345316,0.020660402,-0.0063445233,0.013964439,-0.020002015,0.4000325,0.25305617,-1.0338748,-1.133444,-0.009342181,nan,1.2696829,3.4650042,0.50159514,0.6861875,0.1281541,inf,inf,inf,inf,0,1,0,1,1,3,1,3,3,0,0,0,0
305530520,305530163,0,nan,nan,-2.4194384,1.3332636,-9.456125,0.0,0.0,-0.00012689829,-0.46130517,0.30488452,0.2609547,0.02964351,-0.0063445233,0.013964439,-0.020002015,0.12018998,-0.12997958,1.151775,-1.0340004,-0.009342181,nan,1.2745934,3.5693645,0.50397897,0.6934823,0.1293223,inf,inf,inf,inf,0,1,0,1,1,3,1,3,3,0,0,0,0
306031937,306030547,0,nan,nan,-2.2881503,1.270595,-9.414579,0.0,0.0,-0.00012689829,-0.40259564,0.28603405,0.2777213,0.049089007,-0.0063445233,0.013964439,-0.020002015,-0.011323579,0.15534899,-0.21096967,-1.0062311,-0.009342181,nan,1.2330475,3.5480022,0.50644046,0.6798989,0.1303712,inf,inf,inf,inf,0,1,0,1,1,3,1,3,3,0,0,0,0
306531415,306530776,0,nan,nan,-2.1415148,1.212317,-9.4382105,0.0,0.0,-0.00012689829,-0.35679522,0.2820929,0.12815055,-0.097985186,-0.0063445233,0.013964439,-0.020002015,0.045445517,-0.15974332,0.5869049,-1.0181934,-0.009342181,nan,1.2566786,3.62929,0.5037996,0.68693435,0.13086851,inf,inf,inf,inf,0,1,0,1,1,3,1,3,3,0,0,0,0
307027063,307026731,0,nan,nan,-1.9946667,1.1553427,-9.503304,0.0,0.0,-0.00012689829,-0.30201095,0.24575299,0.109438784,-0.120705664,-0.0063445233,0.013964439,-0.020002015,0.0027749327,0.19604196,-0.19535597,-1.0296683,-0.009342181,nan,1.3217716,3.5833628,0.5065172,0.67461646,0.13208242,inf,inf,inf,inf,0,1,0,1,1,3,1,3,3,0,0,0,0
307532051,307531434,0,nan,nan,-1.8311099,1.0915143,-9.533157,0.0,0.0,-0.00012689829,-0.25388214,0.22969325,0.31993094,0.086079754,-0.0063445233,0.013964439,-0.020002015,-0.11404655,-0.4066035,0.20732889,-0.9927147,-0.009342181,nan,1.3516254,3.648212,0.50930274,0.6793658,0.13307092,inf,inf,inf,inf,0,1,0,1,1,3,1,3,3,0,0,0,0
308036874,308036275,0,nan,nan,-1.6575679,1.0170122,-9.525292,0.0,0.0,-0.00012689829,-0.14159644,0.14502695,0.1127434,-0.12510678,-0.0063445233,0.013964439,-0.020002015,0.3607867,-0.25047836,-0.37617156,-0.9403142,-0.009342181,nan,1.3437605,3.593459,0.5078308,0.6702028,0.13365987,inf,inf,inf,inf,0,1,0,1,1,3,1,3,3,0,0,0,0
308537382,308536601,0,nan,nan,-1.4317622,0.88659245,-9.6325655,0.0,0.0,-0.00012689829,0.014248647,-0.0032548155,0.1509693,-0.10000785,-0.0063445233,0.013964439,-0.020002015,0.5010394,-0.6846571,1.344818,-0.9333645,-0.009342181,nan,1.4510336,3.6494207,0.51076686,0.6788609,0.13484976,inf,inf,inf,inf,0,1,0,1,1,3,1,3,3,0,0,0,0
309033223,309032678,0,nan,nan,-1.1830277,0.72472936,-9.6402025,0.0,0.0,-0.00012689829,0.14995998,-0.09315698,0.37488937,0.1094108,-0.0063445233,0.013964439,-0.020002015,0.26544434,-0.006005872,0.89200455,-0.9474931,-0.009342181,nan,1.4586706,3.7033036,0.508275,0.68507946,0.13471471,inf,inf,inf,inf,0,1,0,1,1,3,1,3,3,0,0,0,0
309533126,309532752,0,nan,nan,-0.89491665,0.54471976,-9.6078005,0.0,0.0,-0.00012689829,0.28818285,-0.20065516,0.32095018,0.037499268,-0.0063445233,0.013964439,-0.020002015,0.4029413,-0.23560531,-0.37829342,-0.9544126,-0.009342181,nan,1.4262686,3.6250517,0.5100768,0.6760532,0.13546772,inf,inf,inf,inf,0,1,0,1,1,3,1,3,3,0,0,0,0
310029117,310028789,0,nan,nan,-0.57885194,0.33842015,-9.665767,0.0,0.0,-0.00012689829,0.4535571,-0.31378752,0.20101884,-0.10511358,-0.0063445233,0.013964439,-0.020002015,0.38862288,-0.061207753,0.7916293,-0.9508732,-0.009342181,nan,1.4842348,3.6736712,0.5128818,0.68666846,0.13642867,inf,inf,inf,inf,0,1,0,1,1,3,1,3,3,0,0,0,0
310538428,310538093,0,nan,nan,-0.23194657,0.12552646,-9.746177,0.0,0.0,-0.00012689829,0.5455751,-0.33750933,0.30308166,-0.025820026,-0.0063445233,0.013964439,-0.020002015,0.026977545,0.28349096,0.585288,-0.92253137,-0.009342181,nan,1.5646448,3.606697,0.5168267,0.68151313,0.13741247,inf,inf,inf,inf,0,1,0,1,1,3,1,3,3,0,0,0,0
311029612,311029279,0,nan,nan,0.08532256,-0.044399902,-9.778979,0.0,0.0,-0.00012689829,0.60238117,-0.3459049,0.37114453,0.014166247,-0.0063445233,0.013964439,-0.020002015,0.13181491,-0.34555647,-0.12509501,-0.8938505,-0.009342181,nan,1.5974474,3.6550913,0.51413333,0.6913783,0.13708372,inf,inf,inf,inf,0,1,0,1,1,3,1,3,3,0,0,0,0
312034876,312034402,0,nan,nan,0.7116034,-0.31940705,-9.882856,0.0,0.0,-0.00012689829,0.79439443,-0.31834358,0.5459975,0.19515549,-0.0063445233,0.013964439,-0.020002015,0.33937022,0.065784656,2.0320973,-0.22582772,0.6027651,nan,1.7013245,3.6245399,0.51871824,0.67549986,0.13645448,inf,inf,inf,inf,0,1,0,1,1,3,1,3,4,0,0,0,0
313031415,313030551,0,nan,nan,1.2490187,-0.51349336,-9.257376,0.0,0.0,-0.00012689829,0.8478707,-0.29653358,0.7247535,0.52862096,-0.0063445233,0.013964439,-0.020002015,0.1670307,0.41552517,0.4903548,-0.21655767,0.6027651,nan,1.0758438,3.573114,0.51646596,0.6204988,0.14493,inf,inf,inf,inf,0,1,0,1,1,3,1,3,4,0,0,0,0
314036326,314035798,0,nan,nan,1.6309023,-0.58906543,-8.73464,0.0,0.0,-0.00012689829,0.7408644,-0.19708695,0.8061037,0.55890965,-0.0063445233,0.013964439,-0.020002015,-0.2451598,0.24851964,-0.80568665,-0.10764752,0.6027651,nan,0.5531082,3.5087147,0.5196418,0.6012318,0.17123687,inf,inf,inf,inf,0,1,0,1,1,3,1,3,4,0,0,0,0
315036818,315036376,0,nan,nan,1.7834718,-0.53694785,-8.46176,0.0,0.0,-0.00012689829,0.61536545,-0.1069411,0.67220205,0.3020934,-0.0063445233,0.013964439,-0.020002015,-0.10699635,-0.21731827,0.20221567,-0.16358791,0.6027651,nan,0.28022766,3.4424303,0.53455704,0.61523443,0.20270965,inf,inf,inf,inf,0,1,0,1,1,3,1,3,4,0,0,0,0
315537331,315536760,0,nan,nan,1.8022982,-0.49864835,-8.391731,0.0,0.0,-0.00012689829,0.57602966,-0.10506133,0.7999085,0.3486282,-0.0063445233,0.013964439,-0.020002015,-0.18199342,0.09805797,-0.26837873,-0.17355296,0.6027651,nan,0.21019936,3.4669094,0.5501579,0.6349015,0.2162814,inf,inf,inf,inf,0,1,0,1,1,3,1,3,4,0,0,0,0
316037437,316037035,0,nan,nan,1.8064387,-0.50434566,-8.302223,0.0,0.0,-0.00012689829,0.46880978,-0.22040237,0.97151655,0.44445604,-0.0063445233,0.013964439,-0.020002015,-0.18684666,-0.11599348,0.19734307,-0.16475277,0.6027651,nan,0.1206913,3.4962847,0.5681413,0.65799797,0.22729634,inf,inf,inf,inf,0,1,0,1,1,3,1,3,4,0,0,0,0
316533412,316532857,0,nan,nan,1.7542592,-0.5563596,-8.1914215,0.0,0.0,-0.00012689829,0.4467973,-0.28129724,0.900228,0.29713333,-0.0063445233,0.013964439,-0.020002015,0.38935733,0.0024221798,-0.32706946,-0.1659613,0.6027651,nan,0.1,3.428627,0.5787356,0.6749951,0.23411292,inf,inf,inf,inf,0,1,0,1,1,3,1,3,4,0,0,0,0
317038260,317037913,0,nan,nan,1.7236279,-0.6332632,-8.243712,0.0,0.0,-0.00012689829,0.44310388,-0.32712716,0.5768168,-0.09112525,-0.0063445233,0.013964439,-0.020002015,0.030609708,-0.015384029,1.108152,-0.14657134,0.6027651,nan,0.1,3.4724216,0.59633464,0.70890987,0.24124956,inf,inf,inf,inf,0,1,0,1,1,3,1,3,4,0,0,0,0
318038844,318038401,0,nan,nan,1.642772,-0.7646462,-8.391405,0.0,0.0,-0.00012689829,0.45121768,-0.23718251,0.72706723,-0.024691196,-0.0063445233,0.013964439,-0.020002015,0.045191374,0.4078124,-0.66153216,-0.15709148,0.6027651,nan,0.2098732,3.4889085,0.6175853,0.75855696,0.24019046,inf,inf,inf,inf,0,1,0,1,1,3,1,3,4,0,0,0,0
318534736,318534221,0,nan,nan,1.6286484,-0.74179816,-8.498019,0.0,0.0,-0.00012689829,0.4797857,-0.10016324,0.5492153,-0.2226431,-0.0063445233,0.013964439,-0.020002015,0.55643535,0.33340186,0.9592453,-0.18281622,0.6027651,nan,0.3164873,3.4471433,0.6251026,0.77851486,0.23801778,inf,inf,inf,inf,0,1,0,1,1,3,1,3,4,0,0,0,0
319030642,319030183,0,nan,nan,1.6125616,-0.66468203,-8.606798,0.0,0.0,-0.00012689829,0.4953654,-0.042427536,0.77169776,-0.015095866,-0.0063445233,0.013964439,-0.020002015,-0.0035793688,-0.29502872,1.2284454,-0.20178147,0.6027651,nan,0.42526627,3.517735,0.63015795,0.8053062,0.23300016,inf,inf,inf,inf,0,1,0,1,1,3,1,3,4,0,0,0,0
319531005,319530327,0,nan,nan,1.6296242,-0.59191716,-8.6092005,0.0,0.0,-0.00012689829,0.531701,-0.020494055,0.81547993,0.035231903,-0.0063445233,0.013964439,-0.020002015,0.053085636,0.077024624,-0.035397436,-0.19821174,0.6027651,nan,0.42766857,3.6019256,0.63441634,0.83244693,0.22751541,inf,inf,inf,inf,0,1,0,1,1,3,1,3,4,0,0,0,0
320027269,320026317,0,nan,nan,1.6319208,-0.50764525,-8.611921,0.0,0.0,-0.00012689829,0.52853477,-0.0043494385,0.70307153,-0.06149675,-0.0063445233,0.013964439,-0.020002015,0.03390543,-0.0027227702,-0.22099623,-0.1879645,0.6027651,nan,0.4303894,3.5765295,0.6261404,0.8442205,0.21939018,inf,inf,inf,inf,0,1,0,1,1,3,1,3,4,0,0,0,0
320536654,320535616,0,nan,nan,1.6483445,-0.4467736,-8.702529,0.0,0.0,-0.00012689829,0.52497655,-0.022296904,0.51032275,-0.23415023,-0.0063445233,0.013964439,-0.020002015,0.20385557,-0.03147351,0.107773416,-0.16801949,0.6027651,nan,0.52099705,3.6766784,0.6284712,0.87141466,0.21422207,inf,inf,inf,inf,0,1,0,1,1,3,1,3,4,0,0,0,0
321036435,321035869,0,nan,nan,1.6402982,-0.39046183,-8.756696,0.0,0.0,-0.00012689829,0.5087568,-0.018572861,0.62304384,-0.085667305,-0.0063445233,0.013964439,-0.020002015,-0.11500443,-0.2819996,0.22484395,-0.19170387,0.6027651,nan,0.57516384,3.6497688,0.6178325,0.8733833,0.20549363,inf,inf,inf,inf,0,1,0,1,1,3,1,3,4,0,0,0,0
322032445,322031974,0,nan,nan,1.5810852,-0.3072955,-8.942721,0.0,0.0,-0.00012689829,0.43789628,-0.0058704475,0.3394431,-0.29836807,-0.0063445233,0.013964439,-0.020002015,-0.059681367,-0.19867493,1.2344267,-0.29880995,0.6027651,nan,0.76118946,3.7053344,0.6120609,0.8903155,0.19443229,inf,inf,inf,inf,0,1,0,1,1,3,1,3,4,0,0,0,0
323033328,323032636,0,nan,nan,1.4149765,-0.19614407,-9.031687,0.0,0.0,-0.00012689829,0.3089612,0.047097784,0.43979487,-0.108729884,-0.0063445233,0.013964439,-0.020002015,-0.009060178,-0.11263539,0.51375645,-0.2684507,0.6027651,nan,0.8501549,3.7510912,0.5974335,0.892697,0.18224345,inf,inf,inf,inf,0,1,0,1,1,3,1,3,4,0,0,0,0
324038403,324037800,0,nan,nan,1.1766324,-0.07999034,-8.863291,0.0,0.0,-0.00012689829,0.2039639,0.056505866,0.58754116,0.10564516,-0.0063445233,0.013964439,-0.020002015,-0.21119966,0.28415072,-0.16094661,-0.29905027,0.6027651,nan,0.6817589,3.9293642,0.58437663,0.9076376,0.17151034,inf,inf,inf,inf,0,1,0,1,1,3,1,3,4,0,0,0,0
325038806,325038458,0,nan,nan,0.8931542,-0.004544119,-8.826722,0.0,0.0,-0.00012689829,0.06565139,0.062433615,0.61889416,0.13463706,-0.0063445233,0.013964439,-0.020002015,-0.042941965,-0.14292537,0.28768104,-0.2943685,0.6027651,nan,0.64519024,3.9386792,0.57839125,0.894353,0.1637641,inf,inf,inf,inf,0,1,0,1,1,3,1,3,4,0,0,0,0
326039659,326039309,0,nan,nan,0.61285836,0.095777795,-8.684823,0.0,0.0,-0.00012689829,-0.0014876327,0.14044899,0.61746484,0.12857698,-0.0063445233,0.013964439,-0.020002015,0.039173745,-0.018565087,0.8047396,-0.29597276,0.6027651,nan,0.50329113,3.930462,0.56505257,0.8775873,0.15555291,inf,inf,inf,inf,0,1,0,1,1,3,1,3,4,0,0,0,0
327035839,327035435,0,nan,nan,0.37437043,0.18011606,-8.509567,0.0,0.0,-0.00012689829,-0.04733108,0.11769014,0.82331425,0.299828,-0.0063445233,0.013964439,-0.020002015,0.19232748,-0.1775577,0.14417922,-0.29084095,0.6027651,nan,0.32803535,3.9087,0.5529277,0.85815454,0.14830524,inf,inf,inf,inf,0,1,0,1,1,3,1,3,4,0,0,0,0
328032120,328031586,0,nan,nan,0.21897809,0.26104495,-8.433996,0.0,0.0,-0.00012689829,-0.013220883,0.22722383,0.68727577,0.117655255,-0.0063445233,0.013964439,-0.020002015,0.1132118,0.08922058,-0.050843216,-0.29256353,0.6027651,nan,0.2524643,3.8774805,0.5486097,0.84294456,0.14362626,inf,inf,inf,inf,0,1,0,1,1,3,1,3,4,0,0,0,0
329037107,329036629,0,nan,nan,0.15950233,0.4282935,-8.360643,0.0,0.0,-0.00012689829,-0.004075696,0.27416393,0.65110594,0.06737339,-0.0063445233,0.013964439,-0.020002015,-0.3386997,-0.47781152,0.52608454,-0.30795288,0.6027651,nan,0.17911148,3.8416865,0.5384084,0.8300488,0.13854334,inf,inf,inf,inf,0,1,0,1,1,3,1,3,4,0,0,0,0
330024387,330023845,0,nan,nan,-0.019362777,0.4452687,-8.193966,0.0,0.0,-0.00012689829,-0.23408863,0.13790049,0.72672784,0.13865012,-0.0063445233,0.013964439,-0.020002015,0.08255991,0.22767723,-0.79329115,-0.30668142,0.6027651,nan,0.1,3.7981932,0.53414893,0.8174888,0.1348322,inf,inf,inf,inf,0,1,0,1,1,3,1,3,4,0,0,0,0
331038532,331037899,0,nan,nan,-0.24899282,0.4408577,-8.317646,0.0,0.0,-0.00012689829,-0.2897064,0.16135706,0.7301327,0.107335165,-0.0063445233,0.013964439,-0.020002015,-0.19518676,-0.35373554,1.4312719,-0.3005922,0.6027651,nan,0.15907288,3.7743902,0.52663106,0.81644183,0.13144457,inf,inf,inf,inf,0,1,0,1,1,3,1,3,4,0,0,0,0
332034426,332034095,0,nan,nan,-0.43534428,0.44400054,-8.211103,0.0,0.0,-0.00012689829,-0.33870497,0.14842731,0.747178,0.083535954,-0.0063445233,0.013964439,-0.020002015,0.2818114,0.13953441,-0.46371013,-0.30863148,0.6027651,nan,0.1,3.887168,0.5189588,0.8336565,0.12829337,inf,inf,inf,inf,0,1,0,1,1,3,1,3,4,0,0,0,0
333026488,333025960,0,nan,nan,-0.58260626,0.473375,-8.287241,0.0,0.0,-0.00012689829,-0.3114065,0.18194234,0.62829,-0.026781756,-0.0063445233,0.013964439,-0.020002015,0.1998155,-0.2546494,0.40210962,-0.3032558,0.6027651,nan,0.12866783,3.8553638,0.5168808,0.83469236,0.12676759,inf,inf,inf,inf,0,1,0,1,1,3,1,3,4,0,0,0,0
334035846,334035365,0,nan,nan,-0.6544193,0.49478528,-8.244054,0.0,0.0,-0.00012689829,-0.28850403,0.16748787,0.6734394,0.08887382,-0.0063445233,0.013964439,-0.020002015,-0.038723733,-0.046772934,0.4151083,-0.30117962,0.6027651,nan,0.1,3.8420975,0.5118389,0.84043086,0.12507722,inf,inf,inf,inf,0,1,0,1,1,3,1,3,4,0,0,0,0
335032282,335031561,0,nan,nan,-0.703613,0.4680066,-8.143824,0.0,0.0,-0.00012689829,-0.30556363,0.16530031,0.67631876,0.10867628,-0.0063445233,0.013964439,-0.020002015,-0.052248236,-0.124596074,0.6010798,-0.42355543,0.6027651,nan,0.1,3.819903,0.50559217,0.8452599,0.12333863,inf,inf,inf,inf,0,1,0,1,1,3,1,3,4,0,0,0,0
336037239,336036826,0,nan,nan,-0.7404729,0.5264394,-8.0591135,0.0,0.0,-0.00012689829,-0.32627913,0.26203972,0.49513546,-0.09141853,-0.0063445233,0.013964439,-0.020002015,-0.26517257,0.07409418,0.27839473,-0.40656057,0.6027651,nan,0.1,3.818454,0.50197375,0.8549458,0.12213603,inf,inf,inf,inf,0,1,0,1,1,3,1,3,4,0,0,0,0
337034466,337032960,0,nan,nan,-0.7931482,0.61656904,-7.8739824,0.0,0.0,-0.00012689829,-0.3281347,0.29068127,1.0875708,0.46386397,-0.0063445233,0.013964439,-0.020002015,-0.23134647,0.15986167,0.249422,-0.39689523,0.6027651,nan,0.1,3.8119073,0.5029606,0.8544796,0.12117294,inf,inf,inf,inf,0,1,0,1,1,3,1,3,4,0,0,0,0
338038493,338037997,0,nan,nan,-0.8137432,0.6574304,-7.7090163,0.0,0.0,-0.00012689829,-0.28128543,0.23496239,0.5458116,-0.1049291,-0.0063445233,0.013964439,-0.020002015,0.13950974,-0.34756047,0.548049,-0.38772646,0.6027651,nan,0.1,3.8060994,0.4989472,0.86557543,0.12023273,inf,inf,inf,inf,0,1,0,1,1,3,1,3,4,0,0,0,0
339034554,339034145,0,nan,nan,-0.79337734,0.65863967,-7.748881,0.0,0.0,-0.00012689829,-0.29890984,0.23393393,0.6902584,0.035057403,-0.0063445233,0.013964439,-0.020002015,0.074617624,-0.0026875732,0.82319194,-0.39089668,0.6027651,nan,0.10401201,3.9466336,0.49534413,0.8904112,0.118979685,inf,inf,inf,inf,0,1,0,1,1,3,1,3,4,0,0,0,0
340035728,340035097,0,nan,nan,-0.7968281,0.5967916,-7.818852,0.0,0.0,-0.00012689829,-0.29328135,0.13428453,0.7180551,0.068965815,-0.0063445233,0.013964439,-0.020002015,0.24339285,-0.038177237,1.2572091,-0.39644778,0.6027651,nan,0.1739831,3.9421885,0.49692255,0.8915535,0.11844753,inf,inf,inf,inf,0,1,0,1,1,3,1,3,4,0,0,0,0
341036002,341035459,0,nan,nan,-0.67090535,0.39492577,-7.8266206,0.0,0.0,-0.00012689829,-0.043613896,-0.07514654,0.33733767,-0.31592166,-0.0063445233,0.013964439,-0.020002015,0.36750618,0.115637146,-0.7333763,-0.38753888,0.6027651,nan,0.18175173,3.9330566,0.4935125,0.8951109,0.117408715,inf,inf,inf,inf,0,1,0,1,1,3,1,3,4,0,0,0,0
342027699,342027348,0,nan,nan,-0.42650396,0.16752164,-7.8673635,0.0,0.0,-0.00012689829,0.0015073897,-0.09357348,0.89255226,0.23159686,-0.0063445233,0.013964439,-0.020002015,-0.17247838,-0.087403595,-0.4007225,-0.3978534,0.6027651,nan,0.2224946,3.9140804,0.4942339,0.8839494,0.11640722,inf,inf,inf,inf,0,1,0,1,1,3,1,3,4,0,0,0,0
343037250,343036773,0,nan,nan,-0.24344504,0.0035566066,-7.7546043,0.0,0.0,-0.00012689829,0.06102245,-0.14943574,0.73811644,0.073885456,-0.0063445233,0.013964439,-0.020002015,0.004166197,0.36147404,0.11260537,-0.39805195,0.6027651,nan,0.10973549,3.9063,0.49176678,0.8821204,0.11535948,inf,inf,inf,inf,0,1,0,1,1,3,1,3,4,0,0,0,0
344034072,344032923,0,nan,nan,-0.07506803,-0.15216586,-7.6979394,0.0,0.0,-0.00012689829,0.124196395,-0.19961841,0.6252206,-0.04370191,-0.0063445233,0.013964439,-0.020002015,0.004353496,0.07528984,-0.45649645,-0.39715886,0.6027651,nan,0.1,3.8881145,0.488533,0.8768002,0.11412753,inf,inf,inf,inf,0,1,0,1,1,3,1,3,4,0,0,0,0
345038702,345038215,0,nan,nan,0.09988778,-0.29873118,-7.599317,0.0,0.0,-0.00012689829,0.18190753,-0.25533724,0.6805179,0.00039450824,-0.0063445233,0.013964439,-0.020002015,-0.16079079,-0.44633138,0.02791033,-0.39793202,0.6027651,nan,0.1,3.8660502,0.4852762,0.86858106,0.112787776,inf,inf,inf,inf,0,1,0,1,1,3,1,3,4,0,0,0,0
346034673,346034330,0,nan,nan,0.1949632,-0.45639747,-7.5281215,0.0,0.0,-0.00012689829,0.14818436,-0.32669094,0.9961162,0.2951223,-0.0063445233,0.013964439,-0.020002015,-0.036421627,0.2804335,-0.55198294,-0.40831092,0.6027651,nan,0.1,3.9930024,0.48673213,0.881843,0.11205947,inf,inf,inf,inf,0,1,0,1,1,3,1,3,4,0,0,0,0
347039900,347039404,0,nan,nan,0.27508777,-0.6186426,-7.431089,0.0,0.0,-0.00012689829,0.20285502,-0.35126898,0.6722238,-0.069622256,-0.0063445233,0.013964439,-0.020002015,0.1717688,-0.1665415,0.5486668,-0.39454234,0.6027651,nan,0.1,3.9649124,0.48339677,0.87596816,0.110966675,inf,inf,inf,inf,0,1,0,1,1,3,1,3,4,0,0,0,0
347535613,347535220,0,nan,nan,0.32195482,-0.6542159,-7.450117,0.0,0.0,-0.00012689829,0.21294908,-0.2861638,0.7724677,0.027772486,-0.0063445233,0.013964439,-0.020002015,-0.32388273,0.45766613,-0.50925475,-0.38591218,0.6027651,nan,0.1,3.8755448,0.48411503,0.8583747,0.11064728,inf,inf,inf,inf,0,1,0,1,1,3,1,3,4,0,0,0,0
348031436,348031042,0,nan,nan,0.3608772,-0.6344443,-7.486748,0.0,0.0,-0.00012689829,0.21311708,-0.16588354,0.6021883,-0.13580807,-0.0063445233,0.013964439,-0.020002015,-0.09385739,0.103112176,-0.24312712,-0.37174314,0.6027651,nan,0.11144018,3.9366968,0.48028198,0.8674823,0.10985969,inf,inf,inf,inf,0,1,0,1,1,3,1,3,4,0,0,0,0
349032846,349031699,0,nan,nan,0.44274694,-0.50909,-7.4520326,0.0,0.0,-0.00012689829,0.24824966,-0.11794325,0.80525416,0.08239518,-0.0063445233,0.013964439,-0.020002015,-0.19324043,0.33507204,0.07693492,-0.38467762,0.6027651,nan,0.1,3.89872,0.48079705,0.8549512,0.109168395,inf,inf,inf,inf,0,1,0,1,1,3,1,3,4,0,0,0,0
350037361,350036860,0,nan,nan,0.54939145,-0.45066676,-7.2922363,0.0,0.0,-0.00012689829,0.35651523,-0.17457789,0.7705993,0.057185628,-0.0063445233,0.013964439,-0.020002015,0.19776466,-0.1885523,-0.699423,-0.40300527,0.6027651,nan,0.1,3.8745704,0.47855338,0.84681445,0.10819461,inf,inf,inf,inf,0,1,0,1,1,3,1,3,4,0,0,0,0
350533210,350532681,0,nan,nan,0.6336051,-0.45126384,-7.2890573,0.0,0.0,-0.00012689829,0.41101304,-0.20036158,0.8029975,0.099140994,-0.0063445233,0.013964439,-0.020002015,0.00821835,-0.08666494,1.0345465,-0.3986877,0.6027651,nan,0.1,3.9338722,0.47925863,0.8551225,0.10799495,inf,inf,inf,inf,0,1,0,1,1,3,1,3,4,0,0,0,0
351034449,351033054,0,nan,nan,0.71642894,-0.46188816,-7.2121377,0.0,0.0,-0.00012689829,0.4142781,-0.21000202,0.9602408,0.24914332,-0.0063445233,0.013964439,-0.020002015,0.29010049,0.23359585,1.2868878,-0.39972708,0.6027651,nan,0.1,3.8443017,0.47548133,0.83743316,0.10707754,inf,inf,inf,inf,0,1,0,1,1,3,1,3,4,0,0,0,0
351529571,351528875,0,nan,nan,0.7842432,-0.48250633,-7.129478,0.0,0.0,-0.00012689829,0.43370754,-0.2576704,0.7450533,0.027026616,-0.0063445233,0.013964439,-0.020002015,0.053126406,-0.035269096,-0.7380995,-0.399816,0.6027651,nan,0.1,3.8947325,0.47533762,0.8444643,0.1067529,inf,inf,inf,inf,0,1,0,1,1,3,1,3,4,0,0,0,0
352038929,352038171,0,nan,nan,0.8539093,-0.52405477,-7.20761,0.0,0.0,-0.00012689829,0.4432331,-0.29143435,0.59035385,-0.13308507,-0.0063445233,0.013964439,-0.020002015,0.15602732,-0.12562364,0.8923631,-0.37044248,0.6027651,nan,0.119529724,3.8145247,0.47684702,0.83380216,0.10669903,inf,inf,inf,inf,0,1,0,1,1,3,1,3,4,0,0,0,0
353034991,353034319,0,nan,nan,0.8159123,-0.57203823,-7.14508,0.0,0.0,-0.00012689829,0.14812988,-0.18243036,1.0495019,0.2753068,-0.0063445233,0.013964439,-0.020002015,0.044934187,0.10786155,0.66815203,-0.33704075,0.6027651,nan,0.1,3.9307487,0.4737691,0.84309703,0.10546051,inf,inf,inf,inf,0,1,0,1,1,3,1,3,4,0,0,0,0
353539632,353539154,0,nan,nan,0.70087737,-0.5414351,-7.1100664,0.0,0.0,-0.00012689829,0.073886834,-0.1555405,0.66744703,-0.12205499,-0.0063445233,0.013964439,-0.020002015,-0.18378222,-0.0094121015,-0.73411417,-0.34269232,0.6027651,nan,0.1,3.843221,0.47438467,0.8314907,0.10533902,inf,inf,inf,inf,0,1,0,1,1,3,1,3,4,0,0,0,0
354040216,354039564,0,nan,nan,0.57233995,-0.5105756,-7.1583333,0.0,0.0,-0.00012689829,-0.037904464,-0.12729943,0.77962095,-0.009030139,-0.0063445233,0.013964439,-0.020002015,0.124136806,0.12537836,0.33165056,-0.34446013,0.6027651,nan,0.1,3.9011614,0.4707419,0.8387582,0.104626924,inf,inf,inf,inf,0,1,0,1,1,3,1,3,4,0,0,0,0
354526817,354526459,0,nan,nan,0.40865517,-0.45899737,-7.144093,0.0,0.0,-0.00012689829,-0.17185032,-0.056578968,0.7617146,-0.018261446,-0.0063445233,0.013964439,-0.020002015,0.28333497,-0.16192637,0.105728246,-0.30444464,0.6027651,nan,0.1,3.8081617,0.47064131,0.8227536,0.10436872,inf,inf,inf,inf,0,1,0,1,1,3,1,3,4,0,0,0,0
355036087,355035756,0,nan,nan,0.21257108,-0.37687397,-7.1916695,0.0,0.0,-0.00012689829,-0.23501419,0.005908427,0.70928717,-0.06255457,-0.0063445233,0.013964439,-0.020002015,0.0017468717,0.10373781,0.548263,-0.21530612,0.6027651,nan,0.11685896,3.8736148,0.47215512,0.83394724,0.10442012,inf,inf,inf,inf,0,1,0,1,1,3,1,3,4,0,0,0,0
356037158,356036334,0,nan,nan,-0.13127632,-0.098239385,-7.1749125,0.0,0.0,-0.00012689829,-0.31916246,0.30026573,0.78399223,0.013900589,-0.0063445233,0.013964439,-0.020002015,0.0742285,0.2742679,-0.2944118,-0.14543474,0.6027651,nan,0.10010195,3.8461819,0.4694202,0.8261292,0.103678636,inf,inf,inf,inf,0,1,0,1,1,3,1,3,4,0,0,0,0
357037333,357036940,0,nan,nan,-0.31390676,0.25264612,-7.1734824,0.0,0.0,-0.00012689829,-0.20912902,0.3581514,0.9074471,0.14088283,-0.0063445233,0.013964439,-0.020002015,0.096380346,-0.02617757,1.7958243,-0.17089403,0.6027651,nan,0.1,3.820454,0.4668921,0.82055587,0.10301361,inf,inf,inf,inf,0,1,0,1,1,3,1,3,4,0,0,0,0
358033626,358033088,0,nan,nan,-0.34869516,0.4557836,-7.133078,0.0,0.0,-0.00012689829,-0.13293205,0.28273886,0.55077255,-0.22447395,-0.0063445233,0.013964439,-0.020002015,0.064629644,0.4644705,-0.40723518,-0.17339598,0.6027651,nan,0.1,3.7935774,0.4685984,0.8175726,0.1029715,inf,inf,inf,inf,0,1,0,1,1,3,1,3,4,0,0,0,0
358525246,358524702,0,nan,nan,-0.32708082,0.5011068,-7.228925,0.0,0.0,-0.00012689829,-0.083320774,0.25364417,0.62958574,-0.13559812,-0.0063445233,0.013964439,-0.020002015,0.12706082,-0.0934754,0.35861602,-0.182847,0.6027651,nan,0.17798805,3.844759,0.464572,0.8247537,0.10234878,inf,inf,inf,inf,0,1,0,1,1,3,1,3,4,0,0,0,0
359034514,359033949,0,nan,nan,-0.27562162,0.5220281,-7.2475924,0.0,0.0,-0.00012689829,-0.0045957346,0.20559642,0.7860663,0.029202424,-0.0063445233,0.013964439,-0.020002015,0.41145492,-0.317123,1.3881339,-0.20239067,0.6027651,nan,0.19665527,3.9103384,0.46621552,0.8319358,0.10237399,inf,inf,inf,inf,0,1,0,1,1,3,1,3,4,0,0,0,0
360030521,360030054,0,nan,nan,-0.07276444,0.46883616,-7.195823,0.0,0.0,-0.00012689829,0.19271727,0.09772606,0.5828864,-0.1669783,-0.0063445233,0.013964439,-0.020002015,0.021099335,-0.07587034,-1.1265621,-0.21899167,0.6027651,nan,0.14488602,3.8824115,0.4638428,0.828899,0.10194277,inf,inf,inf,inf,0,1,0,1,1,3,1,3,4,0,0,0,0
361026551,361026196,0,nan,nan,0.16065596,0.3190867,-7.2335367,0.0,0.0,-0.00012689829,0.16291755,-0.10602927,0.84374565,0.08315808,-0.0063445233,0.013964439,-0.020002015,-0.123577766,0.030666389,-0.4585162,-0.24447055,0.6027651,nan,0.18259954,3.8490658,0.46497166,0.82005936,0.10186502,inf,inf,inf,inf,0,1,0,1,1,3,1,3,4,0,0,0,0
362036365,362035707,0,nan,nan,0.28938085,0.041889317,-7.14432,0.0,0.0,-0.00012689829,0.19951364,-0.22727758,1.0958226,0.3397177,-0.0063445233,0.013964439,-0.020002015,0.10167811,0.038616642,-0.36426228,-0.31749746,0.6027651,nan,0.1,3.8302863,0.46366382,0.8155008,0.10162284,inf,inf,inf,inf,0,1,0,1,1,3,1,3,4,0,0,0,0
362532071,362531607,0,nan,nan,0.3418923,-0.107058674,-7.1243677,0.0,0.0,-0.00012689829,0.23464853,-0.33596152,0.48753193,-0.27494785,-0.0063445233,0.013964439,-0.020002015,0.13792132,-0.13661568,-1.0514407,-0.34454358,0.6027651,nan,0.1,3.8814616,0.4639494,0.8275222,0.10177971,inf,inf,inf,inf,0,1,0,1,1,3,1,3,4,0,0,0,0
363036892,363036364,0,nan,nan,0.39313266,-0.29810706,-7.334334,0.0,0.0,-0.00012689829,0.19158576,-0.5197778,0.36560452,-0.3978847,-0.0063445233,0.013964439,-0.020002015,-0.40731144,-0.38484287,0.5422086,-0.42391315,0.6027651,nan,0.28339672,3.8087792,0.46182775,0.819748,0.10165483,inf,inf,inf,inf,0,1,0,1,1,3,1,3,4,0,0,0,0
363540834,363536694,0,nan,nan,0.28336525,-0.5014624,-7.487044,0.0,0.0,-0.00012689829,-0.049403552,-0.6034626,0.57527065,-0.18116115,-0.0063445233,0.013964439,-0.020002015,-0.029336547,-0.099332035,0.83143985,-0.5810832,0.6027651,nan,0.43610668,3.8675408,0.46299717,0.82517004,0.101789154,inf,inf,inf,inf,0,1,0,1,1,3,1,3,4,0,0,0,0
364032868,364032517,0,nan,nan,0.1644953,-0.64946544,-7.489083,0.0,0.0,-0.00012689829,-0.08819691,-0.5285398,0.85262865,0.106395625,-0.0063445233,0.013964439,-0.020002015,-0.20319705,-0.17760219,0.5066131,-0.73024935,0.6027651,nan,0.43814564,3.7846494,0.46411842,0.8093205,0.10185273,inf,inf,inf,inf,0,1,0,1,1,3,1,3,4,0,0,0,0
364537674,364532881,0,nan,nan,0.11138893,-0.6981299,-7.431201,0.0,0.0,-0.00012689829,-0.025866453,-0.5796638,0.84457856,0.09421351,-0.0063445233,0.013964439,-0.020002015,0.11621104,-0.02113906,-0.4908414,-0.8096271,0.6027651,nan,0.3802638,3.8410468,0.46124116,0.81703794,0.10156515,inf,inf,inf,inf,0,1,0,1,1,3,1,3,4,0,0,0,0
365033669,365033167,0,nan,nan,0.09363446,-0.72527355,-7.401113,0.0,0.0,-0.00012689829,-0.15884605,-0.6103315,0.855818,0.09451355,-0.0063445233,0.013964439,-0.020002015,-0.80752355,-0.1452418,0.10708293,-0.87185043,0.6027651,nan,0.35017586,3.7585888,0.46244454,0.8046339,0.10179495,inf,inf,inf,inf,0,1,0,1,1,3,1,3,4,0,0,0,0
365536705,365533723,0,nan,nan,-0.13115847,-0.72817326,-7.3590746,0.0,0.0,-0.00012689829,-0.4633353,-0.604525,0.83330834,0.07217845,-0.0063445233,0.013964439,-0.020002015,-0.2985109,-0.3538797,0.5029321,-0.97006375,0.6027651,nan,0.30813742,3.815495,0.4636731,0.81272745,0.102091,inf,inf,inf,inf,0,1,0,1,1,3,1,3,4,0,0,0,0
366037521,366033819,0,nan,nan,-0.4239914,-0.6385102,-7.330181,0.0,0.0,-0.00012689829,-0.4386991,-0.5330677,0.8708875,0.11063539,-0.0063445233,0.013964439,-0.020002015,-0.1315814,0.03139606,0.890213,-1.1377697,0.6027651,nan,0.27924395,3.8667436,0.46018362,0.8209299,0.10179077,inf,inf,inf,inf,0,1,0,1,1,3,1,3,4,0,0,0,0
366536252,366534143,0,nan,nan,-0.6041684,-0.4036019,-7.3007107,0.0,0.0,-0.00012689829,-0.4575613,-0.35106346,0.7833567,0.013134811,-0.0063445233,0.013964439,-0.020002015,0.08542833,0.42211172,-1.1858057,-1.2322415,0.6027651,nan,0.2497735,3.7919834,0.4622796,0.80867153,0.102112554,inf,inf,inf,inf,0,1,0,1,1,3,1,3,4,0,0,0,0
367041075,367039142,0,nan,nan,-0.7461853,-0.06249855,-7.35786,0.0,0.0,-0.00012689829,-0.44680887,-0.18802288,0.69267046,-0.08085426,-0.0063445233,0.013964439,-0.020002015,-0.09518555,-0.15788256,0.8103652,-1.3024275,0.6027651,nan,0.3069229,3.8571036,0.4603676,0.820075,0.1020959,inf,inf,inf,inf,0,1,0,1,1,3,1,3,4,0,0,0,0
368532882,368530944,0,nan,nan,-1.093307,0.69026875,-7.5076175,0.0,0.0,-0.00012689829,-0.48034337,0.022887357,0.53520626,-0.215724,-0.0063445233,0.013964439,-0.020002015,-0.12929079,-0.037832674,0.5276142,-1.7810144,0.6027651,nan,0.4566803,3.742577,0.46312377,0.8032071,0.10320642,inf,inf,inf,inf,0,1,0,1,1,3,1,3,4,0,0,0,0
369031852,369031386,0,nan,nan,-1.1257212,0.7605428,-7.572487,0.0,0.0,-0.00012689829,-0.4039588,0.055938188,0.6864049,-0.045985147,-0.0063445233,0.013964439,-0.020002015,-0.08936188,-0.10090749,0.075692944,-1.8565727,0.6027651,nan,0.5215497,3.8005104,0.46062592,0.81086177,0.103161916,inf,inf,inf,inf,0,1,0,1,1,3,1,3,4,0,0,0,0
369532077,369531595,0,nan,nan,-1.1243603,0.8189779,-7.655114,0.0,0.0,-0.00012689829,-0.38254058,0.0335847,0.34376886,-0.36785397,-0.0063445233,0.013964439,-0.020002015,-0.16813564,-0.21980123,-0.39674014,-1.9434527,0.6027651,nan,0.604177,3.8660817,0.46304294,0.82189727,0.103853084,inf,inf,inf,inf,0,1,0,1,1,3,1,3,4,0,0,0,0
370038914,370036429,0,nan,nan,-1.105145,0.86088234,-7.7824235,0.0,0.0,-0.00012689829,-0.41107064,0.117227994,0.5158678,-0.16973202,-0.0063445233,0.013964439,-0.020002015,0.20132306,0.2528753,0.71123725,-2.0536942,0.6027651,nan,0.7314863,3.7856636,0.46469623,0.8089016,0.10432485,inf,inf,inf,inf,0,1,0,1,1,3,1,3,4,0,0,0,0
370534410,370532250,0,nan,nan,-1.0638704,0.8046051,-7.7291455,0.0,0.0,-0.00012689829,-0.369426,0.086203985,0.74837625,0.10958277,-0.0063445233,0.013964439,-0.020002015,-0.39056298,-0.15241672,0.2182981,-2.134043,0.6027651,nan,0.67820835,3.8370361,0.46157768,0.8142007,0.10409473,inf,inf,inf,inf,0,1,0,1,1,3,1,3,4,0,0,0,0
371033047,371032576,0,nan,nan,-0.98001564,0.6678744,-7.6094656,0.0,0.0,-0.00012689829,-0.25224993,0.018387657,1.007979,0.38462618,-0.0063445233,0.013964439,-0.020002015,0.206281,0.1453295,-0.866724,-2.146586,0.6027651,nan,0.5585284,3.7582917,0.46328244,0.7998781,0.10425187,inf,inf,inf,inf,0,1,0,1,1,3,1,3,4,0,0,0,0
371533412,371532942,0,nan,nan,-0.88638157,0.5811138,-7.4303617,0.0,0.0,-0.00012689829,-0.14520139,-0.009898886,0.77324015,0.15567496,-0.0063445233,0.013964439,-0.020002015,-0.089221366,-0.049840037,-0.35992324,-2.0869818,0.6027651,nan,0.37942457,3.8218074,0.4615748,0.8097991,0.10401067,inf,inf,inf,inf,0,1,0,1,1,3,1,3,4,0,0,0,0
372029113,372028774,0,nan,nan,-0.7748893,0.5261662,-7.405614,0.0,0.0,-0.00012689829,-0.054326817,-0.00717545,0.60848314,0.001948719,-0.0063445233,0.013964439,-0.020002015,0.1654697,-0.05108078,-0.43455368,-2.047584,0.6027651,nan,0.35467672,3.7366185,0.4624342,0.79951733,0.10408355,inf,inf,inf,inf,0,1,0,1,1,3,1,3,4,0,0,0,0
372534987,372533599,0,nan,nan,-0.6255413,0.49703968,-7.3907084,0.0,0.0,-0.00012689829,0.08135586,-0.042911638,0.6071942,0.013755591,-0.0063445233,0.013964439,-0.020002015,0.4012722,0.0019070401,0.053971898,-2.0404391,0.6027651,nan,0.33977127,3.7999156,0.46471044,0.807212,0.104115866,inf,inf,inf,inf,0,1,0,1,1,3,1,3,4,0,0,0,0
373034321,373033879,0,nan,nan,-0.44436145,0.46355286,-7.333416,0.0,0.0,-0.00012689829,0.22184636,-0.06897869,0.8402612,0.25736737,-0.0063445233,0.013964439,-0.020002015,0.1939184,0.28760237,1.1658635,-2.0373154,0.6027651,nan,0.2824788,3.857338,0.4661313,0.8130386,0.10394368,inf,inf,inf,inf,0,1,0,1,1,3,1,3,4,0,0,0,0
374039660,374039041,0,nan,nan,0.06525259,0.33016127,-7.308756,0.0,0.0,-0.00012689829,0.5312878,-0.16260232,0.77061087,0.15225074,-0.0063445233,0.013964439,-0.020002015,0.45070398,-0.14917032,1.5913066,-2.0445461,0.6027651,nan,0.2578187,3.8392105,0.46534747,0.80925846,0.10311381,inf,inf,inf,inf,0,1,0,1,1,3,1,3,4,0,0,0,0
375036365,375035228,0,nan,nan,0.5803978,0.27334908,-7.0427475,0.0,0.0,-0.00012689829,0.7064573,-0.0043999804,1.0030104,0.33097327,-0.0063445233,0.013964439,-0.020002015,-0.12595007,0.31630248,-0.47361892,-2.0361419,0.6027651,nan,0.1,3.8074389,0.46266082,0.80041426,0.101878,inf,inf,inf,inf,0,1,0,1,1,3,1,3,4,0,0,0,0
376032021,376031328,0,nan,nan,1.0424231,0.37973714,-6.9314613,0.0,0.0,-0.00012689829,0.7840541,0.21527816,0.6248161,-0.11833918,-0.0063445233,0.013964439,-0.020002015,0.31335008,0.04287858,-0.4145137,-1.9150468,0.6027651,nan,0.1,3.7769816,0.4637627,0.79654974,0.10133187,inf,inf,inf,inf,0,1,0,1,1,3,1,3,4,0,0,0,0
376527766,376527269,0,nan,nan,1.2518128,0.44634026,-7.0224586,0.0,0.0,-0.00012689829,0.8869028,0.26134026,0.75321484,-0.00695733,-0.0063445233,0.013964439,-0.020002015,0.12178641,0.20527601,0.71729726,-1.9302253,0.6027651,nan,0.11508751,3.8406801,0.46137747,0.80458903,0.10078589,inf,inf,inf,inf,0,1,0,1,1,3,1,3,4,0,0,0,0
377037083,377036626,0,nan,nan,1.4958205,0.53886575,-7.034622,0.0,0.0,-0.00012689829,1.0522248,0.3233863,0.7922909,0.01406838,-0.0063445233,0.013964439,-0.020002015,0.21049511,0.30068842,0.47567752,-1.9453429,0.6027651,nan,0.12725115,3.760369,0.46220052,0.7920563,0.10069543,inf,inf,inf,inf,0,1,0,1,1,3,1,3,4,0,0,0,0
378037908,378037138,0,nan,nan,2.0092046,0.6517853,-7.098476,0.0,0.0,-0.00012689829,1.2028668,0.2246251,0.9060399,0.12595496,-0.0063445233,0.013964439,-0.020002015,2.3838156e-05,0.22571233,1.162897,-1.9434423,0.6027651,nan,0.19110489,3.73946,0.45993128,0.7888309,0.10012266,inf,inf,inf,inf,0,1,0,1,1,3,1,3,4,0,0,0,0
379029268,379028815,0,nan,nan,2.3533304,0.6368139,-6.9187627,0.0,0.0,-0.00012689829,1.1944653,0.055545498,0.7646502,-0.028194109,-0.0063445233,0.013964439,-0.020002015,0.020165743,-0.13877083,-0.34381005,-1.9427526,0.6027651,nan,0.1,3.7108724,0.46092394,0.7865055,0.09996744,inf,inf,inf,inf,0,1,0,1,1,3,1,3,4,0,0,0,0
380030075,380029425,0,nan,nan,2.5863328,0.48700354,-7.032378,0.0,0.0,-0.00012689829,1.084649,0.033787515,0.537115,-0.2572781,-0.0063445233,0.013964439,-0.020002015,0.1281044,0.106117934,-0.6768318,-1.9374478,0.6027651,nan,0.14260101,3.823913,0.45873612,0.80616707,0.09954895,inf,inf,inf,inf,0,1,0,1,1,3,1,3,4,0,0,0,0
381039444,381039092,0,nan,nan,2.58649,0.39586237,-7.1411076,0.0,0.0,-0.00012689829,1.0342131,0.07229894,0.8713968,0.07377515,-0.0063445233,0.013964439,-0.020002015,0.08550905,0.040247694,0.17370981,-1.9380051,0.6027651,nan,0.25133038,3.818354,0.45820174,0.8067306,0.09934244,inf,inf,inf,inf,0,1,0,1,1,3,1,3,4,0,0,0,0
382031868,382030914,0,nan,nan,2.6244552,0.35064235,-7.2286377,0.0,0.0,-0.00012689829,1.0643247,0.0904949,0.7697861,-0.023936665,-0.0063445233,0.013964439,-0.020002015,-0.087164134,0.14944091,-0.052418582,-1.9357699,0.6027651,nan,0.3388605,3.7892046,0.4587887,0.8081262,0.0994671,inf,inf,inf,inf,0,1,0,1,1,3,1,3,4,0,0,0,0
383027374,383027038,0,nan,nan,2.6483912,0.39243215,-7.099697,0.0,0.0,-0.00012689829,1.0407442,0.15943326,0.772957,-0.017393878,-0.0063445233,0.013964439,-0.020002015,-0.08722625,0.03950703,-0.49075836,-1.9358386,0.6027651,nan,0.20991993,3.7751567,0.45699927,0.81077754,0.099348135,inf,inf,inf,inf,0,1,0,1,1,3,1,3,4,0,0,0,0
384037018,384036534,0,nan,nan,2.4955828,0.4818825,-7.2124662,0.0,0.0,-0.00012689829,0.71958077,0.2981186,0.85548455,0.07113576,-0.0063445233,0.013964439,-0.020002015,-0.5296644,0.48986322,0.10627321,-1.9271171,0.6027651,nan,0.32268906,3.770449,0.45618644,0.8141753,0.09926314,inf,inf,inf,inf,0,1,0,1,1,3,1,3,4,0,0,0,0
385037590,385037184,0,nan,nan,2.1783261,0.69398665,-7.214187,0.0,0.0,-0.00012689829,0.59724236,0.4043014,0.8037984,0.033767886,-0.0063445233,0.013964439,-0.020002015,1.1424677,0.68236256,0.79351926,-1.943515,0.6027651,nan,0.32440996,3.7583237,0.45475596,0.8180433,0.09932839,inf,inf,inf,inf,0,1,0,1,1,3,1,3,4,0,0,0,0
386029614,386028818,0,nan,nan,2.0225296,0.837952,-7.17176,0.0,0.0,-0.00012689829,0.70827705,0.40985718,0.9459503,0.19971916,-0.0063445233,0.013964439,-0.020002015,-0.046502315,-0.11277773,0.01170321,-1.7894063,0.6027651,nan,0.2819829,3.7405903,0.45663863,0.8192349,0.09983508,inf,inf,inf,inf,0,1,0,1,1,3,1,3,4,0,0,0,0
386529977,386529189,0,nan,nan,1.9533583,0.87708783,-7.1165752,0.0,0.0,-0.00012689829,0.6381648,0.41244477,0.699338,-0.041452654,-0.0063445233,0.013964439,-0.020002015,-1.354979,0.16722018,-2.4333243,-1.7954631,0.6027651,nan,0.22679806,3.8033016,0.4579899,0.83190894,0.10009044,inf,inf,inf,inf,0,1,0,1,1,3,1,3,4,0,0,0,0
387025682,387025262,0,nan,nan,1.8711624,0.9047202,-7.1082745,0.0,0.0,-0.00012689829,0.53646433,0.3440207,0.86394936,0.12693919,-0.0063445233,0.013964439,-0.020002015,0.048717227,-0.3834737,1.6750395,-1.8215708,0.6027651,nan,0.21849728,3.867607,0.455424,0.8419236,0.09977697,inf,inf,inf,inf,0,1,0,1,1,3,1,3,4,0,0,0,0
387534894,387534546,0,nan,nan,1.7437081,0.86149925,-7.09925,0.0,0.0,-0.00012689829,0.53651094,0.21349233,0.5849819,-0.15805285,-0.0063445233,0.013964439,-0.020002015,-0.28538534,-0.192284,-0.32448807,-1.8504101,0.6027651,nan,0.20947266,3.7991738,0.4574741,0.83549637,0.10007592,inf,inf,inf,inf,0,1,0,1,1,3,1,3,4,0,0,0,0
388035175,388034626,0,nan,nan,1.6533977,0.76409686,-7.1691685,0.0,0.0,-0.00012689829,0.50877607,0.0877119,0.76039195,0.01773095,-0.0063445233,0.013964439,-0.020002015,-0.028937785,0.11917042,-0.0044032554,-1.8226153,0.6027651,nan,0.2793913,3.8657897,0.4549915,0.8471893,0.099839255,inf,inf,inf,inf,0,1,0,1,1,3,1,3,4,0,0,0,0
389032084,389030812,0,nan,nan,1.434296,0.47167322,-7.268975,0.0,0.0,-0.00012689829,0.3760741,-0.1343693,0.74330753,-0.008194448,-0.0063445233,0.013964439,-0.020002015,0.21975829,0.11957289,1.1182706,-1.7974858,0.6027651,nan,0.3791976,3.8491182,0.4569961,0.8472576,0.10017226,inf,inf,inf,inf,0,1,0,1,1,3,1,3,4,0,0,0,0
389527463,389526784,0,nan,nan,1.3282431,0.307947,-7.249993,0.0,0.0,-0.00012689829,0.35828397,-0.15936762,0.79090273,0.038188335,-0.0063445233,0.013964439,-0.020002015,0.18645199,-0.14527221,0.11832617,-1.8082983,0.6027651,nan,0.36021566,3.7733963,0.4583866,0.83516955,0.100398906,inf,inf,inf,inf,0,1,0,1,1,3,1,3,4,0,0,0,0
390036555,390036075,0,nan,nan,1.2146978,0.14980839,-7.3057365,0.0,0.0,-0.00012689829,0.3076346,-0.21927506,0.5614561,-0.19013213,-0.0063445233,0.013964439,-0.020002015,0.43253568,-0.149048,-0.22092666,-1.8204478,0.6027651,nan,0.41595936,3.8440142,0.45659515,0.84859747,0.10035994,inf,inf,inf,inf,0,1,0,1,1,3,1,3,4,0,0,0,0
391032785,391032189,0,nan,nan,0.9907424,-0.10413553,-7.4332848,0.0,0.0,-0.00012689829,0.25772032,-0.1703989,0.6668103,-0.036522083,-0.0063445233,0.013964439,-0.020002015,0.11668285,0.10088682,-0.92436916,-1.8208346,0.6027651,nan,0.5435076,3.8319814,0.45561644,0.8470049,0.10046221,inf,inf,inf,inf,0,1,0,1,1,3,1,3,4,0,0,0,0
391534099,391532434,0,nan,nan,0.9145808,-0.15944967,-7.4778347,0.0,0.0,-0.00012689829,0.23360305,-0.10072045,0.47859028,-0.20684111,-0.0063445233,0.013964439,-0.020002015,-0.18624246,0.007553747,0.29800534,-1.8181937,0.6027651,nan,0.5880575,3.8894198,0.45631936,0.85729945,0.10067579,inf,inf,inf,inf,0,1,0,1,1,3,1,3,4,0,0,0,0
392037684,392037226,0,nan,nan,0.8332667,-0.14184435,-7.5639534,0.0,0.0,-0.00012689829,0.23504545,0.046170566,0.54424864,-0.12578657,-0.0063445233,0.013964439,-0.020002015,0.084239416,0.061866708,1.2100617,-1.8197999,0.6027651,nan,0.6741762,3.8171916,0.4585247,0.8460363,0.10101377,inf,inf,inf,inf,0,1,0,1,1,3,1,3,4,0,0,0,0
393024774,393024435,0,nan,nan,0.69195354,0.017764697,-7.5545683,0.0,0.0,-0.00012689829,0.17794241,0.17035678,0.72903377,0.073997796,-0.0063445233,0.013964439,-0.020002015,-0.1048798,-0.02956895,0.13362747,-1.8195349,0.6027651,nan,0.6647911,3.9356277,0.45677632,0.86119366,0.10082689,inf,inf,inf,inf,0,1,0,1,1,3,1,3,4,0,0,0,0
393534244,393533719,0,nan,nan,0.61272705,0.107597016,-7.5377784,0.0,0.0,-0.00012689829,0.13040721,0.19915882,0.5685612,-0.07490279,-0.0063445233,0.013964439,-0.020002015,-0.14295691,0.0025087502,0.24558279,-1.8012978,0.6027651,nan,0.6480012,3.8513188,0.45822915,0.84937227,0.10101038,inf,inf,inf,inf,0,1,0,1,1,3,1,3,4,0,0,0,0
394035348,394034271,0,nan,nan,0.50405437,0.19512177,-7.5509887,0.0,0.0,-0.00012689829,0.019771589,0.24900864,0.607696,-0.02085035,-0.0063445233,0.013964439,-0.020002015,-0.28940088,-0.056365106,1.0762475,-1.7443764,0.6027651,nan,0.6612115,3.9208174,0.4565276,0.8592086,0.10074009,inf,inf,inf,inf,0,1,0,1,1,3,1,3,4,0,0,0,0
395034986,395034658,0,nan,nan,0.21138233,0.34803382,-7.5030966,0.0,0.0,-0.00012689829,-0.1831201,0.34123638,0.48083046,-0.13491733,-0.0063445233,0.013964439,-0.020002015,-0.276853,0.40234154,-0.49406496,-1.7433985,0.6027651,nan,0.6133194,3.8992925,0.45922238,0.8555841,0.10074875,inf,inf,inf,inf,0,1,0,1,1,3,1,3,4,0,0,0,0
396031295,396030798,0,nan,nan,-0.10172447,0.57592934,-7.4947314,0.0,0.0,-0.00012689829,-0.22202876,0.41014826,0.8003994,0.18960276,-0.0063445233,0.013964439,-0.020002015,-0.27790114,0.11796854,0.35815516,-1.7581612,0.6027651,nan,0.60495424,3.8754585,0.45776987,0.84701174,0.099992335,inf,inf,inf,inf,0,1,0,1,1,3,1,3,4,0,0,0,0
396536762,396535802,0,nan,nan,-0.21520765,0.6608997,-7.381248,0.0,0.0,-0.00012689829,-0.19676049,0.36633226,1.0311587,0.40249845,-0.0063445233,0.013964439,-0.020002015,-0.10528295,0.29898027,0.118104964,-1.7463362,0.6027651,nan,0.4914708,3.9369955,0.45890406,0.8536979,0.099774905,inf,inf,inf,inf,0,1,0,1,1,3,1,3,4,0,0,0,0
397036549,397035959,0,nan,nan,-0.28969568,0.67868936,-7.220737,0.0,0.0,-0.00012689829,-0.18629801,0.24459098,0.93463534,0.2813579,-0.0063445233,0.013964439,-0.020002015,0.08127526,-0.18709476,-0.78048354,-1.7446762,0.6027651,nan,0.3309598,3.8521962,0.45606634,0.8408573,0.09909618,inf,inf,inf,inf,0,1,0,1,1,3,1,3,4,0,0,0,0
398032587,398032093,0,nan,nan,-0.40511003,0.5027408,-7.2106714,0.0,0.0,-0.00012689829,-0.20357707,-0.062051218,0.7328025,0.026367122,-0.0063445233,0.013964439,-0.020002015,-0.12882425,-0.4323377,0.6866427,-1.7545818,0.6027651,nan,0.32089424,3.820218,0.45720267,0.83621526,0.09861873,inf,inf,inf,inf,0,1,0,1,1,3,1,3,4,0,0,0,0
398532864,398532419,0,nan,nan,-0.44525692,0.31712878,-7.1918654,0.0,0.0,-0.00012689829,-0.19709289,-0.21494423,1.000158,0.26147446,-0.0063445233,0.013964439,-0.020002015,0.35975295,-0.001838505,-0.1441419,-1.7679296,0.6027651,nan,0.30208826,3.880502,0.45423752,0.8430646,0.098023005,inf,inf,inf,inf,0,1,0,1,1,3,1,3,4,0,0,0,0
399038087,399037390,0,nan,nan,-0.47414136,0.090798214,-7.1210837,0.0,0.0,-0.00012689829,-0.19068643,-0.37022394,0.824469,0.047936007,-0.0063445233,0.013964439,-0.020002015,0.02053174,-0.21379529,-1.1322691,-1.777737,0.6027651,nan,0.23130655,3.8026426,0.4557579,0.8294499,0.098008305,inf,inf,inf,inf,0,1,0,1,1,3,1,3,4,0,0,0,0
399528923,399528556,0,nan,nan,-0.4913719,-0.14685263,-7.1812663,0.0,0.0,-0.00012689829,-0.19386247,-0.46454972,0.7780427,-0.025570007,-0.0063445233,0.013964439,-0.020002015,-0.123546034,-0.19299704,1.0582111,-1.7816113,0.6027651,nan,0.29148912,3.8554628,0.45588255,0.83903563,0.097934015,inf,inf,inf,inf,0,1,0,1,1,3,1,3,4,0,0,0,0
400029258,400028926,0,nan,nan,-0.5027618,-0.38661614,-7.156464,0.0,0.0,-0.00012689829,-0.18800546,-0.53574735,1.0053227,0.18388174,-0.0063445233,0.013964439,-0.020002015,0.05024642,-0.005780207,-0.06927894,-1.7844281,0.6027651,nan,0.26668692,3.9157774,0.45674372,0.84407943,0.09791247,inf,inf,inf,inf,0,1,0,1,1,3,1,3,4,0,0,0,0
401035294,401034036,0,nan,nan,-0.54533297,-0.71192634,-7.2219453,0.0,0.0,-0.00012689829,-0.34846878,-0.43569016,0.7594163,-0.0878818,-0.0063445233,0.013964439,-0.020002015,-1.0063965,0.39372352,-0.27918395,-1.7660428,0.6027651,nan,0.3321681,3.8973167,0.45538616,0.8416358,0.09765296,inf,inf,inf,inf,0,1,0,1,1,3,1,3,4,0,0,0,0
402035197,402034742,0,nan,nan,-0.8779688,-0.7276441,-7.0890183,0.0,0.0,-0.00012689829,-0.61900437,-0.2605344,1.0680499,0.25177678,-0.0063445233,0.013964439,-0.020002015,0.21699724,-0.1650106,0.061096765,-1.7809407,0.6027651,nan,0.19924116,3.872126,0.45352057,0.8328178,0.09736592,inf,inf,inf,inf,0,1,0,1,1,3,1,3,4,0,0,0,0
403035990,403035507,0,nan,nan,-1.102998,-0.7246978,-7.055161,0.0,0.0,-0.00012689829,-0.484202,-0.35329497,0.652685,-0.13350534,-0.0063445233,0.013964439,-0.020002015,-0.1277705,-0.3853582,0.99875116,-1.7892854,0.6027651,nan,0.16538382,3.8486226,0.45179453,0.8321796,0.097159326,inf,inf,inf,inf,0,1,0,1,1,3,1,3,4,0,0,0,0
404032107,404031636,0,nan,nan,-1.0987815,-0.7854648,-6.9670796,0.0,0.0,-0.00012689829,-0.3452811,-0.37349784,0.99423885,0.21818268,-0.0063445233,0.013964439,-0.020002015,0.32445338,-0.06480121,0.74082965,-1.7804122,0.6027651,nan,0.1,3.8193634,0.45321652,0.8226769,0.097228386,inf,inf,inf,inf,0,1,0,1,1,3,1,3,4,0,0,0,0
404532271,404531788,0,nan,nan,-1.0541652,-0.8029261,-6.919869,0.0,0.0,-0.00012689829,-0.27887464,-0.30945712,0.6815261,-0.091147766,-0.0063445233,0.013964439,-0.020002015,-0.1586944,0.24288067,-1.0100352,-1.778279,0.6027651,nan,0.1,3.8781276,0.45432213,0.8322739,0.09736575,inf,inf,inf,inf,0,1,0,1,1,3,1,3,4,0,0,0,0
405032765,405032156,0,nan,nan,-0.97473216,-0.7777911,-7.0412583,0.0,0.0,-0.00012689829,-0.22828771,-0.27419752,0.6004133,-0.17357701,-0.0063445233,0.013964439,-0.020002015,0.20587702,-0.26938015,0.42592826,-1.7731502,0.6027651,nan,0.16438866,3.8024871,0.45241085,0.8219319,0.0971743,inf,inf,inf,inf,0,1,0,1,1,3,1,3,4,0,0,0,0
406034021,406032757,0,nan,nan,-0.80252534,-0.7434685,-7.040767,0.0,0.0,-0.00012689829,-0.16987133,-0.21893224,0.7782693,0.010618648,-0.0063445233,0.013964439,-0.020002015,0.034243528,0.19190225,-0.6166318,-1.7949067,0.6027651,nan,0.16389751,3.773885,0.45399207,0.814767,0.09734768,inf,inf,inf,inf,0,1,0,1,1,3,1,3,4,0,0,0,0
406533628,406533156,0,nan,nan,-0.7313822,-0.6732328,-7.120027,0.0,0.0,-0.00012689829,-0.19927952,-0.112258025,0.62427896,-0.1414157,-0.0063445233,0.013964439,-0.020002015,0.09832602,0.1839354,-0.00031100417,-1.8649378,0.6027651,nan,0.24315739,3.8403113,0.4521087,0.82668716,0.09718478,inf,inf,inf,inf,0,1,0,1,1,3,1,3,4,0,0,0,0
407030903,407028893,0,nan,nan,-0.6905409,-0.58492005,-7.145454,0.0,0.0,-0.00012689829,-0.17202368,-0.06458995,0.6874589,-0.07229045,-0.0063445233,0.013964439,-0.020002015,0.13144681,0.035517078,-0.5470805,-1.9761889,0.6027651,nan,0.26858425,3.8914914,0.45255455,0.83104587,0.0972204,inf,inf,inf,inf,0,1,0,1,1,3,1,3,4,0,0,0,0
407532013,407529260,0,nan,nan,-0.75497645,-0.0070864484,-7.2617764,0.0,0.0,-0.00012689829,-0.3083566,0.2783339,0.4431719,-0.3180378,-0.0063445233,0.013964439,-0.020002015,-0.1729156,0.37342697,0.17280716,-2.1120563,0.6027651,nan,0.38490677,3.802145,0.45379713,0.8170827,0.09744638,inf,inf,inf,inf,0,1,0,1,1,3,1,3,4,0,0,0,0
408038641,408034047,0,nan,nan,-0.89134103,0.5303093,-7.384637,0.0,0.0,-0.00012689829,-0.37701216,0.44659317,0.7088317,-0.044411436,-0.0063445233,0.013964439,-0.020002015,-0.17030908,-0.15334275,0.36932233,-2.2305646,0.6027651,nan,0.5077672,3.8648083,0.4519202,0.8229643,0.097301036,inf,inf,inf,inf,0,1,0,1,1,3,1,3,4,0,0,0,0
408530240,408529863,0,nan,nan,-1.0088015,0.75402725,-7.3239684,0.0,0.0,-0.00012689829,-0.45832756,0.52268046,0.91466343,0.17555162,-0.0063445233,0.013964439,-0.020002015,-0.25000817,0.37742928,0.17259893,-2.320654,0.6027651,nan,0.44709873,3.7757487,0.4524741,0.8060384,0.097403936,inf,inf,inf,inf,0,1,0,1,1,3,1,3,4,0,0,0,0
409039804,409039197,0,nan,nan,-1.1750208,0.9013995,-7.2188616,0.0,0.0,-0.00012689829,-0.5194167,0.49318072,0.95377374,0.22669882,-0.0063445233,0.013964439,-0.020002015,-0.0077012377,-0.36601403,-0.035141554,-2.4465413,0.6027651,nan,0.3419919,3.8389332,0.45068333,0.81391895,0.09728539,inf,inf,inf,inf,0,1,0,1,1,3,1,3,4,0,0,0,0
410037931,410035379,0,nan,nan,-1.5489239,0.8352511,-7.090212,0.0,0.0,-0.00012689829,-0.6260867,0.7794461,0.761118,0.052653383,-0.0063445233,0.013964439,-0.020002015,0.4065418,0.43039778,-0.105186105,-2.783603,0.6027651,nan,0.21334219,3.8120303,0.45328236,0.8100477,0.097880356,inf,inf,inf,inf,0,1,0,1,1,3,1,3,4,0,0,0,0
410535682,410531390,0,nan,nan,-1.7070471,0.730881,-7.031461,0.0,0.0,-0.00012689829,-0.58092105,0.93329227,0.766888,0.0754733,-0.0063445233,0.013964439,-0.020002015,0.07654238,0.27935198,-0.59951097,-2.9664829,0.6027651,nan,0.15459108,3.8626907,0.45393983,0.81664926,0.09812991,inf,inf,inf,inf,0,1,0,1,1,3,1,3,4,0,0,0,0
411033594,411031471,0,nan,nan,-1.7811348,0.5756171,-6.9956427,0.0,0.0,-0.00012689829,-0.6207523,0.77901775,0.67131567,-0.0042664297,-0.0063445233,0.013964439,-0.020002015,-0.6793458,0.23971507,-1.3060002,-3.1204488,0.6027651,nan,0.11877298,3.7885408,0.45227727,0.8063912,0.09795744,inf,inf,inf,inf,0,1,0,1,1,3,1,3,4,0,0,0,0
411529618,411527443,0,nan,nan,-1.8365455,0.32709408,-7.0422726,0.0,0.0,-0.00012689829,-0.73872924,0.5681232,0.43905672,-0.22364376,-0.0063445233,0.013964439,-0.020002015,-0.15220939,-0.5577468,-0.11907789,3.0985727,0.6027651,nan,0.16540289,3.839735,0.45292202,0.8162494,0.09798069,inf,inf,inf,inf,0,1,0,1,1,3,1,3,4,0,0,0,0
412037142,412036731,0,nan,nan,-1.8350316,0.03737333,-7.0638604,0.0,0.0,-0.00012689829,-0.80658257,0.36175823,0.769892,0.11295239,-0.0063445233,0.013964439,-0.020002015,-0.4565231,0.172091,0.4188106,3.0461118,0.6027651,nan,0.18699074,3.7683518,0.45123452,0.80233574,0.09759884,inf,inf,inf,inf,0,1,0,1,1,3,1,3,4,0,0,0,0
413035579,413032853,0,nan,nan,-1.6636828,-0.39462766,-7.0640507,0.0,0.0,-0.00012689829,-0.84049755,0.09489232,0.86628896,0.1877463,-0.0063445233,0.013964439,-0.020002015,-0.22274709,-0.26189265,1.14753,2.8878515,0.6027651,nan,0.187181,3.74141,0.45308796,0.79794025,0.09753724,inf,inf,inf,inf,0,1,0,1,1,3,1,3,4,0,0,0,0
413538207,413537589,0,nan,nan,-1.6563584,-0.47569582,-6.9456606,0.0,0.0,-0.00012689829,-0.82499737,-0.026928097,0.9116416,0.21690248,-0.0063445233,0.013964439,-0.020002015,-0.30846992,-0.13279623,-0.62365323,2.8828154,0.6027651,nan,0.1,3.80535,0.45120105,0.8044868,0.09710262,inf,inf,inf,inf,0,1,0,1,1,3,1,3,4,0,0,0,0
414534292,414533726,0,nan,nan,-1.826354,-0.5147158,-7.0268083,0.0,0.0,-0.00012689829,-0.93121254,-0.22620566,0.8261168,0.09399768,-0.0063445233,0.013964439,-0.020002015,-0.2785268,-0.72647744,-0.039247323,2.9209576,0.6027651,nan,0.14993858,3.7866452,0.45343503,0.8017569,0.09715563,inf,inf,inf,inf,0,1,0,1,1,3,1,3,4,0,0,0,0
415034539,415034047,0,nan,nan,-1.9332618,-0.7240212,-7.0545983,0.0,0.0,-0.00012689829,-1.0561033,-0.5101132,0.7382788,-0.01296805,-0.0063445233,0.013964439,-0.020002015,-0.30839455,0.0936687,0.8645676,2.9215927,0.6027651,nan,0.17772865,3.8446152,0.45073476,0.81013393,0.09685017,inf,inf,inf,inf,0,1,0,1,1,3,1,3,4,0,0,0,0
415535759,415534414,0,nan,nan,-2.0424225,-1.0068734,-7.0099096,0.0,0.0,-0.00012689829,-1.1018448,-0.70640725,0.87632906,0.12241112,-0.0063445233,0.013964439,-0.020002015,-0.59958076,-0.9698855,-0.72489893,2.9041162,0.6027651,nan,0.13303995,3.7656045,0.45181105,0.7955069,0.096953444,inf,inf,inf,inf,0,1,0,1,1,3,1,3,4,0,0,0,0
416535666,416535012,0,nan,nan,-2.3470738,-1.6094061,-6.998637,0.0,0.0,-0.00012689829,-1.145512,-0.9382584,0.7362007,0.0011350862,-0.0063445233,0.013964439,-0.020002015,-0.2808663,-0.022648195,0.041940726,2.909904,0.6027651,nan,0.12176752,3.7418823,0.4503438,0.79114366,0.09688131,inf,inf,inf,inf,0,1,0,1,1,3,1,3,4,0,0,0,0
417035666,417035333,0,nan,nan,-2.4531476,-1.8409367,-7.010644,0.0,0.0,-0.00012689829,-1.0819129,-0.9539816,0.7510624,0.01750881,-0.0063445233,0.013964439,-0.020002015,0.12552024,-0.6399909,-1.0050812,2.913161,0.6027651,nan,0.13377428,3.7967641,0.45154208,0.7977119,0.096997045,inf,inf,inf,inf,0,1,0,1,1,3,1,3,4,0,0,0,0
417532407,417531146,0,nan,nan,-2.527133,-2.0248811,-6.992503,0.0,0.0,-0.00012689829,-1.0099748,-0.9750095,0.7210765,-0.0025243731,-0.0063445233,0.013964439,-0.020002015,-0.16722749,-0.33806366,-0.03535811,2.915029,0.6027651,nan,0.11563349,3.8447278,0.45203707,0.8030865,0.09701697,inf,inf,inf,inf,0,1,0,1,1,3,1,3,4,0,0,0,0
418027683,418027132,0,nan,nan,-2.5069208,-2.120354,-6.996484,0.0,0.0,-0.00012689829,-0.9275467,-1.0111336,0.6716101,-0.033463888,-0.0063445233,0.013964439,-0.020002015,0.045184776,-0.37154645,0.3720221,2.91853,0.6027651,nan,0.119614124,3.763077,0.44947037,0.7917969,0.096712045,inf,inf,inf,inf,0,1,0,1,1,3,1,3,4,0,0,0,0
418536912,418536424,0,nan,nan,-2.4682581,-2.2123194,-7.010527,0.0,0.0,-0.00012689829,-0.82002014,-1.0217654,0.65212667,-0.031154025,-0.0063445233,0.013964439,-0.020002015,0.14241247,-0.16271937,-0.5961594,2.9144545,0.6027651,nan,0.13365746,3.8247774,0.45142612,0.8000303,0.09689506,inf,inf,inf,inf,0,1,0,1,1,3,1,3,4,0,0,0,0
419037090,419036618,0,nan,nan,-2.38025,-2.3029647,-6.991614,0.0,0.0,-0.00012689829,-0.7562574,-1.102556,0.81265354,0.13255444,-0.0063445233,0.013964439,-0.020002015,-0.15658283,-0.46359468,1.5896649,2.9076374,0.6027651,nan,0.11474419,3.7446523,0.4526398,0.7861323,0.09697513,inf,inf,inf,inf,0,1,0,1,1,3,1,3,4,0,0,0,0
420037746,420037266,0,nan,nan,-2.132324,-2.6055124,-6.8420696,0.0,0.0,-0.00012689829,-0.59289455,-1.2530563,0.658742,-0.033743035,-0.0063445233,0.013964439,-0.020002015,-0.11056408,-0.65301234,0.17286018,2.9173887,0.6027651,nan,0.1,3.7226558,0.4512904,0.7847939,0.09681767,inf,inf,inf,inf,0,1,0,1,1,3,1,3,4,0,0,0,0
420533523,420533074,0,nan,nan,-2.0069225,-2.7671626,-6.8632774,0.0,0.0,-0.00012689829,-0.54241526,-1.3402969,0.57188916,-0.12048833,-0.0063445233,0.013964439,-0.020002015,0.0014953646,-0.30565977,-0.529615,2.926792,0.6027651,nan,0.1,3.7787707,0.45250222,0.7930067,0.09697224,inf,inf,inf,inf,0,1,0,1,1,3,1,3,4,0,0,0,0
421029524,421028887,0,nan,nan,-1.8933595,-2.9581418,-6.9902425,0.0,0.0,-0.00012689829,-0.46371573,-1.3804606,0.29411533,-0.38911688,-0.0063445233,0.013964439,-0.020002015,0.17713472,0.047563456,-0.77876645,2.9255009,0.6027651,nan,0.20100117,3.8290143,0.45298824,0.8029712,0.0970505,inf,inf,inf,inf,0,1,0,1,1,3,1,3,4,0,0,0,0
422026715,422025292,0,nan,nan,-1.5136034,-3.137827,-7.16526,0.0,0.0,-0.00012689829,-0.22376832,-1.3552079,0.6319095,-0.017578,-0.0063445233,0.013964439,-0.020002015,0.1644943,-0.025665851,1.0910468,2.9256847,0.6027651,nan,0.37601852,3.8081055,0.4516513,0.7995009,0.096781,inf,inf,inf,inf,0,1,0,1,1,3,1,3,4,0,0,0,0
423035195,423034677,0,nan,nan,-1.0426213,-3.26516,-7.2541814,0.0,0.0,-0.00012689829,-0.011033429,-1.3692195,0.5246739,-0.120275155,-0.0063445233,0.013964439,-0.020002015,0.121084236,-0.0021514231,0.71296257,2.919129,0.6027651,nan,0.46494007,3.7944736,0.4509434,0.80193645,0.09673463,inf,inf,inf,inf,0,1,0,1,1,3,1,3,4,0,0,0,0
424040351,424039976,0,nan,nan,-0.5287843,-3.2423604,-7.15129,0.0,0.0,-0.00012689829,0.16337833,-1.2852404,0.7258245,0.07205062,-0.0063445233,0.013964439,-0.020002015,0.027951576,0.005005599,0.15305561,2.9359684,0.6027651,nan,0.36204863,3.7845898,0.4502861,0.80139065,0.096745044,inf,inf,inf,inf,0,1,0,1,1,3,1,3,4,0,0,0,0
