timestamp,timestamp_sample,gyro_device_id,gyro_bias[0],gyro_bias[1],gyro_bias[2],gyro_bias_limit,gyro_bias_variance[0],gyro_bias_variance[1],gyro_bias_variance[2],accel_device_id,accel_bias[0],accel_bias[1],accel_bias[2],accel_bias_limit,accel_bias_variance[0],accel_bias_variance[1],accel_bias_variance[2],mag_device_id,mag_bias[0],mag_bias[1],mag_bias[2],mag_bias_limit,mag_bias_variance[0],mag_bias_variance[1],mag_bias_variance[2],gyro_bias_valid,accel_bias_valid,mag_bias_valid
293473541,293472595,3932170,-0.00075167103,0.0011195921,0.0067749796,0.34906584,2.0504567e-09,2.0505875e-09,3.27533e-09,3932170,0.04163066,0.022044417,-0.14470717,0.4,6.852239e-06,5.003583e-06,5.0035555e-06,396825,-0.038596474,-0.046909757,-0.041711815,0.5,1.8360785e-06,1.8890905e-06,0.00012688963,1,1,1
293873154,293872045,3932170,-0.0007428988,0.0011168595,0.0066707917,0.34906584,2.048964e-09,2.0490944e-09,3.27659e-09,3932170,0.04164016,0.022049446,-0.1457305,0.4,6.8538025e-06,5.0047247e-06,5.0046974e-06,396825,-0.038596474,-0.046909757,-0.041711815,0.5,1.8360785e-06,1.8890905e-06,0.00012688963,1,1,1
294512107,294511159,3932170,-0.0007294521,0.0011125032,0.006507663,0.34906584,2.0504858e-09,2.050615e-09,3.2787186e-09,3932170,0.041648906,0.022054076,-0.14677234,0.4,6.8552417e-06,5.0057756e-06,5.0057483e-06,396825,-0.038596474,-0.046909757,-0.041711815,0.5,1.8360785e-06,1.8890905e-06,0.00012688963,1,1,1
295705547,295704512,3932170,-0.00072701985,0.0011085431,0.006274391,0.34906584,2.162773e-09,2.1629019e-09,3.2713328e-09,3932170,0.04153018,0.02199162,-0.14777417,0.4,6.8366044e-06,4.9924174e-06,4.9914684e-06,396825,-0.038596474,-0.046909757,-0.041711815,0.5,1.8360785e-06,1.8890905e-06,0.00012688963,1,1,1
297353094,297352238,3932170,-0.0007273223,0.0011109597,0.006099008,0.34906584,2.3275752e-09,2.3277025e-09,3.2833951e-09,3932170,0.04163073,0.022062495,-0.14877951,0.4,6.8538257e-06,5.0056574e-06,5.0039334e-06,396825,-0.038596474,-0.046909757,-0.041711815,0.5,1.8360785e-06,1.8890905e-06,0.00012688963,1,1,1
298012411,298011329,3932170,-0.00072633236,0.0011106863,0.0059381383,0.34906584,2.3886728e-09,2.3887992e-09,3.2852305e-09,3932170,0.04164194,0.022086756,-0.14979361,0.4,6.8538525e-06,5.0063404e-06,5.0053854e-06,396825,-0.038596474,-0.046909757,-0.041711815,0.5,1.8360785e-06,1.8890905e-06,0.00012688963,1,1,1
298311795,298310915,3932170,-0.00072540547,0.0011105313,0.0058154287,0.34906584,2.4132931e-09,2.413421e-09,3.2861727e-09,3932170,0.041638903,0.02210464,-0.15086927,0.4,6.8514987e-06,5.0058484e-06,5.0057856e-06,396825,-0.038596474,-0.046909757,-0.041711815,0.5,1.8360785e-06,1.8890905e-06,0.00012688963,1,1,1
298501551,298500657,3932170,-0.0007248075,0.0011106213,0.0057052136,0.34906584,2.4289124e-09,2.4290419e-09,3.2863445e-09,3932170,0.041634165,0.02211495,-0.15190431,0.4,6.84973e-06,5.0060166e-06,5.005972e-06,396825,-0.038596474,-0.046909757,-0.041711815,0.5,1.8360785e-06,1.8890905e-06,0.00012688963,1,1,1
298671336,298670419,3932170,-0.0007240129,0.0011106675,0.005590433,0.34906584,2.4419866e-09,2.4421192e-09,3.286663e-09,3932170,0.041626103,0.02212618,-0.15296154,0.4,6.8474037e-06,5.0061303e-06,5.0061217e-06,396825,-0.038596474,-0.046909757,-0.041711815,0.5,1.8360785e-06,1.8890905e-06,0.00012688963,1,1,1
298821056,298820213,3932170,-0.0007237667,0.0011106075,0.0054806666,0.34906584,2.457017e-09,2.4571494e-09,3.286948e-09,3932170,0.041626807,0.022126148,-0.15404725,0.4,6.847572e-06,5.00629e-06,5.006146e-06,396825,-0.038596474,-0.046909757,-0.041711815,0.5,1.8360785e-06,1.8890905e-06,0.00012688963,1,1,1
298950986,298950035,3932170,-0.00072318513,0.001111578,0.005377218,0.34906584,2.4655225e-09,2.4656595e-09,3.2874996e-09,3932170,0.041615736,0.02213855,-0.15509078,0.4,6.844678e-06,5.006387e-06,5.006315e-06,396825,-0.038596474,-0.046909757,-0.041711815,0.5,1.8360785e-06,1.8890905e-06,0.00012688963,1,1,1
299085795,299084849,3932170,-0.0007225425,0.0011124765,0.0052692075,0.34906584,2.4733937e-09,2.4735374e-09,3.2878713e-09,3932170,0.041600477,0.022152195,-0.156137,0.4,6.841063e-06,5.006397e-06,5.0063873e-06,396825,-0.038596474,-0.046909757,-0.041711815,0.5,1.8360785e-06,1.8890905e-06,0.00012688963,1,1,1
299265529,299264601,3932170,-0.0007195585,0.0011074686,0.005079044,0.34906584,2.4807931e-09,2.4809357e-09,3.2730212e-09,3932170,0.041423764,0.022057341,-0.1572054,0.4,6.8120544e-06,4.9852106e-06,4.98504e-06,396825,-0.038596474,-0.046909757,-0.041711815,0.5,1.8360785e-06,1.8890905e-06,0.00012688963,1,1,1
299375351,299374479,3932170,-0.0007192388,0.0011081685,0.0049849274,0.34906584,2.487072e-09,2.487224e-09,3.2750118e-09,3932170,0.041422658,0.022082515,-0.15823583,0.4,6.810762e-06,4.9873975e-06,4.9873165e-06,396825,-0.038596474,-0.046909757,-0.041711815,0.5,1.8360785e-06,1.8890905e-06,0.00012688963,1,1,1
299485124,299484298,3932170,-0.00071965274,0.0011080749,0.004889513,0.34906584,2.4989935e-09,2.4991451e-09,3.2767569e-09,3932170,0.041438438,0.0220906,-0.15931255,0.4,6.813449e-06,4.9893915e-06,4.989212e-06,396825,-0.038596474,-0.046909757,-0.041711815,0.5,1.8360785e-06,1.8890905e-06,0.00012688963,1,1,1
299585107,299584161,3932170,-0.0007192544,0.0011088025,0.0047955513,0.34906584,2.503348e-09,2.503513e-09,3.277453e-09,3932170,0.04143089,0.022115732,-0.16033883,0.4,6.810765e-06,4.9911114e-06,4.9910304e-06,396825,-0.038596474,-0.046909757,-0.041711815,0.5,1.8360785e-06,1.8890905e-06,0.00012688963,1,1,1
299694946,299694009,3932170,-0.00071969867,0.0011089874,0.0046995776,0.34906584,2.5151619e-09,2.5153268e-09,3.2790344e-09,3932170,0.041445673,0.022122977,-0.16134147,0.4,6.8131235e-06,4.992866e-06,4.9926857e-06,396825,-0.038596474,-0.046909757,-0.041711815,0.5,1.8360785e-06,1.8890905e-06,0.00012688963,1,1,1
299804739,299803857,3932170,-0.00071924936,0.0011108251,0.0046011414,0.34906584,2.5196074e-09,2.5197908e-09,3.2805059e-09,3932170,0.04143582,0.022148637,-0.16241047,0.4,6.8091754e-06,4.9942614e-06,4.9941714e-06,396825,-0.038596474,-0.046909757,-0.041711815,0.5,1.8360785e-06,1.8890905e-06,0.00012688963,1,1,1
299914749,299913706,3932170,-0.0007187089,0.0011133885,0.004503116,0.34906584,2.5231963e-09,2.523403e-09,3.2818757e-09,3932170,0.04142725,0.02217622,-0.16345578,0.4,6.8041454e-06,4.9955056e-06,4.9955056e-06,396825,-0.038596474,-0.046909757,-0.041711815,0.5,1.8360785e-06,1.8890905e-06,0.00012688963,1,1,1
300034455,300033541,3932170,-0.00071928644,0.001116009,0.0043866686,0.34906584,2.53584e-09,2.5360418e-09,3.282155e-09,3932170,0.041444506,0.022181759,-0.16464856,0.4,6.8060085e-06,4.996903e-06,4.9967953e-06,396825,-0.038596474,-0.046909757,-0.041711815,0.5,1.8360785e-06,1.8890905e-06,0.00012688963,1,1,1
300164235,300163362,3932170,-0.0007187386,0.0011183938,0.0042708865,0.34906584,2.5405706e-09,2.5408045e-09,3.2832916e-09,3932170,0.0414413,0.022212949,-0.16581038,0.4,6.7999395e-06,4.9980695e-06,4.998033e-06,396825,-0.038596474,-0.046909757,-0.041711815,0.5,1.8360785e-06,1.8890905e-06,0.00012688963,1,1,1
300294099,300293184,3932170,-0.00071942026,0.0011186777,0.0041538696,0.34906584,2.554116e-09,2.55435e-09,3.2844285e-09,3932170,0.04145292,0.022217568,-0.16702868,0.4,6.8015206e-06,4.9992645e-06,4.9991113e-06,396825,-0.038596474,-0.046909757,-0.041711815,0.5,1.8360785e-06,1.8890905e-06,0.00012688963,1,1,1
300423917,300423004,3932170,-0.000718735,0.0011186295,0.004036271,0.34906584,2.5578708e-09,2.5581492e-09,3.2853815e-09,3932170,0.041448988,0.022252575,-0.1682124,0.4,6.7941037e-06,5.0001518e-06,5.000071e-06,396825,-0.038596474,-0.046909757,-0.041711815,0.5,1.8360785e-06,1.8890905e-06,0.00012688963,1,1,1
300523853,300522866,3932170,-0.00071933866,0.0011179899,0.0039360896,0.34906584,2.5682065e-09,2.5684845e-09,3.2852983e-09,3932170,0.041455016,0.02225541,-0.16925111,0.4,6.7950787e-06,5.000896e-06,5.0007247e-06,396825,-0.038596474,-0.046909757,-0.041711815,0.5,1.8360785e-06,1.8890905e-06,0.00012688963,1,1,1
300633679,300632714,3932170,-0.00071834517,0.0011178395,0.0038339025,0.34906584,2.5689477e-09,2.569282e-09,3.2862002e-09,3932170,0.041454837,0.022294445,-0.17027676,0.4,6.7862215e-06,5.0014496e-06,5.0013687e-06,396825,-0.038596474,-0.046909757,-0.041711815,0.5,1.8360785e-06,1.8890905e-06,0.00012688963,1,1,1
300743644,300742564,3932170,-0.0007189975,0.0011177778,0.0037301166,0.34906584,2.58025e-09,2.5805846e-09,3.2870626e-09,3932170,0.04146108,0.022296794,-0.17137831,0.4,6.7871033e-06,5.00213e-06,5.0019503e-06,396825,-0.038596474,-0.046909757,-0.041711815,0.5,1.8360785e-06,1.8890905e-06,0.00012688963,1,1,1
300843388,300842454,3932170,-0.00071780983,0.0011180413,0.0036230527,0.34906584,2.5790405e-09,2.5794458e-09,3.286849e-09,3932170,0.04146952,0.02234069,-0.17244479,0.4,6.7769884e-06,5.002499e-06,5.002419e-06,396825,-0.038596474,-0.046909757,-0.041711815,0.5,1.8360785e-06,1.8890905e-06,0.00012688963,1,1,1
300953246,300952275,3932170,-0.00071849424,0.0011185121,0.0035133595,0.34906584,2.5902147e-09,2.5906204e-09,3.2875338e-09,3932170,0.04147723,0.0223423,-0.17354779,0.4,6.777523e-06,5.0029253e-06,5.0027465e-06,396825,-0.038596474,-0.046909757,-0.041711815,0.5,1.8360785e-06,1.8890905e-06,0.00012688963,1,1,1
301063073,301062124,3932170,-0.0007171514,0.0011185129,0.0034025097,0.34906584,2.5891933e-09,2.5896871e-09,3.2883718e-09,3932170,0.041496906,0.022392841,-0.17465068,0.4,6.7665237e-06,5.003394e-06,5.0033045e-06,396825,-0.038596474,-0.046909757,-0.041711815,0.5,1.8360785e-06,1.8890905e-06,0.00012688963,1,1,1
301163011,301161986,3932170,-0.0007179453,0.0011182721,0.0032887238,0.34906584,2.5993747e-09,2.5998694e-09,3.2880647e-09,3932170,0.041502018,0.022394551,-0.1758142,0.4,6.7670617e-06,5.0038225e-06,5.0036438e-06,396825,-0.038596474,-0.046909757,-0.041711815,0.5,1.8360785e-06,1.8890905e-06,0.00012688963,1,1,1
301252819,301251862,3932170,-0.0007162665,0.0011172327,0.0031956066,0.34906584,2.5953628e-09,2.5959654e-09,3.2888856e-09,3932170,0.041523512,0.022449898,-0.17682886,0.4,6.7546744e-06,5.003997e-06,5.0039253e-06,396825,-0.038596474,-0.046909757,-0.041711815,0.5,1.8360785e-06,1.8890905e-06,0.00012688963,1,1,1
301362587,301361711,3932170,-0.0007171407,0.0011166906,0.0030775086,0.34906584,2.6065334e-09,2.6071367e-09,3.289553e-09,3932170,0.041526534,0.022451544,-0.1780502,0.4,6.7551846e-06,5.004409e-06,5.004239e-06,396825,-0.038596474,-0.046909757,-0.041711815,0.5,1.8360785e-06,1.8890905e-06,0.00012688963,1,1,1
301462521,301461573,3932170,-0.0007153403,0.0011152993,0.0029550618,0.34906584,2.6026017e-09,2.6033349e-09,3.2890717e-09,3932170,0.041563194,0.022514151,-0.17924811,0.4,6.741571e-06,5.0044023e-06,5.0043304e-06,396825,-0.038596474,-0.046909757,-0.041711815,0.5,1.8360785e-06,1.8890905e-06,0.00012688963,1,1,1
301552379,301551450,3932170,-0.00071609986,0.0011151993,0.002856492,0.34906584,2.6118006e-09,2.6125344e-09,3.289827e-09,3932170,0.041568436,0.02251625,-0.18025568,0.4,6.7421342e-06,5.0048525e-06,5.0047e-06,396825,-0.038596474,-0.046909757,-0.041711815,0.5,1.8360785e-06,1.8890905e-06,0.00012688963,1,1,1
301632170,301631341,3932170,-0.00071387267,0.0011137519,0.002755712,0.34906584,2.605009e-09,2.6058973e-09,3.2894287e-09,3932170,0.041613523,0.022584766,-0.18130505,0.4,6.727395e-06,5.0046897e-06,5.0046538e-06,396825,-0.038596474,-0.046909757,-0.041711815,0.5,1.8360785e-06,1.8890905e-06,0.00012688963,1,1,1
301722104,301721215,3932170,-0.00071437814,0.0011135786,0.0026535206,0.34906584,2.6142224e-09,2.6151106e-09,3.2901957e-09,3932170,0.041619062,0.022586223,-0.18233924,0.4,6.727989e-06,5.0051653e-06,5.005049e-06,396825,-0.038596474,-0.046909757,-0.041711815,0.5,1.8360785e-06,1.8890905e-06,0.00012688963,1,1,1
301802133,301801105,3932170,-0.0007116556,0.0011112664,0.0025499165,0.34906584,2.606788e-09,2.6078562e-09,3.289918e-09,3932170,0.041674364,0.022662057,-0.18342726,0.4,6.7126302e-06,5.0051913e-06,5.0051913e-06,396825,-0.038596474,-0.046909757,-0.041711815,0.5,1.8360785e-06,1.8890905e-06,0.00012688963,1,1,1
301891910,301890982,3932170,-0.0007124919,0.0011106759,0.0024432363,0.34906584,2.6158515e-09,2.61692e-09,3.2904925e-09,3932170,0.041676063,0.022663865,-0.18448214,0.4,6.712835e-06,5.005379e-06,5.0052986e-06,396825,-0.038596474,-0.046909757,-0.041711815,0.5,1.8360785e-06,1.8890905e-06,0.00012688963,1,1,1
301981744,301980858,3932170,-0.0007134836,0.0011101116,0.0023360553,0.34906584,2.6249485e-09,2.626017e-09,3.291107e-09,3932170,0.04167655,0.02266617,-0.18557614,0.4,6.713121e-06,5.005629e-06,5.005468e-06,396825,-0.038596474,-0.046909757,-0.041711815,0.5,1.8360785e-06,1.8890905e-06,0.00012688963,1,1,1
302061711,302060749,3932170,-0.000710875,0.001107499,0.0022291231,0.34906584,2.61681e-09,2.6180889e-09,3.2908034e-09,3932170,0.041741185,0.022752043,-0.18668224,0.4,6.6969237e-06,5.00563e-06,5.005585e-06,396825,-0.038596474,-0.046909757,-0.041711815,0.5,1.8360785e-06,1.8890905e-06,0.00012688963,1,1,1
302151563,302150624,3932170,-0.0007117558,0.0011069528,0.002120387,0.34906584,2.6258724e-09,2.6271514e-09,3.2913656e-09,3932170,0.041739594,0.022753716,-0.18780535,0.4,6.697119e-06,5.0058143e-06,5.0056888e-06,396825,-0.038596474,-0.046909757,-0.041711815,0.5,1.8360785e-06,1.8890905e-06,0.00012688963,1,1,1
302231493,302230515,3932170,-0.00070867786,0.0011041196,0.002012005,0.34906584,2.6170952e-09,2.6186149e-09,3.2910448e-09,3932170,0.04180826,0.022846423,-0.18896778,0.4,6.680175e-06,5.0057956e-06,5.005786e-06,396825,-0.038596474,-0.046909757,-0.041711815,0.5,1.8360785e-06,1.8890905e-06,0.00012688963,1,1,1
302321333,302320390,3932170,-0.00070939516,0.0011035616,0.0019039672,0.34906584,2.6261584e-09,2.627678e-09,3.291601e-09,3932170,0.04180676,0.022847865,-0.19006576,0.4,6.6803677e-06,5.00598e-06,5.0058898e-06,396825,-0.038596474,-0.046909757,-0.041711815,0.5,1.8360785e-06,1.8890905e-06,0.00012688963,1,1,1
302401374,302400280,3932170,-0.0007099715,0.0011029885,0.0017941921,0.34906584,2.6342062e-09,2.6357259e-09,3.2911307e-09,3932170,0.04180503,0.0228485,-0.19117521,0.4,6.6805133e-06,5.006127e-06,5.005966e-06,396825,-0.038596474,-0.046909757,-0.041711815,0.5,1.8360785e-06,1.8890905e-06,0.00012688963,1,1,1
302491068,302490156,3932170,-0.0007062225,0.0011000127,0.0016849104,0.34906584,2.6258478e-09,2.6276397e-09,3.2917769e-09,3932170,0.041878413,0.02294691,-0.19232264,0.4,6.662894e-06,5.0060776e-06,5.006024e-06,396825,-0.038596474,-0.046909757,-0.041711815,0.5,1.8360785e-06,1.8890905e-06,0.00012688963,1,1,1
302571052,302570047,3932170,-0.00070661353,0.0010994571,0.0015761531,0.34906584,2.6338287e-09,2.6356208e-09,3.291216e-09,3932170,0.041874006,0.02294611,-0.19342825,0.4,6.662868e-06,5.006098e-06,5.0059725e-06,396825,-0.038596474,-0.046909757,-0.041711815,0.5,1.8360785e-06,1.8890905e-06,0.00012688963,1,1,1
302660873,302659923,3932170,-0.0007025998,0.0010964551,0.0014677788,0.34906584,2.6250557e-09,2.6271534e-09,3.291956e-09,3932170,0.041951742,0.023050744,-0.19456245,0.4,6.6449124e-06,5.0061963e-06,5.006178e-06,396825,-0.038596474,-0.046909757,-0.041711815,0.5,1.8360785e-06,1.8890905e-06,0.00012688963,1,1,1
302745705,302744807,3932170,-0.0007030064,0.0010959631,0.0013584368,0.34906584,2.6330924e-09,2.6351905e-09,3.291457e-09,3932170,0.041949313,0.023050904,-0.19564857,0.4,6.6450257e-06,5.0063218e-06,5.006232e-06,396825,-0.038596474,-0.046909757,-0.041711815,0.5,1.8360785e-06,1.8890905e-06,0.00012688963,1,1,1
302895544,302894601,3932170,-0.00069617043,0.0010876462,0.0011619641,0.34906584,2.6179856e-09,2.6204101e-09,3.2766767e-09,3932170,0.041832943,0.023054697,-0.1966965,0.4,6.596485e-06,4.983609e-06,4.9835644e-06,396825,-0.038596474,-0.046909757,-0.041711815,0.5,1.8360785e-06,1.8890905e-06,0.00012688963,1,1,1
302975370,302974490,3932170,-0.0006969979,0.0010876213,0.0010533213,0.34906584,2.626904e-09,2.6293296e-09,3.2774632e-09,3932170,0.041840274,0.023063308,-0.19790617,0.4,6.5989148e-06,4.985475e-06,4.985359e-06,396825,-0.038596474,-0.046909757,-0.041711815,0.5,1.8360785e-06,1.8890905e-06,0.00012688963,1,1,1
303065250,303064366,3932170,-0.0006932341,0.0010850551,0.0009450316,0.34906584,2.6183544e-09,2.6211509e-09,3.2791245e-09,3932170,0.04193287,0.023184013,-0.19907048,0.4,6.582527e-06,4.9872137e-06,4.9872046e-06,396825,-0.038596474,-0.046909757,-0.041711815,0.5,1.8360785e-06,1.8890905e-06,0.00012688963,1,1,1
303155252,303154242,3932170,-0.0006941564,0.0010850185,0.0008358874,0.34906584,2.6282303e-09,2.631029e-09,3.2806926e-09,3932170,0.041942824,0.023193995,-0.20022078,0.4,6.584831e-06,4.9890045e-06,4.988916e-06,396825,-0.038596474,-0.046909757,-0.041711815,0.5,1.8360785e-06,1.8890905e-06,0.00012688963,1,1,1
303235051,303234133,3932170,-0.00069505477,0.001084944,0.0007282723,0.34906584,2.6369398e-09,2.63974e-09,3.2811927e-09,3932170,0.041944165,0.02320153,-0.20142046,0.4,6.586705e-06,4.9904547e-06,4.990294e-06,396825,-0.038596474,-0.046909757,-0.041711815,0.5,1.8360785e-06,1.8890905e-06,0.00012688963,1,1,1
303324908,303324008,3932170,-0.00069114706,0.0010823789,0.0006196761,0.34906584,2.6278926e-09,2.6310967e-09,3.282571e-09,3932170,0.04202818,0.023323068,-0.20259286,0.4,6.5695303e-06,4.991786e-06,4.991733e-06,396825,-0.038596474,-0.046909757,-0.041711815,0.5,1.8360785e-06,1.8890905e-06,0.00012688963,1,1,1
303404894,303403899,3932170,-0.0006919995,0.0010822671,0.00051246595,0.34906584,2.6364955e-09,2.6397013e-09,3.282929e-09,3932170,0.042029236,0.023330286,-0.2037453,0.4,6.571124e-06,4.9930272e-06,4.9929026e-06,396825,-0.038596474,-0.046909757,-0.041711815,0.5,1.8360785e-06,1.8890905e-06,0.00012688963,1,1,1
303494708,303493774,3932170,-0.0006879417,0.0010797919,0.00040637335,0.34906584,2.6271176e-09,2.630759e-09,3.2841432e-09,3932170,0.042104557,0.023452135,-0.20491256,0.4,6.5535132e-06,4.994128e-06,4.9941104e-06,396825,-0.038596474,-0.046909757,-0.041711815,0.5,1.8360785e-06,1.8890905e-06,0.00012688963,1,1,1
303574732,303573665,3932170,-0.000688582,0.0010796519,0.0003011445,0.34906584,2.635624e-09,2.639267e-09,3.2842005e-09,3932170,0.042106036,0.023457875,-0.2059967,0.4,6.5548334e-06,4.9951796e-06,4.9950904e-06,396825,-0.038596474,-0.046909757,-0.041711815,0.5,1.8360785e-06,1.8890905e-06,0.00012688963,1,1,1
303664500,303663541,3932170,-0.00068938045,0.0010793089,0.00019630599,0.34906584,2.6451548e-09,2.6487992e-09,3.2854477e-09,3932170,0.042101733,0.02346438,-0.20712504,0.4,6.556235e-06,4.996281e-06,4.9961113e-06,396825,-0.038596474,-0.046909757,-0.041711815,0.5,1.8360785e-06,1.8890905e-06,0.00012688963,1,1,1
303744379,303743432,3932170,-0.0006852068,0.0010767297,9.142152e-05,0.34906584,2.6344347e-09,2.6385445e-09,3.2853944e-09,3932170,0.04216875,0.023586545,-0.20820747,0.4,6.5380877e-06,4.9969954e-06,4.9969417e-06,396825,-0.038596474,-0.046909757,-0.041711815,0.5,1.8360785e-06,1.8890905e-06,0.00012688963,1,1,1
303834204,303833307,3932170,-0.0006859759,0.0010764607,-1.1800322e-05,0.34906584,2.6438698e-09,2.647981e-09,3.286514e-09,3932170,0.042160325,0.023592003,-0.20934522,0.4,6.539241e-06,4.9979103e-06,4.997776e-06,396825,-0.038596474,-0.046909757,-0.041711815,0.5,1.8360785e-06,1.8890905e-06,0.00012688963,1,1,1
303914218,303913197,3932170,-0.0006817706,0.0010741483,-0.00011429172,0.34906584,2.6330134e-09,2.6376195e-09,3.2863794e-09,3932170,0.04221723,0.023713602,-0.2104374,0.4,6.521033e-06,4.9985215e-06,4.9985038e-06,396825,-0.038596474,-0.046909757,-0.041711815,0.5,1.8360785e-06,1.8890905e-06,0.00012688963,1,1,1
304004116,304003075,3932170,-0.0006825213,0.0010739773,-0.00021629118,0.34906584,2.6423905e-09,2.6469986e-09,3.2872218e-09,3932170,0.04220733,0.023718568,-0.21156803,0.4,6.522015e-06,4.999323e-06,4.9992254e-06,396825,-0.038596474,-0.046909757,-0.041711815,0.5,1.8360785e-06,1.8890905e-06,0.00012688963,1,1,1
304083881,304082964,3932170,-0.0006832329,0.0010738446,-0.00031786604,0.34906584,2.650702e-09,2.6553115e-09,3.2871745e-09,3932170,0.042200804,0.023723237,-0.21263613,0.4,6.5228387e-06,4.9999862e-06,4.9998166e-06,396825,-0.038596474,-0.046909757,-0.041711815,0.5,1.8360785e-06,1.8890905e-06,0.00012688963,1,1,1
304173735,304172840,3932170,-0.00067899533,0.0010718215,-0.00041893817,0.34906584,2.6407605e-09,2.6458913e-09,3.2879284e-09,3932170,0.04225314,0.023844259,-0.21366952,0.4,6.5046456e-06,5.0004874e-06,5.000425e-06,396825,-0.038596474,-0.046909757,-0.041711815,0.5,1.8360785e-06,1.8890905e-06,0.00012688963,1,1,1
304263664,304262717,3932170,-0.0006797062,0.0010716447,-0.0005187354,0.34906584,2.6500608e-09,2.6551934e-09,3.2888567e-09,3932170,0.04224508,0.02384901,-0.21471694,0.4,6.5054446e-06,5.0011363e-06,5.0009926e-06,396825,-0.038596474,-0.046909757,-0.041711815,0.5,1.8360785e-06,1.8890905e-06,0.00012688963,1,1,1
304343556,304342606,3932170,-0.0006755056,0.0010698197,-0.0006179587,0.34906584,2.6390696e-09,2.6447482e-09,3.2884904e-09,3932170,0.042285204,0.023967776,-0.21578376,0.4,6.4872834e-06,5.0014696e-06,5.0014423e-06,396825,-0.038596474,-0.046909757,-0.041711815,0.5,1.8360785e-06,1.8890905e-06,0.00012688963,1,1,1
304433428,304432482,3932170,-0.0006762139,0.0010696934,-0.00071640644,0.34906584,2.648317e-09,2.6539981e-09,3.2891225e-09,3932170,0.042275198,0.023972074,-0.21682692,0.4,6.487928e-06,5.0020167e-06,5.0019084e-06,396825,-0.038596474,-0.046909757,-0.041711815,0.5,1.8360785e-06,1.8890905e-06,0.00012688963,1,1,1
304513349,304512372,3932170,-0.00067691633,0.0010694971,-0.00081365573,0.34906584,2.6565237e-09,2.6622067e-09,3.2889176e-09,3932170,0.042264607,0.023976095,-0.21784066,0.4,6.48848e-06,5.0024746e-06,5.0022945e-06,396825,-0.038596474,-0.046909757,-0.041711815,0.5,1.8360785e-06,1.8890905e-06,0.00012688963,1,1,1
304612989,304612234,3932170,-0.000672757,0.0010677598,-0.0009104067,0.34906584,2.6476175e-09,2.6538673e-09,3.2905203e-09,3932170,0.042300373,0.024093855,-0.218834,0.4,6.470652e-06,5.002821e-06,5.002749e-06,396825,-0.038596474,-0.046909757,-0.041711815,0.5,1.8360785e-06,1.8890905e-06,0.00012688963,1,1,1
304683127,304682139,3932170,-0.0006734639,0.0010674917,-0.0010066996,0.34906584,2.6547688e-09,2.6610203e-09,3.2892387e-09,3932170,0.042287014,0.024097586,-0.21983612,0.4,6.4710566e-06,5.0031645e-06,5.0030208e-06,396825,-0.038596474,-0.046909757,-0.041711815,0.5,1.8360785e-06,1.8890905e-06,0.00012688963,1,1,1
304792940,304791988,3932170,-0.00066953944,0.0010658455,-0.0011239282,0.34906584,2.6469722e-09,2.6538096e-09,3.2897367e-09,3932170,0.04231092,0.024213577,-0.22106674,0.4,6.4535734e-06,5.0034787e-06,5.0034246e-06,396825,-0.038596474,-0.046909757,-0.041711815,0.5,1.8360785e-06,1.8890905e-06,0.00012688963,1,1,1
304902745,304901880,3932170,-0.0006703937,0.0010656669,-0.0012378694,0.34906584,2.658169e-09,2.6650089e-09,3.2901972e-09,3932170,0.04229595,0.024218228,-0.22225231,0.4,6.4540936e-06,5.0039375e-06,5.0037847e-06,396825,-0.038596474,-0.046909757,-0.041711815,0.5,1.8360785e-06,1.8890905e-06,0.00012688963,1,1,1
305002642,305001700,3932170,-0.0006664904,0.0010643093,-0.0013503962,0.34906584,2.6494842e-09,2.6569256e-09,3.2896e-09,3932170,0.042319436,0.02433136,-0.22339137,0.4,6.4369106e-06,5.004138e-06,5.004084e-06,396825,-0.038596474,-0.046909757,-0.041711815,0.5,1.8360785e-06,1.8890905e-06,0.00012688963,1,1,1
305112502,305111556,3932170,-0.0006673058,0.0010642161,-0.0014565039,0.34906584,2.6606446e-09,2.6680884e-09,3.2899836e-09,3932170,0.04230314,0.024335472,-0.22451773,0.4,6.437337e-06,5.0045255e-06,5.0043723e-06,396825,-0.038596474,-0.046909757,-0.041711815,0.5,1.8360785e-06,1.8890905e-06,0.00012688963,1,1,1
305222361,305221396,3932170,-0.000663458,0.0010629991,-0.0015616692,0.34906584,2.6531162e-09,2.6611746e-09,3.2903171e-09,3932170,0.042319227,0.02444534,-0.2256168,0.4,6.420563e-06,5.0046606e-06,5.0045974e-06,396825,-0.038596474,-0.046909757,-0.041711815,0.5,1.8360785e-06,1.8890905e-06,0.00012688963,1,1,1
305322190,305321259,3932170,-0.00066428527,0.0010628633,-0.001668882,0.34906584,2.6632623e-09,2.6713225e-09,3.289657e-09,3932170,0.042302947,0.024449667,-0.22672562,0.4,6.420942e-06,5.005011e-06,5.004858e-06,396825,-0.038596474,-0.046909757,-0.041711815,0.5,1.8360785e-06,1.8890905e-06,0.00012688963,1,1,1
305431997,305431110,3932170,-0.0006605582,0.0010616936,-0.0017770232,0.34906584,2.655942e-09,2.664627e-09,3.2899499e-09,3932170,0.0423134,0.024556957,-0.22784093,0.4,6.4046862e-06,5.005132e-06,5.005069e-06,396825,-0.038596474,-0.046909757,-0.041711815,0.5,1.8360785e-06,1.8890905e-06,0.00012688963,1,1,1
305541795,305540957,3932170,-0.0006614272,0.0010615434,-0.0018864208,0.34906584,2.6670461e-09,2.675733e-09,3.2902103e-09,3932170,0.04229185,0.024561035,-0.229006,0.4,6.4049677e-06,5.0054095e-06,5.005247e-06,396825,-0.038596474,-0.046909757,-0.041711815,0.5,1.8360785e-06,1.8890905e-06,0.00012688963,1,1,1
305641785,305640819,3932170,-0.00065782084,0.0010605376,-0.001997206,0.34906584,2.658931e-09,2.6682503e-09,3.2894436e-09,3932170,0.042298187,0.024665374,-0.23013884,0.4,6.3892153e-06,5.0054737e-06,5.005411e-06,396825,-0.038596474,-0.046909757,-0.041711815,0.5,1.8360785e-06,1.8890905e-06,0.00012688963,1,1,1
305751582,305750673,3932170,-0.0006586863,0.0010604193,-0.0021065704,0.34906584,2.6700246e-09,2.6793459e-09,3.2896579e-09,3932170,0.042279683,0.024669629,-0.23125492,0.4,6.389467e-06,5.0057297e-06,5.005568e-06,396825,-0.038596474,-0.046909757,-0.041711815,0.5,1.8360785e-06,1.8890905e-06,0.00012688963,1,1,1
305861463,305860517,3932170,-0.0006551618,0.0010594906,-0.0022128024,0.34906584,2.6631293e-09,2.673088e-09,3.2898286e-09,3932170,0.042279977,0.024770554,-0.23235664,0.4,6.374253e-06,5.005751e-06,5.005679e-06,396825,-0.038596474,-0.046909757,-0.041711815,0.5,1.8360785e-06,1.8890905e-06,0.00012688963,1,1,1
305961288,305960379,3932170,-0.0006560311,0.0010595331,-0.002318446,0.34906584,2.6732119e-09,2.6831724e-09,3.2890055e-09,3932170,0.042262174,0.024774829,-0.23345272,0.4,6.37447e-06,5.005978e-06,5.005816e-06,396825,-0.038596474,-0.046909757,-0.041711815,0.5,1.8360785e-06,1.8890905e-06,0.00012688963,1,1,1
306071134,306070229,3932170,-0.00065261044,0.0010588664,-0.0024202368,0.34906584,2.6665739e-09,2.677175e-09,3.2891447e-09,3932170,0.0422588,0.024872666,-0.23455115,0.4,6.3598736e-06,5.006002e-06,5.0059302e-06,396825,-0.038596474,-0.046909757,-0.041711815,0.5,1.8360785e-06,1.8890905e-06,0.00012688963,1,1,1
306185981,306185071,3932170,-0.00065344176,0.0010587433,-0.0025219051,0.34906584,2.6776368e-09,2.6882394e-09,3.2892657e-09,3932170,0.04223835,0.024876673,-0.23559345,0.4,6.360048e-06,5.006198e-06,5.006027e-06,396825,-0.038596474,-0.046909757,-0.041711815,0.5,1.8360785e-06,1.8890905e-06,0.00012688963,1,1,1
306395722,306394782,3932170,-0.00064806244,0.0010529456,-0.0027092693,0.34906584,2.6696747e-09,2.680868e-09,3.2740919e-09,3932170,0.042019974,0.024865506,-0.23660883,0.4,6.318526e-06,4.9845085e-06,4.984329e-06,396825,-0.038596474,-0.046909757,-0.041711815,0.5,1.8360785e-06,1.8890905e-06,0.00012688963,1,1,1
306495540,306494644,3932170,-0.00064505456,0.0010526116,-0.0028077192,0.34906584,2.6637408e-09,2.6755729e-09,3.2745262e-09,3932170,0.042027496,0.024966314,-0.23767532,0.4,6.30786e-06,4.9865553e-06,4.9864743e-06,396825,-0.038596474,-0.046909757,-0.041711815,0.5,1.8360785e-06,1.8890905e-06,0.00012688963,1,1,1
306605392,306604499,3932170,-0.0006461074,0.001052869,-0.002904977,0.34906584,2.6758546e-09,2.6876932e-09,3.2759329e-09,3932170,0.04202544,0.024980485,-0.23871766,0.4,6.3106127e-06,4.9887904e-06,4.9886107e-06,396825,-0.038596474,-0.046909757,-0.041711815,0.5,1.8360785e-06,1.8890905e-06,0.00012688963,1,1,1
306715220,306714399,3932170,-0.00064317515,0.0010525691,-0.003000486,0.34906584,2.6710056e-09,2.6834799e-09,3.277153e-09,3932170,0.042022623,0.02507689,-0.23979713,0.4,6.30023e-06,4.990576e-06,4.990486e-06,396825,-0.038596474,-0.046909757,-0.041711815,0.5,1.8360785e-06,1.8890905e-06,0.00012688963,1,1,1
306815205,306814205,3932170,-0.0006441841,0.0010526231,-0.0030953262,0.34906584,2.681838e-09,2.6943177e-09,3.2771732e-09,3932170,0.04200897,0.025088536,-0.24084662,0.4,6.3022776e-06,4.992255e-06,4.992075e-06,396825,-0.038596474,-0.046909757,-0.041711815,0.5,1.8360785e-06,1.8890905e-06,0.00012688963,1,1,1
306924985,306924054,3932170,-0.00064132345,0.0010523468,-0.0031914697,0.34906584,2.6770384e-09,2.690149e-09,3.2781464e-09,3932170,0.042000856,0.025180204,-0.24190356,0.4,6.292101e-06,4.993712e-06,4.993622e-06,396825,-0.038596474,-0.046909757,-0.041711815,0.5,1.8360785e-06,1.8890905e-06,0.00012688963,1,1,1
307034900,307033903,3932170,-0.0006385287,0.001052143,-0.003285955,0.34906584,2.6723677e-09,2.6861031e-09,3.2789977e-09,3932170,0.04199057,0.02526772,-0.2429276,0.4,6.2823387e-06,4.995005e-06,4.995005e-06,396825,-0.038596474,-0.046909757,-0.041711815,0.5,1.8360785e-06,1.8890905e-06,0.00012688963,1,1,1
307164675,307163724,3932170,-0.00063967623,0.00105211,-0.0033962307,0.34906584,2.6861233e-09,2.6998643e-09,3.2793719e-09,3932170,0.041970618,0.025279535,-0.24410906,0.4,6.2841873e-06,4.9965565e-06,4.996439e-06,396825,-0.038596474,-0.046909757,-0.041711815,0.5,1.8360785e-06,1.8890905e-06,0.00012688963,1,1,1
307284434,307283587,3932170,-0.0006370837,0.001051788,-0.0035029836,0.34906584,2.6825615e-09,2.6969198e-09,3.2790288e-09,3932170,0.04194775,0.025363663,-0.24527025,0.4,6.2748127e-06,4.9976725e-06,4.9976366e-06,396825,-0.038596474,-0.046909757,-0.041711815,0.5,1.8360785e-06,1.8890905e-06,0.00012688963,1,1,1
307414331,307413381,3932170,-0.00063814456,0.0010517023,-0.0036116056,0.34906584,2.6960143e-09,2.7103764e-09,3.2794538e-09,3932170,0.041926477,0.025372451,-0.24637227,0.4,6.275954e-06,4.998644e-06,4.998491e-06,396825,-0.038596474,-0.046909757,-0.041711815,0.5,1.8360785e-06,1.8890905e-06,0.00012688963,1,1,1
307544202,307543203,3932170,-0.0006356561,0.0010515942,-0.0037189843,0.34906584,2.693692e-09,2.7086633e-09,3.2796301e-09,3932170,0.041906796,0.025453681,-0.24750556,0.4,6.2672593e-06,4.9998425e-06,4.9997616e-06,396825,-0.038596474,-0.046909757,-0.041711815,0.5,1.8360785e-06,1.8890905e-06,0.00012688963,1,1,1
307673919,307673024,3932170,-0.0006332064,0.0010514365,-0.0038242594,0.34906584,2.6912894e-09,2.706859e-09,3.2799656e-09,3932170,0.041877873,0.025529372,-0.24863277,0.4,6.258547e-06,5.000538e-06,5.0005287e-06,396825,-0.038596474,-0.046909757,-0.041711815,0.5,1.8360785e-06,1.8890905e-06,0.00012688963,1,1,1
307803764,307802846,3932170,-0.0006342952,0.0010513939,-0.0039295037,0.34906584,2.7047613e-09,2.720335e-09,3.280367e-09,3932170,0.041852586,0.025538655,-0.24974494,0.4,6.259711e-06,5.0015287e-06,5.0014028e-06,396825,-0.038596474,-0.046909757,-0.041711815,0.5,1.8360785e-06,1.8890905e-06,0.00012688963,1,1,1
307923720,307922680,3932170,-0.00063190894,0.0010514014,-0.004035478,0.34906584,2.701329e-09,2.717489e-09,3.2788836e-09,3932170,0.041826393,0.02560939,-0.2508118,0.4,6.2510585e-06,5.0018284e-06,5.0017834e-06,396825,-0.038596474,-0.046909757,-0.041711815,0.5,1.8360785e-06,1.8890905e-06,0.00012688963,1,1,1
308053442,308052502,3932170,-0.00063304487,0.0010515552,-0.004140039,0.34906584,2.7147733e-09,2.7309373e-09,3.2792145e-09,3932170,0.041804686,0.025618883,-0.25191036,0.4,6.2521462e-06,5.0027597e-06,5.0025974e-06,396825,-0.038596474,-0.046909757,-0.041711815,0.5,1.8360785e-06,1.8890905e-06,0.00012688963,1,1,1
308183285,308182323,3932170,-0.00063077634,0.001051464,-0.004244913,0.34906584,2.7125429e-09,2.729282e-09,3.2787297e-09,3932170,0.041775215,0.025687328,-0.25296375,0.4,6.244161e-06,5.003145e-06,5.0030553e-06,396825,-0.038596474,-0.046909757,-0.041711815,0.5,1.8360785e-06,1.8890905e-06,0.00012688963,1,1,1
308313076,308312145,3932170,-0.0006286263,0.0010512904,-0.0043496583,0.34906584,2.7104963e-09,2.7277982e-09,3.278863e-09,3932170,0.041741636,0.025754225,-0.2540557,0.4,6.2368626e-06,5.0036188e-06,5.0036006e-06,396825,-0.038596474,-0.046909757,-0.041711815,0.5,1.8360785e-06,1.8890905e-06,0.00012688963,1,1,1
308442838,308442000,3932170,-0.0006298144,0.0010511843,-0.0044549196,0.34906584,2.7237186e-09,2.7410234e-09,3.2788996e-09,3932170,0.041711558,0.025762077,-0.25512812,0.4,6.237427e-06,5.0041303e-06,5.0039957e-06,396825,-0.038596474,-0.046909757,-0.041711815,0.5,1.8360785e-06,1.8890905e-06,0.00012688963,1,1,1
308562810,308561807,3932170,-0.00062775763,0.0010508975,-0.004560984,0.34906584,2.7206706e-09,2.7385256e-09,3.27726e-09,3932170,0.04168001,0.025825983,-0.25618428,0.4,6.2303607e-06,5.0043786e-06,5.004325e-06,396825,-0.038596474,-0.046909757,-0.041711815,0.5,1.8360785e-06,1.8890905e-06,0.00012688963,1,1,1
308692581,308691623,3932170,-0.000629055,0.0010505997,-0.00466839,0.34906584,2.7338505e-09,2.7517095e-09,3.2772176e-09,3932170,0.041641116,0.025834223,-0.2572977,0.4,6.2308213e-06,5.0048097e-06,5.0046397e-06,396825,-0.038596474,-0.046909757,-0.041711815,0.5,1.8360785e-06,1.8890905e-06,0.00012688963,1,1,1
308822472,308821449,3932170,-0.0006271165,0.0010498632,-0.004775575,0.34906584,2.7318767e-09,2.7502725e-09,3.2764949e-09,3932170,0.04159888,0.02589665,-0.25840172,0.4,6.224202e-06,5.005007e-06,5.004909e-06,396825,-0.038596474,-0.046909757,-0.041711815,0.5,1.8360785e-06,1.8890905e-06,0.00012688963,1,1,1
308952153,308951266,3932170,-0.000625265,0.0010492203,-0.004885289,0.34906584,2.7299825e-09,2.7489004e-09,3.2763883e-09,3932170,0.041566435,0.025957728,-0.25950766,0.4,6.2180675e-06,5.005178e-06,5.0051513e-06,396825,-0.038596474,-0.046909757,-0.041711815,0.5,1.8360785e-06,1.8890905e-06,0.00012688963,1,1,1
309081976,309081088,3932170,-0.0006267208,0.0010496821,-0.0049931607,0.34906584,2.7431117e-09,2.7620335e-09,3.2762624e-09,3932170,0.041544,0.025967479,-0.26061845,0.4,6.2184095e-06,5.0055114e-06,5.0053686e-06,396825,-0.038596474,-0.046909757,-0.041711815,0.5,1.8360785e-06,1.8890905e-06,0.00012688963,1,1,1
309201821,309200923,3932170,-0.0006250157,0.0010499847,-0.0051022093,0.34906584,2.7401086e-09,2.7595366e-09,3.2742555e-09,3932170,0.041535374,0.026028583,-0.26177454,0.4,6.2122963e-06,5.005332e-06,5.0052695e-06,396825,-0.038596474,-0.046909757,-0.041711815,0.5,1.8360785e-06,1.8890905e-06,0.00012688963,1,1,1
309331726,309330745,3932170,-0.00062655995,0.0010501842,-0.0052124844,0.34906584,2.753358e-09,2.7727913e-09,3.274269e-09,3932170,0.04150851,0.026039433,-0.2628878,0.4,6.21291e-06,5.005883e-06,5.0057047e-06,396825,-0.038596474,-0.046909757,-0.041711815,0.5,1.8360785e-06,1.8890905e-06,0.00012688963,1,1,1
309461447,309460566,3932170,-0.00062479195,0.0010486142,-0.0053228093,0.34906584,2.7515519e-09,2.7714766e-09,3.2740832e-09,3932170,0.041469555,0.026098192,-0.26397815,0.4,6.2075724e-06,5.0059516e-06,5.0058447e-06,396825,-0.038596474,-0.046909757,-0.041711815,0.5,1.8360785e-06,1.8890905e-06,0.00012688963,1,1,1
309591265,309590388,3932170,-0.0006230756,0.0010468321,-0.0054348134,0.34906584,2.7497853e-09,2.7701872e-09,3.2731886e-09,3932170,0.04142997,0.026156962,-0.2651137,0.4,6.202637e-06,5.006011e-06,5.0059757e-06,396825,-0.038596474,-0.046909757,-0.041711815,0.5,1.8360785e-06,1.8890905e-06,0.00012688963,1,1,1
309846031,309845038,3932170,-0.0006204516,0.0010406742,-0.0056405235,0.34906584,2.7480058e-09,2.7687819e-09,3.2566476e-09,3932170,0.041183032,0.026111284,-0.26626468,0.4,6.170942e-06,4.984173e-06,4.9840937e-06,396825,-0.038596474,-0.046909757,-0.041711815,0.5,1.8360785e-06,1.8890905e-06,0.00012688963,1,1,1
309955898,309954886,3932170,-0.00062233006,0.0010413998,-0.0057417937,0.34906584,2.7602811e-09,2.7810714e-09,3.2579088e-09,3932170,0.04117004,0.026134402,-0.26742664,0.4,6.1739415e-06,4.986645e-06,4.9864684e-06,396825,-0.038596474,-0.046909757,-0.041711815,0.5,1.8360785e-06,1.8890905e-06,0.00012688963,1,1,1
310055798,310054749,3932170,-0.0006208024,0.0010404292,-0.005843987,0.34906584,2.7566462e-09,2.777886e-09,3.2578948e-09,3932170,0.041177943,0.026202744,-0.26856396,0.4,6.172097e-06,4.9884975e-06,4.988419e-06,396825,-0.038596474,-0.046909757,-0.041711815,0.5,1.8360785e-06,1.8890905e-06,0.00012688963,1,1,1
310165560,310164599,3932170,-0.00062270777,0.001040878,-0.0059469906,0.34906584,2.7686842e-09,2.7899358e-09,3.2588532e-09,3932170,0.041156434,0.026223985,-0.2697082,0.4,6.1745377e-06,4.9905193e-06,4.9903438e-06,396825,-0.038596474,-0.046909757,-0.041711815,0.5,1.8360785e-06,1.8890905e-06,0.00012688963,1,1,1
310275444,310274447,3932170,-0.00062113523,0.0010392487,-0.006050518,0.34906584,2.7658986e-09,2.7875828e-09,3.2596723e-09,3932170,0.041157782,0.0262913,-0.27084908,0.4,6.172791e-06,4.992154e-06,4.992067e-06,396825,-0.038596474,-0.046909757,-0.041711815,0.5,1.8360785e-06,1.8890905e-06,0.00012688963,1,1,1
310375162,310374339,3932170,-0.0006231184,0.001039508,-0.0061569666,0.34906584,2.776652e-09,2.7983458e-09,3.2600507e-09,3932170,0.041124225,0.026311433,-0.27203286,0.4,6.1745764e-06,4.993633e-06,4.9934565e-06,396825,-0.038596474,-0.046909757,-0.041711815,0.5,1.8360785e-06,1.8890905e-06,0.00012688963,1,1,1
310485117,310484159,3932170,-0.00062149443,0.0010374906,-0.006266581,0.34906584,2.7735834e-09,2.795692e-09,3.2598224e-09,3932170,0.041128922,0.026376158,-0.27316403,0.4,6.172617e-06,4.9948235e-06,4.9947357e-06,396825,-0.038596474,-0.046909757,-0.041711815,0.5,1.8360785e-06,1.8890905e-06,0.00012688963,1,1,1
310574979,310574042,3932170,-0.00062320643,0.0010377747,-0.00635491,0.34906584,2.7832288e-09,2.8053457e-09,3.2610235e-09,3932170,0.04109908,0.026394296,-0.27417332,0.4,6.1741384e-06,4.9960863e-06,4.9959185e-06,396825,-0.038596474,-0.046909757,-0.041711815,0.5,1.8360785e-06,1.8890905e-06,0.00012688963,1,1,1
310674875,310673899,3932170,-0.00062159833,0.0010354207,-0.0064686937,0.34906584,2.7789822e-09,2.8014953e-09,3.2604186e-09,3932170,0.04109874,0.026459426,-0.27537796,0.4,6.1722353e-06,4.9970336e-06,4.996963e-06,396825,-0.038596474,-0.046909757,-0.041711815,0.5,1.8360785e-06,1.8890905e-06,0.00012688963,1,1,1
310784655,310783748,3932170,-0.0006237466,0.0010355841,-0.0065826243,0.34906584,2.7905462e-09,2.8130682e-09,3.2608038e-09,3932170,0.04105636,0.026479853,-0.27661914,0.4,6.1735705e-06,4.9981622e-06,4.997996e-06,396825,-0.038596474,-0.046909757,-0.041711815,0.5,1.8360785e-06,1.8890905e-06,0.00012688963,1,1,1
310874565,310873624,3932170,-0.00062167365,0.001032737,-0.006674943,0.34906584,2.785086e-09,2.807985e-09,3.26096e-09,3932170,0.041056663,0.026541434,-0.277623,0.4,6.171633e-06,4.998823e-06,4.9987616e-06,396825,-0.038596474,-0.046909757,-0.041711815,0.5,1.8360785e-06,1.8890905e-06,0.00012688963,1,1,1
310974488,310973520,3932170,-0.0006238309,0.0010327008,-0.006789941,0.34906584,2.7955123e-09,2.8184188e-09,3.26019e-09,3932170,0.04100716,0.026560912,-0.27885643,0.4,6.172643e-06,4.999688e-06,4.999539e-06,396825,-0.038596474,-0.046909757,-0.041711815,0.5,1.8360785e-06,1.8890905e-06,0.00012688963,1,1,1
311333857,311332992,3932170,-0.00062349497,0.0010260162,-0.007187335,0.34906584,2.802751e-09,2.8263656e-09,3.2599585e-09,3932170,0.040906265,0.02671814,-0.2831379,0.4,6.1706264e-06,5.0018602e-06,5.001765e-06,396825,-0.038596474,-0.046909757,-0.041711815,0.5,1.8360785e-06,1.8890905e-06,0.00012688963,1,1,1
314125007,314124204,3932170,-0.00057125004,0.0009607285,-0.0078342995,0.34906584,2.8875502e-09,2.913945e-09,3.4484076e-09,3932170,0.041588124,0.02715588,-0.28649178,0.4,6.1592937e-06,5.0031304e-06,5.0029757e-06,396825,-0.038596474,-0.046909757,-0.041711815,0.5,1.8360785e-06,1.8890905e-06,0.00012688963,1,1,1
314504525,314503636,3932170,-0.0005607167,0.00094858516,-0.007858938,0.34906584,2.899146e-09,2.9258085e-09,3.4816412e-09,3932170,0.04179942,0.027169429,-0.28544104,0.4,6.159723e-06,5.0043373e-06,5.004216e-06,396825,-0.038596474,-0.046909757,-0.041711815,0.5,1.8360785e-06,1.8890905e-06,0.00012688963,1,1,1
314824017,314823197,3932170,-0.0005504432,0.000936812,-0.007876606,0.34906584,2.9054914e-09,2.9324019e-09,3.5095589e-09,3932170,0.041999113,0.027175205,-0.28441423,0.4,6.159063e-06,5.0047365e-06,5.004702e-06,396825,-0.038596474,-0.046909757,-0.041711815,0.5,1.8360785e-06,1.8890905e-06,0.00012688963,1,1,1
315093900,315092827,3932170,-0.0005452211,0.0009309333,-0.007892393,0.34906584,2.9203957e-09,2.947429e-09,3.5336574e-09,3932170,0.04214888,0.027168408,-0.28334323,0.4,6.159268e-06,5.0054923e-06,5.0054045e-06,396825,-0.038596474,-0.046909757,-0.041711815,0.5,1.8360785e-06,1.8890905e-06,0.00012688963,1,1,1
315303503,315302541,3932170,-0.0005401266,0.0009252016,-0.00790398,0.34906584,2.9293206e-09,2.9564742e-09,3.5523224e-09,3932170,0.042287245,0.027160289,-0.282322,0.4,6.158777e-06,5.0057147e-06,5.005627e-06,396825,-0.038596474,-0.046909757,-0.041711815,0.5,1.8360785e-06,1.8890905e-06,0.00012688963,1,1,1
315523134,315522237,3932170,-0.0005351701,0.00091967836,-0.007912823,0.34906584,2.9395952e-09,2.9668692e-09,3.5722292e-09,3932170,0.04242448,0.027152276,-0.28131893,0.4,6.1582978e-06,5.0060194e-06,5.0059216e-06,396825,-0.038596474,-0.046909757,-0.041711815,0.5,1.8360785e-06,1.8890905e-06,0.00012688963,1,1,1
315732892,315731949,3932170,-0.0005302921,0.00091434334,-0.007919475,0.34906584,2.9491067e-09,2.976502e-09,3.5912395e-09,3932170,0.042566583,0.027142111,-0.2802268,0.4,6.15757e-06,5.006201e-06,5.0061035e-06,396825,-0.038596474,-0.046909757,-0.041711815,0.5,1.8360785e-06,1.8890905e-06,0.00012688963,1,1,1
315952466,315951653,3932170,-0.00052562624,0.0009091314,-0.007922854,0.34906584,2.9599045e-09,2.9874232e-09,3.6114074e-09,3932170,0.042716734,0.02713063,-0.27900118,0.4,6.156703e-06,5.0063622e-06,5.0062563e-06,396825,-0.038596474,-0.046909757,-0.041711815,0.5,1.8360785e-06,1.8890905e-06,0.00012688963,1,1,1
316162356,316161359,3932170,-0.00052125886,0.0009039698,-0.00792314,0.34906584,2.9699807e-09,2.997625e-09,3.630712e-09,3932170,0.04286595,0.027118511,-0.27775604,0.4,6.155659e-06,5.0064805e-06,5.006373e-06,396825,-0.038596474,-0.046909757,-0.041711815,0.5,1.8360785e-06,1.8890905e-06,0.00012688963,1,1,1
316326965,316326133,3932170,-0.00051715097,0.00089906505,-0.007922783,0.34906584,2.975324e-09,3.003097e-09,3.6455676e-09,3932170,0.04299945,0.02710592,-0.27676198,0.4,6.154405e-06,5.006512e-06,5.0064496e-06,396825,-0.038596474,-0.046909757,-0.041711815,0.5,1.8360785e-06,1.8890905e-06,0.00012688963,1,1,1
316426868,316425999,3932170,-0.0005142608,0.0008945244,-0.007881567,0.34906584,2.9705074e-09,2.9981424e-09,3.6366328e-09,3932170,0.04282636,0.026964677,-0.27472535,0.4,6.1238816e-06,4.9817327e-06,4.9815817e-06,396825,-0.038596474,-0.046909757,-0.041711815,0.5,1.8360785e-06,1.8890905e-06,0.00012688963,1,1,1
316646656,316645696,3932170,-0.00051052315,0.000890444,-0.007881495,0.34906584,2.985085e-09,3.0128802e-09,3.6606413e-09,3932170,0.04302047,0.0269709,-0.27363652,0.4,6.128585e-06,4.9867476e-06,4.986579e-06,396825,-0.038596474,-0.046909757,-0.041711815,0.5,1.8360785e-06,1.8890905e-06,0.00012688963,1,1,1
316856297,316855406,3932170,-0.0005069938,0.0008862991,-0.007879445,0.34906584,2.998281e-09,3.0262353e-09,3.683112e-09,3932170,0.043203443,0.026968986,-0.27249953,0.4,6.1317082e-06,4.990597e-06,4.990428e-06,396825,-0.038596474,-0.046909757,-0.041711815,0.5,1.8360785e-06,1.8890905e-06,0.00012688963,1,1,1
317076102,317075104,3932170,-0.0005034857,0.0008818992,-0.007869446,0.34906584,3.0124114e-09,3.0405276e-09,3.706044e-09,3932170,0.043385636,0.02695933,-0.2711989,0.4,6.13394e-06,4.9938603e-06,4.993682e-06,396825,-0.038596474,-0.046909757,-0.041711815,0.5,1.8360785e-06,1.8890905e-06,0.00012688963,1,1,1
317300704,317299797,3932170,-0.0004975595,0.0008730418,-0.007855029,0.34906584,3.0169003e-09,3.0453369e-09,3.728256e-09,3932170,0.04362963,0.026921881,-0.26997662,0.4,6.132311e-06,4.995773e-06,4.9957644e-06,396825,-0.038596474,-0.046909757,-0.041711815,0.5,1.8360785e-06,1.8890905e-06,0.00012688963,1,1,1
317310666,317309785,3932170,-0.0004950637,0.00086882856,-0.007814516,0.34906584,3.0032963e-09,3.031595e-09,3.711098e-09,3932170,0.04341916,0.026791036,-0.2686652,0.4,6.1026467e-06,4.971608e-06,4.9715995e-06,396825,-0.038596474,-0.046909757,-0.041711815,0.5,1.8360785e-06,1.8890905e-06,0.00012688963,1,1,1
317500694,317499523,3932170,-0.00049261475,0.00086541934,-0.007805459,0.34906584,3.0169662e-09,3.0454654e-09,3.733374e-09,3932170,0.04362467,0.026789019,-0.2676026,0.4,6.107807e-06,4.9776863e-06,4.9776863e-06,396825,-0.038596474,-0.046909757,-0.041711815,0.5,1.8360785e-06,1.8890905e-06,0.00012688963,1,1,1
317720058,317719220,3932170,-0.00049027614,0.0008616537,-0.007789587,0.34906584,3.033709e-09,3.0624168e-09,3.758301e-09,3932170,0.043818597,0.026781794,-0.26659462,0.4,6.11239e-06,4.9834644e-06,4.9834553e-06,396825,-0.038596474,-0.046909757,-0.041711815,0.5,1.8360785e-06,1.8890905e-06,0.00012688963,1,1,1
317929844,317928932,3932170,-0.00048807074,0.0008571619,-0.007768792,0.34906584,3.0489304e-09,3.0778482e-09,3.7812202e-09,3932170,0.043990713,0.026764741,-0.2655437,0.4,6.115134e-06,4.987911e-06,4.987902e-06,396825,-0.038596474,-0.046909757,-0.041711815,0.5,1.8360785e-06,1.8890905e-06,0.00012688963,1,1,1
318149445,318148630,3932170,-0.0004859591,0.0008522562,-0.0077430103,0.34906584,3.0649863e-09,3.0941183e-09,3.8045527e-09,3932170,0.04415045,0.0267414,-0.2644403,0.4,6.1168107e-06,4.9916575e-06,4.9916393e-06,396825,-0.038596474,-0.046909757,-0.041711815,0.5,1.8360785e-06,1.8890905e-06,0.00012688963,1,1,1
318359204,318358342,3932170,-0.00048386763,0.00084736396,-0.0077126278,0.34906584,3.079794e-09,3.109148e-09,3.8261763e-09,3932170,0.044300232,0.026712408,-0.2633235,0.4,6.117249e-06,4.994563e-06,4.994545e-06,396825,-0.038596474,-0.046909757,-0.041711815,0.5,1.8360785e-06,1.8890905e-06,0.00012688963,1,1,1
318578880,318578041,3932170,-0.0004817785,0.0008425174,-0.0076771025,0.34906584,3.0955667e-09,3.1251546e-09,3.8483385e-09,3932170,0.044444945,0.026680375,-0.26216108,0.4,6.1169235e-06,4.997014e-06,4.996987e-06,396825,-0.038596474,-0.046909757,-0.041711815,0.5,1.8360785e-06,1.8890905e-06,0.00012688963,1,1,1
318788594,318787753,3932170,-0.00047962286,0.0008380313,-0.0076372144,0.34906584,3.1102336e-09,3.1400662e-09,3.868944e-09,3932170,0.044584475,0.02664567,-0.26104,0.4,6.115699e-06,4.9988953e-06,4.9988685e-06,396825,-0.038596474,-0.046909757,-0.041711815,0.5,1.8360785e-06,1.8890905e-06,0.00012688963,1,1,1
318998406,318997464,3932170,-0.0004773943,0.00083401776,-0.0075941226,0.34906584,3.1249132e-09,3.1550027e-09,3.8891304e-09,3932170,0.044722114,0.026609777,-0.25997508,0.4,6.113843e-06,5.0004205e-06,5.0003937e-06,396825,-0.038596474,-0.046909757,-0.041711815,0.5,1.8360785e-06,1.8890905e-06,0.00012688963,1,1,1
319218050,319217163,3932170,-0.00047507606,0.0008306817,-0.0075486335,0.34906584,3.14067e-09,3.171028e-09,3.9099675e-09,3932170,0.044864427,0.026573451,-0.258919,0.4,6.111512e-06,5.0017147e-06,5.0016783e-06,396825,-0.038596474,-0.046909757,-0.041711815,0.5,1.8360785e-06,1.8890905e-06,0.00012688963,1,1,1
319427723,319426877,3932170,-0.0004727223,0.0008274326,-0.0075013684,0.34906584,3.155452e-09,3.1860903e-09,3.929393e-09,3932170,0.045001242,0.026536152,-0.2579223,0.4,6.108612e-06,5.002689e-06,5.0026524e-06,396825,-0.038596474,-0.046909757,-0.041711815,0.5,1.8360785e-06,1.8890905e-06,0.00012688963,1,1,1
319677377,319676533,3932170,-0.0004702109,0.0008234136,-0.007444216,0.34906584,3.1744194e-09,3.2053515e-09,3.952124e-09,3932170,0.045124017,0.026498068,-0.25692537,0.4,6.1055284e-06,5.0036556e-06,5.003607e-06,396825,-0.038596474,-0.046909757,-0.041711815,0.5,1.8360785e-06,1.8890905e-06,0.00012688963,1,1,1
319917022,319916203,3932170,-0.00046775897,0.00082013034,-0.0073884255,0.34906584,3.1924519e-09,3.2236898e-09,3.9736117e-09,3932170,0.045258544,0.02646186,-0.25579095,0.4,6.102015e-06,5.0043986e-06,5.0042995e-06,396825,-0.038596474,-0.046909757,-0.041711815,0.5,1.8360785e-06,1.8890905e-06,0.00012688963,1,1,1
320186735,320185833,3932170,-0.00046500447,0.0008172706,-0.007323599,0.34906584,3.213597e-09,3.2451548e-09,3.997201e-09,3932170,0.04539826,0.026425121,-0.25462607,0.4,6.098242e-06,5.0050467e-06,5.004893e-06,396825,-0.038596474,-0.046909757,-0.041711815,0.5,1.8360785e-06,1.8890905e-06,0.00012688963,1,1,1
320446383,320445477,3932170,-0.00046169455,0.00081170205,-0.007263588,0.34906584,3.227915e-09,3.2601426e-09,4.01964e-09,3932170,0.045622487,0.02636098,-0.25360474,0.4,6.089245e-06,5.0053695e-06,5.005361e-06,396825,-0.038596474,-0.046909757,-0.041711815,0.5,1.8360785e-06,1.8890905e-06,0.00012688963,1,1,1
320765983,320765037,3932170,-0.0004588796,0.00080878893,-0.0071912063,0.34906584,3.2544374e-09,3.2870249e-09,4.0466723e-09,3932170,0.045754537,0.026326552,-0.2524644,0.4,6.085001e-06,5.0058848e-06,5.005778e-06,396825,-0.038596474,-0.046909757,-0.041711815,0.5,1.8360785e-06,1.8890905e-06,0.00012688963,1,1,1
321095433,321094586,3932170,-0.0004557284,0.00080328045,-0.007122861,0.34906584,3.2764953e-09,3.3098306e-09,4.0741255e-09,3932170,0.04596951,0.026268052,-0.2514225,0.4,6.0754296e-06,5.0060926e-06,5.0060657e-06,396825,-0.038596474,-0.046909757,-0.041711815,0.5,1.8360785e-06,1.8890905e-06,0.00012688963,1,1,1
321415012,321414146,3932170,-0.0004532745,0.0008009596,-0.0070565636,0.34906584,3.3032632e-09,3.336998e-09,4.1000674e-09,3932170,0.04610003,0.026238475,-0.25039628,0.4,6.070842e-06,5.0064186e-06,5.0062936e-06,396825,-0.038596474,-0.046909757,-0.041711815,0.5,1.8360785e-06,1.8890905e-06,0.00012688963,1,1,1
321784732,321783640,3932170,-0.00045029764,0.0007958007,-0.0069804806,0.34906584,3.329873e-09,3.3644265e-09,4.1291353e-09,3932170,0.04630723,0.026185466,-0.24936786,0.4,6.061155e-06,5.0065637e-06,5.006483e-06,396825,-0.038596474,-0.046909757,-0.041711815,0.5,1.8360785e-06,1.8890905e-06,0.00012688963,1,1,1
322214040,322213049,3932170,-0.00044784558,0.000790521,-0.0069073653,0.34906584,3.362697e-09,3.3981051e-09,4.162403e-09,3932170,0.046496984,0.026139075,-0.24836281,0.4,6.051624e-06,5.006681e-06,5.006592e-06,396825,-0.038596474,-0.046909757,-0.041711815,0.5,1.8360785e-06,1.8890905e-06,0.00012688963,1,1,1
322693210,322692391,3932170,-0.00044629857,0.00078566535,-0.006848498,0.34906584,3.4006966e-09,3.4369876e-09,4.1987076e-09,3932170,0.046676863,0.026104514,-0.2473367,0.4,6.042533e-06,5.006868e-06,5.006725e-06,396825,-0.038596474,-0.046909757,-0.041711815,0.5,1.8360785e-06,1.8890905e-06,0.00012688963,1,1,1
323342513,323341499,3932170,-0.00044591373,0.0007791337,-0.0068087643,0.34906584,3.4506298e-09,3.488271e-09,4.2455124e-09,3932170,0.04690034,0.026072053,-0.24627393,0.4,6.0296056e-06,5.006916e-06,5.0067556e-06,396825,-0.038596474,-0.046909757,-0.041711815,0.5,1.8360785e-06,1.8890905e-06,0.00012688963,1,1,1
323866595,323865780,3932170,-0.00044493086,0.0007697661,-0.0067755817,0.34906584,3.4700276e-09,3.5088248e-09,4.260845e-09,3932170,0.04684384,0.025932478,-0.24425295,0.4,5.9881554e-06,4.9819905e-06,4.981952e-06,396825,-0.038596474,-0.046909757,-0.041711815,0.5,1.8360785e-06,1.8890905e-06,0.00012688963,1,1,1
324945289,324944303,3932170,-0.00044979973,0.0007651919,-0.00681045,0.34906584,3.5624639e-09,3.6035928e-09,4.3457065e-09,3932170,0.0472145,0.026041286,-0.24327615,0.4,5.9926642e-06,4.9984938e-06,4.998396e-06,396825,-0.038596474,-0.046909757,-0.041711815,0.5,1.8360785e-06,1.8890905e-06,0.00012688963,1,1,1
325754207,325753189,3932170,-0.00045093987,0.000762277,-0.0067770462,0.34906584,3.6230063e-09,3.6658148e-09,4.3996136e-09,3932170,0.047362916,0.026080748,-0.24226339,0.4,5.9895606e-06,5.0032013e-06,5.0031304e-06,396825,-0.038596474,-0.046909757,-0.041711815,0.5,1.8360785e-06,1.8890905e-06,0.00012688963,1,1,1
326503115,326502161,3932170,-0.00044894623,0.0007615042,-0.0066841454,0.34906584,3.6798076e-09,3.7237722e-09,4.4447535e-09,3932170,0.047443755,0.026097156,-0.24121359,0.4,5.9873687e-06,5.005282e-06,5.005104e-06,396825,-0.038596474,-0.046909757,-0.041711815,0.5,1.8360785e-06,1.8890905e-06,0.00012688963,1,1,1
327037428,327036427,3932170,-0.00044357654,0.00075756374,-0.0065495092,0.34906584,3.6934529e-09,3.7382235e-09,4.451803e-09,3932170,0.047250565,0.02597394,-0.23914243,0.4,5.955159e-06,4.981034e-06,4.9809364e-06,396825,-0.038596474,-0.046909757,-0.041711815,0.5,1.8360785e-06,1.8890905e-06,0.00012688963,1,1,1
328155722,328154891,3932170,-0.0004357487,0.00075908174,-0.006308059,0.34906584,3.7777994e-09,3.8241454e-09,4.523816e-09,3932170,0.047396835,0.026062626,-0.23811953,0.4,5.9733047e-06,4.998576e-06,4.9984155e-06,396825,-0.038596474,-0.046909757,-0.041711815,0.5,1.8360785e-06,1.8890905e-06,0.00012688963,1,1,1
328914699,328913853,3932170,-0.00042673966,0.00076067785,-0.0061186305,0.34906584,3.8193027e-09,3.866548e-09,4.5612327e-09,3932170,0.047422115,0.026081214,-0.23711312,0.4,5.978029e-06,5.003024e-06,5.002935e-06,396825,-0.038596474,-0.046909757,-0.041711815,0.5,1.8360785e-06,1.8890905e-06,0.00012688963,1,1,1
329603706,329602903,3932170,-0.00041866975,0.0007652662,-0.0059480336,0.34906584,3.8576546e-09,3.9053667e-09,4.5909787e-09,3932170,0.047508195,0.026111504,-0.23610838,0.4,5.98055e-06,5.0052363e-06,5.0049043e-06,396825,-0.038596474,-0.046909757,-0.041711815,0.5,1.8360785e-06,1.8890905e-06,0.00012688963,1,1,1
330253036,330252012,3932170,-0.00040839275,0.00076957693,-0.005760236,0.34906584,3.8876413e-09,3.935645e-09,4.614227e-09,3932170,0.047563214,0.026101787,-0.2350675,0.4,5.982026e-06,5.006588e-06,5.00585e-06,396825,-0.038596474,-0.046909757,-0.041711815,0.5,1.8360785e-06,1.8890905e-06,0.00012688963,1,1,1
330892087,330891134,3932170,-0.00039276987,0.00077424105,-0.0054472215,0.34906584,3.9122474e-09,3.960341e-09,4.634588e-09,3932170,0.04760863,0.026043162,-0.23402368,0.4,5.982929e-06,5.007512e-06,5.006332e-06,396825,-0.038596474,-0.046909757,-0.041711815,0.5,1.8360785e-06,1.8890905e-06,0.00012688963,1,1,1
331336511,331335565,3932170,-0.00037478193,0.0007793474,-0.0051159677,0.34906584,3.892848e-09,3.940553e-09,4.62306e-09,3932170,0.04748507,0.025835335,-0.23209947,0.4,5.9533363e-06,4.98297e-06,4.9816367e-06,396825,-0.038596474,-0.046909757,-0.041711815,0.5,1.8360785e-06,1.8890905e-06,0.00012688963,1,1,1
332235193,332234289,3932170,-0.00034023996,0.0007945794,-0.004376995,0.34906584,3.928636e-09,3.9759507e-09,4.6576325e-09,3932170,0.047813892,0.025721148,-0.2311311,0.4,5.97078e-06,4.998107e-06,4.996615e-06,396825,-0.038596474,-0.046909757,-0.041711815,0.5,1.8360785e-06,1.8890905e-06,0.00012688963,1,1,1
332984284,332983266,3932170,-0.00031680427,0.00080655864,-0.0039009461,0.34906584,3.9523993e-09,3.9990766e-09,4.6755524e-09,3932170,0.047991835,0.025621628,-0.23011672,0.4,5.976278e-06,5.0033022e-06,5.0020476e-06,396825,-0.038596474,-0.046909757,-0.041711815,0.5,1.8360785e-06,1.8890905e-06,0.00012688963,1,1,1
333783091,333782164,3932170,-0.0003001388,0.00082689227,-0.003652324,0.34906584,3.9519024e-09,3.997279e-09,4.6879065e-09,3932170,0.048206706,0.02554401,-0.22911479,0.4,5.9767726e-06,5.004849e-06,5.0047147e-06,396825,-0.038596474,-0.046909757,-0.041711815,0.5,1.8360785e-06,1.8890905e-06,0.00012688963,1,1,1
334591934,334591053,3932170,-0.00028705914,0.0008505072,-0.0035038132,0.34906584,3.94113e-09,3.9847547e-09,4.6933484e-09,3932170,0.048452366,0.025475577,-0.22807881,0.4,5.9739673e-06,5.0060307e-06,5.0059225e-06,396825,-0.038596474,-0.046909757,-0.041711815,0.5,1.8360785e-06,1.8890905e-06,0.00012688963,1,1,1
335345899,335345017,3932170,-0.00027376972,0.00087326724,-0.0033435689,0.34906584,3.913869e-09,3.955281e-09,4.69403e-09,3932170,0.048665784,0.02539801,-0.22709142,0.4,5.9685867e-06,5.0064405e-06,5.0064045e-06,396825,-0.038596474,-0.046909757,-0.041711815,0.5,1.8360785e-06,1.8890905e-06,0.00012688963,1,1,1
335415807,335414924,3932170,-0.000271615,0.0008689686,-0.0033077348,0.34906584,3.901403e-09,3.9426187e-09,4.668994e-09,3932170,0.0484274,0.025268644,-0.22588843,0.4,5.939025e-06,4.9816563e-06,4.9815744e-06,396825,-0.038596474,-0.046909757,-0.041711815,0.5,1.8360785e-06,1.8890905e-06,0.00012688963,1,1,1
336514222,336513411,3932170,-0.00025045522,0.00090534927,-0.0030331858,0.34906584,3.8830623e-09,3.9211376e-09,4.67869e-09,3932170,0.048945796,0.02521484,-0.22502403,0.4,5.949504e-06,4.9986097e-06,4.998466e-06,396825,-0.038596474,-0.046909757,-0.041711815,0.5,1.8360785e-06,1.8890905e-06,0.00012688963,1,1,1
337323165,337322300,3932170,-0.000230562,0.00093598326,-0.0028096621,0.34906584,3.8440198e-09,3.8791366e-09,4.6725113e-09,3932170,0.04930819,0.02509572,-0.22404416,0.4,5.9453796e-06,5.003256e-06,5.0031413e-06,396825,-0.038596474,-0.046909757,-0.041711815,0.5,1.8360785e-06,1.8890905e-06,0.00012688963,1,1,1
338072220,338071271,3932170,-0.00021156976,0.00096838136,-0.0026421954,0.34906584,3.788909e-09,3.8208143e-09,4.6586623e-09,3932170,0.049663864,0.024956215,-0.2230466,0.4,5.9362787e-06,5.004906e-06,5.004871e-06,396825,-0.038596474,-0.046909757,-0.041711815,0.5,1.8360785e-06,1.8890905e-06,0.00012688963,1,1,1
338826223,338825235,3932170,-0.00019583535,0.0009941093,-0.0025037555,0.34906584,3.761561e-09,3.790974e-09,4.64363e-09,3932170,0.04994884,0.02483792,-0.22204572,0.4,5.928626e-06,5.0061954e-06,5.006054e-06,396825,-0.038596474,-0.046909757,-0.041711815,0.5,1.8360785e-06,1.8890905e-06,0.00012688963,1,1,1
338926161,338925098,3932170,-0.00019129307,0.0009967226,-0.0024758463,0.34906584,3.7181545e-09,3.7465706e-09,4.6172954e-09,3932170,0.049775273,0.024682155,-0.22081254,0.4,5.8959886e-06,4.981285e-06,4.9812325e-06,396825,-0.038596474,-0.046909757,-0.041711815,0.5,1.8360785e-06,1.8890905e-06,0.00012688963,1,1,1
340124476,340123505,3932170,-0.00016798315,0.0010507065,-0.0023539923,0.34906584,3.635868e-09,3.6593117e-09,4.6013584e-09,3932170,0.05048292,0.024554519,-0.22011675,0.4,5.897131e-06,4.9991736e-06,4.9991836e-06,396825,-0.038596474,-0.046909757,-0.041711815,0.5,1.8360785e-06,1.8890905e-06,0.00012688963,1,1,1
341013112,341012271,3932170,-0.00015386655,0.0010845856,-0.0022532952,0.34906584,3.5804266e-09,3.600616e-09,4.578552e-09,3932170,0.05088522,0.024445547,-0.21917754,0.4,5.888575e-06,5.0037725e-06,5.0037283e-06,396825,-0.038596474,-0.046909757,-0.041711815,0.5,1.8360785e-06,1.8890905e-06,0.00012688963,1,1,1
341872004,341871048,3932170,-0.00014219419,0.0011102703,-0.0021224727,0.34906584,3.5185734e-09,3.5357302e-09,4.5468838e-09,3932170,0.051183756,0.024352344,-0.21821497,0.4,5.8765368e-06,5.005505e-06,5.005443e-06,396825,-0.038596474,-0.046909757,-0.041711815,0.5,1.8360785e-06,1.8890905e-06,0.00012688963,1,1,1
342486174,342485207,3932170,-0.00013856294,0.0011194405,-0.0020927382,0.34906584,3.451682e-09,3.4666432e-09,4.4999386e-09,3932170,0.051100284,0.024200236,-0.21647108,0.4,5.837836e-06,4.981313e-06,4.981277e-06,396825,-0.038596474,-0.046909757,-0.041711815,0.5,1.8360785e-06,1.8890905e-06,0.00012688963,1,1,1
344123811,344122952,3932170,-0.00014847907,0.0011482439,-0.0022712334,0.34906584,3.3399026e-09,3.3500098e-09,4.4512833e-09,3932170,0.051611356,0.024328843,-0.21557133,0.4,5.836133e-06,5.001952e-06,5.001935e-06,396825,-0.038596474,-0.046909757,-0.041711815,0.5,1.8360785e-06,1.8890905e-06,0.00012688963,1,1,1
345192343,345191484,3932170,-0.00015924657,0.0011535959,-0.002384802,0.34906584,3.2737022e-09,3.2813123e-09,4.4051625e-09,3932170,0.051763784,0.024405684,-0.21457814,0.4,5.8253586e-06,5.005231e-06,5.0051954e-06,396825,-0.038596474,-0.046909757,-0.041711815,0.5,1.8360785e-06,1.8890905e-06,0.00012688963,1,1,1
346161134,346160150,3932170,-0.00016334774,0.0011522119,-0.0023262375,0.34906584,3.2354857e-09,3.2414298e-09,4.3575406e-09,3932170,0.05186008,0.024450092,-0.2135789,0.4,5.8160954e-06,5.006393e-06,5.006243e-06,396825,-0.038596474,-0.046909757,-0.041711815,0.5,1.8360785e-06,1.8890905e-06,0.00012688963,1,1,1
346335794,346334909,3932170,-0.00016308988,0.0011457062,-0.0022832158,0.34906584,3.2032756e-09,3.208789e-09,4.3274992e-09,3932170,0.05161868,0.024337962,-0.21233232,0.4,5.7847765e-06,4.981558e-06,4.9814525e-06,396825,-0.038596474,-0.046909757,-0.041711815,0.5,1.8360785e-06,1.8890905e-06,0.00012688963,1,1,1
348033551,348032596,3932170,-0.00018201776,0.0011365231,-0.0021963604,0.34906584,3.131686e-09,3.1346457e-09,4.259036e-09,3932170,0.05196195,0.024606679,-0.21142328,0.4,5.791498e-06,5.0024073e-06,5.002263e-06,396825,-0.038596474,-0.046909757,-0.041711815,0.5,1.8360785e-06,1.8890905e-06,0.00012688963,1,1,1
349376587,349375726,3932170,-0.00020938493,0.0011192642,-0.0024375624,0.34906584,3.0582468e-09,3.0594902e-09,4.1955004e-09,3932170,0.052074745,0.024820445,-0.21044013,0.4,5.7832453e-06,5.0057215e-06,5.005694e-06,396825,-0.038596474,-0.046909757,-0.041711815,0.5,1.8360785e-06,1.8890905e-06,0.00012688963,1,1,1
349486477,349485574,3932170,-0.00021001986,0.0011134659,-0.0024581794,0.34906584,3.0540228e-09,3.0553058e-09,4.1663846e-09,3932170,0.051830925,0.024708176,-0.20932181,0.4,5.7547168e-06,4.9810446e-06,4.980919e-06,396825,-0.038596474,-0.046909757,-0.041711815,0.5,1.8360785e-06,1.8890905e-06,0.00012688963,1,1,1
