timestamp,timestamp_sample,gyro_device_id,gyro_bias[0],gyro_bias[1],gyro_bias[2],gyro_bias_limit,gyro_bias_variance[0],gyro_bias_variance[1],gyro_bias_variance[2],accel_device_id,accel_bias[0],accel_bias[1],accel_bias[2],accel_bias_limit,accel_bias_variance[0],accel_bias_variance[1],accel_bias_variance[2],mag_device_id,mag_bias[0],mag_bias[1],mag_bias[2],mag_bias_limit,mag_bias_variance[0],mag_bias_variance[1],mag_bias_variance[2],gyro_bias_valid,accel_bias_valid,mag_bias_valid
293527104,293526749,4325386,-0.001308431,0.0010460671,0.0071605304,0.34906584,2.0619453e-09,2.0620021e-09,3.2845298e-09,4259850,0.015080963,-0.037887543,-0.0450833,0.4,6.939086e-06,5.0119174e-06,5.011891e-06,396825,-0.039137006,-0.0471046,-0.053153116,0.5,1.8837281e-06,1.9077627e-06,0.00012455923,1,1,1
294032806,294031582,4325386,-0.0013024312,0.00104681,0.007006537,0.34906584,2.044476e-09,2.0445305e-09,3.2748415e-09,4259850,0.015031985,-0.037764497,-0.046108816,0.4,6.91655e-06,4.9956407e-06,4.995623e-06,396825,-0.039137006,-0.0471046,-0.053153116,0.5,1.8837281e-06,1.9077627e-06,0.00012455923,1,1,1
294802831,294802459,4325386,-0.0013034219,0.0010586778,0.006807199,0.34906584,2.0560451e-09,2.0561044e-09,3.2713434e-09,4259850,0.015012845,-0.03771642,-0.047124784,0.4,6.9078696e-06,4.989406e-06,4.9892533e-06,396825,-0.039137006,-0.0471046,-0.053153116,0.5,1.8837281e-06,1.9077627e-06,0.00012455923,1,1,1
295316787,295316213,4325386,-0.0013117287,0.0010667496,0.006763952,0.34906584,2.1224384e-09,2.1225022e-09,3.2961798e-09,4259850,0.015117795,-0.037981056,-0.04813947,0.4,6.956784e-06,5.024867e-06,5.0242434e-06,396825,-0.039137006,-0.0471046,-0.053153116,0.5,1.8837281e-06,1.9077627e-06,0.00012455923,1,1,1
297052150,297051673,4325386,-0.0013145353,0.0010729929,0.00659997,0.34906584,2.2993958e-09,2.2994655e-09,3.3065108e-09,4259850,0.015114051,-0.03809283,-0.049138602,0.4,6.975126e-06,5.0387166e-06,5.0369304e-06,396825,-0.039137006,-0.0471046,-0.053153116,0.5,1.8837281e-06,1.9077627e-06,0.00012455923,1,1,1
297923286,297921725,4325386,-0.001304417,0.001069944,0.006336877,0.34906584,2.3616427e-09,2.3617088e-09,3.28011e-09,4259850,0.014891331,-0.037823837,-0.05013426,0.4,6.915495e-06,4.9964174e-06,4.995334e-06,396825,-0.039137006,-0.0471046,-0.053153116,0.5,1.8837281e-06,1.9077627e-06,0.00012455923,1,1,1
298224192,298223517,4325386,-0.0013106322,0.00107806,0.0062527596,0.34906584,2.394739e-09,2.3948017e-09,3.2913363e-09,4259850,0.014845957,-0.037990566,-0.051175375,0.4,6.935317e-06,5.0117037e-06,5.011641e-06,396825,-0.039137006,-0.0471046,-0.053153116,0.5,1.8837281e-06,1.9077627e-06,0.00012455923,1,1,1
298372933,298372363,4325386,-0.0013178642,0.0010862504,0.006205786,0.34906584,2.4182558e-09,2.4183193e-09,3.3073315e-09,4259850,0.014852876,-0.03820012,-0.05218287,0.4,6.9662797e-06,5.0354583e-06,5.035449e-06,396825,-0.039137006,-0.0471046,-0.053153116,0.5,1.8837281e-06,1.9077627e-06,0.00012455923,1,1,1
298584877,298584114,4325386,-0.0013100947,0.0010831382,0.0060338182,0.34906584,2.4200213e-09,2.4200844e-09,3.2856422e-09,4259850,0.014678218,-0.03798619,-0.053156253,0.4,6.9182793e-06,5.0024987e-06,5.0024896e-06,396825,-0.039137006,-0.0471046,-0.053153116,0.5,1.8837281e-06,1.9077627e-06,0.00012455923,1,1,1
298733657,298733096,4325386,-0.0013104994,0.0010850037,0.005935111,0.34906584,2.437072e-09,2.4371323e-09,3.2886465e-09,4259850,0.014690158,-0.03802003,-0.054209527,0.4,6.9242233e-06,5.006834e-06,5.0066915e-06,396825,-0.039137006,-0.0471046,-0.053153116,0.5,1.8837281e-06,1.9077627e-06,0.00012455923,1,1,1
298886838,298886115,4325386,-0.0013069948,0.0010855844,0.00580127,0.34906584,2.439889e-09,2.4399507e-09,3.2777512e-09,4259850,0.014549228,-0.03793318,-0.055230282,0.4,6.897785e-06,4.9898217e-06,4.989724e-06,396825,-0.039137006,-0.0471046,-0.053153116,0.5,1.8837281e-06,1.9077627e-06,0.00012455923,1,1,1
298999326,298998976,4325386,-0.00131141,0.0010925505,0.005727489,0.34906584,2.4517697e-09,2.451836e-09,3.2854148e-09,4259850,0.014471296,-0.038066477,-0.056224182,0.4,6.9092566e-06,5.000661e-06,5.0006615e-06,396825,-0.039137006,-0.0471046,-0.053153116,0.5,1.8837281e-06,1.9077627e-06,0.00012455923,1,1,1
299161819,299161265,4325386,-0.0013014022,0.0010861232,0.0055456604,0.34906584,2.4513662e-09,2.4514297e-09,3.2627776e-09,4259850,0.0143765565,-0.037814893,-0.05738607,0.4,6.8634727e-06,4.9675623e-06,4.9674136e-06,396825,-0.039137006,-0.0471046,-0.053153116,0.5,1.8837281e-06,1.9077627e-06,0.00012455923,1,1,1
299256374,299255726,4325386,-0.0013100079,0.0010961452,0.005499121,0.34906584,2.467676e-09,2.4677476e-09,3.2797678e-09,4259850,0.014320966,-0.03806379,-0.058415066,0.4,6.893766e-06,4.992504e-06,4.9924506e-06,396825,-0.039137006,-0.0471046,-0.053153116,0.5,1.8837281e-06,1.9077627e-06,0.00012455923,1,1,1
299382543,299381938,4325386,-0.0013041722,0.0010920826,0.0053464742,0.34906584,2.47265e-09,2.4727194e-09,3.267244e-09,4259850,0.014269919,-0.03792713,-0.059622638,0.4,6.86888e-06,4.9745145e-06,4.974339e-06,396825,-0.039137006,-0.0471046,-0.053153116,0.5,1.8837281e-06,1.9077627e-06,0.00012455923,1,1,1
299463668,299463069,4325386,-0.0013170601,0.0011055982,0.0053305468,0.34906584,2.4943616e-09,2.4944424e-09,3.2945322e-09,4259850,0.01423291,-0.038292717,-0.060702294,0.4,6.9177477e-06,5.0135e-06,5.0134468e-06,396825,-0.039137006,-0.0471046,-0.053153116,0.5,1.8837281e-06,1.9077627e-06,0.00012455923,1,1,1
299545879,299544203,4325386,-0.0013205534,0.0011089592,0.0052702357,0.34906584,2.510105e-09,2.5101854e-09,3.3043404e-09,4259850,0.014277777,-0.038411528,-0.061729517,0.4,6.939169e-06,5.029044e-06,5.0289195e-06,396825,-0.039137006,-0.0471046,-0.053153116,0.5,1.8837281e-06,1.9077627e-06,0.00012455923,1,1,1
299680082,299679427,4325386,-0.0013211885,0.0011128896,0.005146801,0.34906584,2.5128573e-09,2.5129525e-09,3.299524e-09,4259850,0.014088063,-0.038430743,-0.06278541,0.4,6.922545e-06,5.0211984e-06,5.021138e-06,396825,-0.039137006,-0.0471046,-0.053153116,0.5,1.8837281e-06,1.9077627e-06,0.00012455923,1,1,1
299810920,299810367,4325386,-0.0013191252,0.0011156847,0.0050086845,0.34906584,2.5099272e-09,2.5100435e-09,3.2880698e-09,4259850,0.013849516,-0.038368277,-0.06381863,0.4,6.888784e-06,5.0015456e-06,5.001563e-06,396825,-0.039137006,-0.0471046,-0.053153116,0.5,1.8837281e-06,1.9077627e-06,0.00012455923,1,1,1
299891896,299891494,4325386,-0.0013229037,0.0011206904,0.0049457666,0.34906584,2.5260132e-09,2.5261246e-09,3.2981666e-09,4259850,0.013897272,-0.038493183,-0.06484219,0.4,6.910973e-06,5.017674e-06,5.017614e-06,396825,-0.039137006,-0.0471046,-0.053153116,0.5,1.8837281e-06,1.9077627e-06,0.00012455923,1,1,1
300009309,300008517,4325386,-0.0013233745,0.0011238477,0.00485178,0.34906584,2.5389404e-09,2.5390436e-09,3.3010978e-09,4259850,0.013912416,-0.03852462,-0.06586164,0.4,6.9162193e-06,5.0215076e-06,5.0213507e-06,396825,-0.039137006,-0.0471046,-0.053153116,0.5,1.8837281e-06,1.9077627e-06,0.00012455923,1,1,1
300149158,300148202,4325386,-0.0013221966,0.0011288144,0.0046992376,0.34906584,2.5359153e-09,2.5360412e-09,3.2884069e-09,4259850,0.0136665115,-0.038484417,-0.06701982,0.4,6.883566e-06,5.003298e-06,5.003185e-06,396825,-0.039137006,-0.0471046,-0.053153116,0.5,1.8837281e-06,1.9077627e-06,0.00012455923,1,1,1
300261534,300260991,4325386,-0.001323873,0.0011342693,0.004574444,0.34906584,2.5345412e-09,2.5347056e-09,3.2816991e-09,4259850,0.013427,-0.038520806,-0.06810875,0.4,6.862112e-06,4.9939104e-06,4.9938753e-06,396825,-0.039137006,-0.0471046,-0.053153116,0.5,1.8837281e-06,1.9077627e-06,0.00012455923,1,1,1
300334883,300333009,4325386,-0.0013332362,0.0011424627,0.0045487685,0.34906584,2.5599114e-09,2.560076e-09,3.306136e-09,4259850,0.013525334,-0.038800832,-0.06920568,0.4,6.9117996e-06,5.030086e-06,5.029989e-06,396825,-0.039137006,-0.0471046,-0.053153116,0.5,1.8837281e-06,1.9077627e-06,0.00012455923,1,1,1
300482574,300481935,4325386,-0.0013317051,0.0011440526,0.0043909326,0.34906584,2.5539457e-09,2.5541596e-09,3.2914371e-09,4259850,0.013234441,-0.038742844,-0.07035034,0.4,6.8709965e-06,5.0073445e-06,5.007292e-06,396825,-0.039137006,-0.0471046,-0.053153116,0.5,1.8837281e-06,1.9077627e-06,0.00012455923,1,1,1
300595042,300594487,4325386,-0.0013337166,0.0011457712,0.004297523,0.34906584,2.56943e-09,2.5696427e-09,3.2976362e-09,4259850,0.013259454,-0.03881242,-0.071540296,0.4,6.883068e-06,5.0161652e-06,5.016017e-06,396825,-0.039137006,-0.0471046,-0.053153116,0.5,1.8837281e-06,1.9077627e-06,0.00012455923,1,1,1
300725820,300725345,4325386,-0.0013375927,0.0011525155,0.004170333,0.34906584,2.5700237e-09,2.5703006e-09,3.2952765e-09,4259850,0.013005206,-0.03890756,-0.07275916,0.4,6.866609e-06,5.0119056e-06,5.011826e-06,396825,-0.039137006,-0.0471046,-0.053153116,0.5,1.8837281e-06,1.9077627e-06,0.00012455923,1,1,1
300829324,300828959,4325386,-0.0013342035,0.0011503022,0.0040554837,0.34906584,2.5750464e-09,2.5753213e-09,3.2880745e-09,4259850,0.012979216,-0.038818274,-0.07375687,0.4,6.8507397e-06,5.0003455e-06,5.0001795e-06,396825,-0.039137006,-0.0471046,-0.053153116,0.5,1.8837281e-06,1.9077627e-06,0.00012455923,1,1,1
300919469,300918979,4325386,-0.0013444292,0.0011628951,0.0039828005,0.34906584,2.5809854e-09,2.5813416e-09,3.2991796e-09,4259850,0.012770114,-0.03909248,-0.07486651,0.4,6.8630197e-06,5.017844e-06,5.017783e-06,396825,-0.039137006,-0.0471046,-0.053153116,0.5,1.8837281e-06,1.9077627e-06,0.00012455923,1,1,1
301041067,301040682,4325386,-0.0013374572,0.001157895,0.0038321984,0.34906584,2.5810372e-09,2.58139e-09,3.2830443e-09,4259850,0.012712773,-0.03889912,-0.07589943,0.4,6.8287595e-06,4.992823e-06,4.992657e-06,396825,-0.039137006,-0.0471046,-0.053153116,0.5,1.8837281e-06,1.9077627e-06,0.00012455923,1,1,1
301104260,301103786,4325386,-0.001350329,0.0011722312,0.003785064,0.34906584,2.5884082e-09,2.588863e-09,3.2997376e-09,4259850,0.0125118485,-0.039245844,-0.07696286,0.4,6.851171e-06,5.01855e-06,5.018505e-06,396825,-0.039137006,-0.0471046,-0.053153116,0.5,1.8837281e-06,1.9077627e-06,0.00012455923,1,1,1
301216817,301216472,4325386,-0.0013465994,0.0011690464,0.003660698,0.34906584,2.5924736e-09,2.5929265e-09,3.2913308e-09,4259850,0.012481819,-0.039143186,-0.07796631,0.4,6.832886e-06,5.0051804e-06,5.005049e-06,396825,-0.039137006,-0.0471046,-0.053153116,0.5,1.8837281e-06,1.9077627e-06,0.00012455923,1,1,1
301316328,301315778,4325386,-0.0013480625,0.0011730109,0.0035317664,0.34906584,2.5806666e-09,2.5812381e-09,3.2792604e-09,4259850,0.012165009,-0.039157547,-0.07896301,0.4,6.7951696e-06,4.987582e-06,4.98753e-06,396825,-0.039137006,-0.0471046,-0.053153116,0.5,1.8837281e-06,1.9077627e-06,0.00012455923,1,1,1
301410922,301410292,4325386,-0.0013542337,0.0011783384,0.003452817,0.34906584,2.6015328e-09,2.6021063e-09,3.2948313e-09,4259850,0.012224441,-0.039340533,-0.08028776,0.4,6.8264458e-06,5.0105577e-06,5.010428e-06,396825,-0.039137006,-0.0471046,-0.053153116,0.5,1.8837281e-06,1.9077627e-06,0.00012455923,1,1,1
301528192,301527487,4325386,-0.0013526999,0.0011799315,0.0032872113,0.34906584,2.5845146e-09,2.5852287e-09,3.2746361e-09,4259850,0.011875355,-0.039267354,-0.08133364,0.4,6.7710826e-06,4.980711e-06,4.9806586e-06,396825,-0.039137006,-0.0471046,-0.053153116,0.5,1.8837281e-06,1.9077627e-06,0.00012455923,1,1,1
301618235,301617872,4325386,-0.001352409,0.001179905,0.0031880236,0.34906584,2.5929066e-09,2.5936204e-09,3.2744243e-09,4259850,0.011876801,-0.03926085,-0.082374245,0.4,6.7696647e-06,4.979688e-06,4.979568e-06,396825,-0.039137006,-0.0471046,-0.053153116,0.5,1.8837281e-06,1.9077627e-06,0.00012455923,1,1,1
301699609,301699002,4325386,-0.0013583044,0.0011881108,0.0030848798,0.34906584,2.5850124e-09,2.5858955e-09,3.271857e-09,4259850,0.011589027,-0.039401285,-0.083383895,0.4,6.7496576e-06,4.9764267e-06,4.9764017e-06,396825,-0.039137006,-0.0471046,-0.053153116,0.5,1.8837281e-06,1.9077627e-06,0.00012455923,1,1,1
301780706,301780139,4325386,-0.0013574517,0.0011879873,0.0029816977,0.34906584,2.591333e-09,2.592215e-09,3.2694136e-09,4259850,0.011587778,-0.039378725,-0.084424056,0.4,6.745453e-06,4.973346e-06,4.973251e-06,396825,-0.039137006,-0.0471046,-0.053153116,0.5,1.8837281e-06,1.9077627e-06,0.00012455923,1,1,1
301866107,301865546,4325386,-0.0013571752,0.0011883668,0.0028763737,0.34906584,2.5997098e-09,2.600592e-09,3.2691954e-09,4259850,0.011592412,-0.03937324,-0.085490614,0.4,6.7440383e-06,4.972325e-06,4.972153e-06,396825,-0.039137006,-0.0471046,-0.053153116,0.5,1.8837281e-06,1.9077627e-06,0.00012455923,1,1,1
301929171,301928696,4325386,-0.0013667474,0.0011996868,0.0028026316,0.34906584,2.5957019e-09,2.5967837e-09,3.2751626e-09,4259850,0.011328636,-0.039618902,-0.086524375,0.4,6.740322e-06,4.9817454e-06,4.981702e-06,396825,-0.039137006,-0.0471046,-0.053153116,0.5,1.8837281e-06,1.9077627e-06,0.00012455923,1,1,1
301978890,301978234,4325386,-0.0013743631,0.001206594,0.0027648986,0.34906584,2.6151377e-09,2.6162252e-09,3.2941145e-09,4259850,0.011394775,-0.039840724,-0.08756341,0.4,6.7778255e-06,5.0094764e-06,5.0093895e-06,396825,-0.039137006,-0.0471046,-0.053153116,0.5,1.8837281e-06,1.9077627e-06,0.00012455923,1,1,1
302069097,302068500,4325386,-0.0013736977,0.001206278,0.002657314,0.34906584,2.6228153e-09,2.6239022e-09,3.293047e-09,4259850,0.011393756,-0.039823167,-0.088646695,0.4,6.774445e-06,5.007e-06,5.006834e-06,396825,-0.039137006,-0.0471046,-0.053153116,0.5,1.8837281e-06,1.9077627e-06,0.00012455923,1,1,1
302127673,302127168,4325386,-0.0013832466,0.0012172408,0.0025807777,0.34906584,2.6172051e-09,2.618523e-09,3.2978338e-09,4259850,0.011120415,-0.040058475,-0.08966346,0.4,6.7674287e-06,5.0146505e-06,5.0146054e-06,396825,-0.039137006,-0.0471046,-0.053153116,0.5,1.8837281e-06,1.9077627e-06,0.00012455923,1,1,1
302222336,302221637,4325386,-0.001382931,0.0012171443,0.0024712563,0.34906584,2.6245643e-09,2.625881e-09,3.296229e-09,4259850,0.0111195175,-0.04003302,-0.09078495,0.4,6.7632063e-06,5.0115455e-06,5.0114227e-06,396825,-0.039137006,-0.0471046,-0.053153116,0.5,1.8837281e-06,1.9077627e-06,0.00012455923,1,1,1
302312416,302311925,4325386,-0.0013860709,0.001222759,0.0023294878,0.34906584,2.609538e-09,2.611111e-09,3.2846883e-09,4259850,0.010792487,-0.040076382,-0.091916226,0.4,6.7225174e-06,4.994784e-06,4.994757e-06,396825,-0.039137006,-0.0471046,-0.053153116,0.5,1.8837281e-06,1.9077627e-06,0.00012455923,1,1,1
302384533,302383905,4325386,-0.0013895291,0.0012261153,0.0022530467,0.34906584,2.6226263e-09,2.624203e-09,3.2930147e-09,4259850,0.010822813,-0.040171146,-0.09300404,0.4,6.7382375e-06,5.0064823e-06,5.006394e-06,396825,-0.039137006,-0.0471046,-0.053153116,0.5,1.8837281e-06,1.9077627e-06,0.00012455923,1,1,1
302443291,302442555,4325386,-0.0013916526,0.0012283666,0.002175273,0.34906584,2.6323876e-09,2.6339666e-09,3.2973861e-09,4259850,0.010842832,-0.040229965,-0.094013266,0.4,6.7479095e-06,5.013684e-06,5.013543e-06,396825,-0.039137006,-0.0471046,-0.053153116,0.5,1.8837281e-06,1.9077627e-06,0.00012455923,1,1,1
302533359,302532860,4325386,-0.0013989834,0.0012379005,0.0020673103,0.34906584,2.6244311e-09,2.6263045e-09,3.2976877e-09,4259850,0.010547738,-0.040408596,-0.09514453,0.4,6.7287274e-06,5.013335e-06,5.013292e-06,396825,-0.039137006,-0.0471046,-0.053153116,0.5,1.8837281e-06,1.9077627e-06,0.00012455923,1,1,1
302627848,302627308,4325386,-0.0013981335,0.0012377256,0.0019575784,0.34906584,2.63163e-09,2.6335019e-09,3.2958671e-09,4259850,0.010547076,-0.04038352,-0.09623222,0.4,6.724134e-06,5.0099384e-06,5.0098274e-06,396825,-0.039137006,-0.0471046,-0.053153116,0.5,1.8837281e-06,1.9077627e-06,0.00012455923,1,1,1
302700484,302699428,4325386,-0.0014041547,0.0012461611,0.0018481938,0.34906584,2.6195384e-09,2.6217377e-09,3.292017e-09,4259850,0.01023694,-0.040524244,-0.09727706,0.4,6.6977145e-06,5.004586e-06,5.0045774e-06,396825,-0.039137006,-0.0471046,-0.053153116,0.5,1.8837281e-06,1.9077627e-06,0.00012455923,1,1,1
302763117,302762601,4325386,-0.001406471,0.0012486267,0.001770469,0.34906584,2.6296316e-09,2.631834e-09,3.2968026e-09,4259850,0.010257844,-0.04058952,-0.09828494,0.4,6.7081905e-06,5.01243e-06,5.012369e-06,396825,-0.039137006,-0.0471046,-0.053153116,0.5,1.8837281e-06,1.9077627e-06,0.00012455923,1,1,1
302812738,302812114,4325386,-0.0014130404,0.0012547239,0.0017246299,0.34906584,2.6467524e-09,2.6489644e-09,3.3126861e-09,4259850,0.0103082815,-0.040777385,-0.09930948,0.4,6.73906e-06,5.03551e-06,5.0354056e-06,396825,-0.039137006,-0.0471046,-0.053153116,0.5,1.8837281e-06,1.9077627e-06,0.00012455923,1,1,1
302894128,302893297,4325386,-0.0014187054,0.001262755,0.0016128849,0.34906584,2.6330993e-09,2.635672e-09,3.3072387e-09,4259850,0.009991716,-0.040902305,-0.100308135,0.4,6.709273e-06,5.0279746e-06,5.0279746e-06,396825,-0.039137006,-0.0471046,-0.053153116,0.5,1.8837281e-06,1.9077627e-06,0.00012455923,1,1,1
302992968,302992413,4325386,-0.0014180285,0.0012626118,0.0015027614,0.34906584,2.640331e-09,2.6429008e-09,3.3055518e-09,4259850,0.009990643,-0.04087609,-0.10141421,0.4,6.70473e-06,5.0245935e-06,5.0245144e-06,396825,-0.039137006,-0.0471046,-0.053153116,0.5,1.8837281e-06,1.9077627e-06,0.00012455923,1,1,1
303123896,303123297,4325386,-0.001413164,0.0012614762,0.001301257,0.34906584,2.6122084e-09,2.6151477e-09,3.2744274e-09,4259850,0.009602264,-0.040688142,-0.102477,0.4,6.6235502e-06,4.9785835e-06,4.9785567e-06,396825,-0.039137006,-0.0471046,-0.053153116,0.5,1.8837281e-06,1.9077627e-06,0.00012455923,1,1,1
303186786,303186279,4325386,-0.0014173674,0.00126548,0.001223375,0.34906584,2.6253448e-09,2.628291e-09,3.2830423e-09,4259850,0.009634065,-0.040800966,-0.10360083,0.4,6.641714e-06,4.992254e-06,4.9921755e-06,396825,-0.039137006,-0.0471046,-0.053153116,0.5,1.8837281e-06,1.9077627e-06,0.00012455923,1,1,1
303236293,303235816,4325386,-0.0014242167,0.0012717679,0.0011755738,0.34906584,2.6426794e-09,2.6456384e-09,3.2991645e-09,4259850,0.009681292,-0.0409927,-0.104675785,0.4,6.6729176e-06,5.015723e-06,5.015601e-06,396825,-0.039137006,-0.0471046,-0.053153116,0.5,1.8837281e-06,1.9077627e-06,0.00012455923,1,1,1
303345743,303344247,4325386,-0.0014280089,0.0012781126,0.0010371109,0.34906584,2.627607e-09,2.6309854e-09,3.2897178e-09,4259850,0.009348714,-0.041056354,-0.10581413,0.4,6.632979e-06,5.00074e-06,5.0006975e-06,396825,-0.039137006,-0.0471046,-0.053153116,0.5,1.8837281e-06,1.9077627e-06,0.00012455923,1,1,1
303430213,303429651,4325386,-0.0014268301,0.0012773724,0.00092991843,0.34906584,2.632668e-09,2.636041e-09,3.2854666e-09,4259850,0.009342644,-0.04101146,-0.10684508,0.4,6.6256334e-06,4.99523e-06,4.9951195e-06,396825,-0.039137006,-0.0471046,-0.053153116,0.5,1.8837281e-06,1.9077627e-06,0.00012455923,1,1,1
303529770,303528989,4325386,-0.0014298501,0.0012831391,0.0007967987,0.34906584,2.615142e-09,2.6189637e-09,3.273487e-09,4259850,0.009005195,-0.041056324,-0.10784669,0.4,6.582597e-06,4.9778987e-06,4.9778832e-06,396825,-0.039137006,-0.0471046,-0.053153116,0.5,1.8837281e-06,1.9077627e-06,0.00012455923,1,1,1
303601548,303600921,4325386,-0.0014335321,0.0012867973,0.00072026293,0.34906584,2.6285616e-09,2.6323914e-09,3.2821794e-09,4259850,0.00903099,-0.041159652,-0.108945064,0.4,6.5988434e-06,4.9902046e-06,4.9901287e-06,396825,-0.039137006,-0.0471046,-0.053153116,0.5,1.8837281e-06,1.9077627e-06,0.00012455923,1,1,1
303678025,303677548,4325386,-0.0014324269,0.0012864353,0.00061637367,0.34906584,2.6344726e-09,2.6382987e-09,3.2791774e-09,4259850,0.009027966,-0.041131575,-0.10996238,0.4,6.593717e-06,4.9863506e-06,4.9862056e-06,396825,-0.039137006,-0.0471046,-0.053153116,0.5,1.8837281e-06,1.9077627e-06,0.00012455923,1,1,1
303764574,303763190,4325386,-0.0014405382,0.0012972452,0.00051310693,0.34906584,2.6262923e-09,2.630614e-09,3.2814118e-09,4259850,0.0087235365,-0.041346274,-0.11110268,0.4,6.5771437e-06,4.989038e-06,4.988996e-06,396825,-0.039137006,-0.0471046,-0.053153116,0.5,1.8837281e-06,1.9077627e-06,0.00012455923,1,1,1
303817745,303817342,4325386,-0.001447217,0.0013037478,0.00046448509,0.34906584,2.643888e-09,2.6482287e-09,3.2978293e-09,4259850,0.008765519,-0.04154795,-0.11220917,0.4,6.60869e-06,5.0129843e-06,5.0129074e-06,396825,-0.039137006,-0.0471046,-0.053153116,0.5,1.8837281e-06,1.9077627e-06,0.00012455923,1,1,1
303885295,303884939,4325386,-0.0014495288,0.0013067051,0.00038885997,0.34906584,2.656005e-09,2.660353e-09,3.3047989e-09,4259850,0.008784794,-0.041635565,-0.11323705,0.4,6.6214557e-06,5.022688e-06,5.022551e-06,396825,-0.039137006,-0.0471046,-0.053153116,0.5,1.8837281e-06,1.9077627e-06,0.00012455923,1,1,1
303962150,303961518,4325386,-0.0014552171,0.0013149448,0.0002876699,0.34906584,2.642195e-09,2.6470655e-09,3.3004794e-09,4259850,0.008452602,-0.041780684,-0.11423288,0.4,6.593753e-06,5.016972e-06,5.0169383e-06,396825,-0.039137006,-0.0471046,-0.053153116,0.5,1.8837281e-06,1.9077627e-06,0.00012455923,1,1,1
304020894,304020161,4325386,-0.0014577177,0.0013168594,0.0002118668,0.34906584,2.652469e-09,2.657346e-09,3.3053977e-09,4259850,0.00845835,-0.041849036,-0.11527433,0.4,6.6043876e-06,5.025083e-06,5.024997e-06,396825,-0.039137006,-0.0471046,-0.053153116,0.5,1.8837281e-06,1.9077627e-06,0.00012455923,1,1,1
304119803,304119427,4325386,-0.001458011,0.0013167389,0.00011045388,0.34906584,2.662595e-09,2.6674691e-09,3.3068508e-09,4259850,0.008454443,-0.04185461,-0.11630246,0.4,6.604646e-06,5.0253134e-06,5.0251515e-06,396825,-0.039137006,-0.0471046,-0.053153116,0.5,1.8837281e-06,1.9077627e-06,0.00012455923,1,1,1
304218932,304218445,4325386,-0.0014656051,0.0013258094,-1.3754908e-05,0.34906584,2.65212e-09,2.6575508e-09,3.30464e-09,4259850,0.008123278,-0.042033307,-0.11762552,0.4,6.583134e-06,5.0241783e-06,5.0241088e-06,396825,-0.039137006,-0.0471046,-0.053153116,0.5,1.8837281e-06,1.9077627e-06,0.00012455923,1,1,1
304354201,304353669,4325386,-0.0014669381,0.001329218,-0.00016115214,0.34906584,2.6353428e-09,2.6413274e-09,3.2908396e-09,4259850,0.0077575166,-0.04203027,-0.11869159,0.4,6.533856e-06,5.0016074e-06,5.001607e-06,396825,-0.039137006,-0.0471046,-0.053153116,0.5,1.8837281e-06,1.9077627e-06,0.00012455923,1,1,1
304394595,304394236,4325386,-0.0014731387,0.0013346074,-0.00021116735,0.34906584,2.650231e-09,2.6562381e-09,3.3040761e-09,4259850,0.0077840434,-0.042204533,-0.11973125,0.4,6.5608315e-06,5.022272e-06,5.0222384e-06,396825,-0.039137006,-0.0471046,-0.053153116,0.5,1.8837281e-06,1.9077627e-06,0.00012455923,1,1,1
304516653,304516022,4325386,-0.0014705508,0.0013315383,-0.00035534578,0.34906584,2.6567342e-09,2.6627247e-09,3.2963794e-09,4259850,0.0077550006,-0.042120825,-0.12101245,0.4,6.5472364e-06,5.011905e-06,5.0117605e-06,396825,-0.039137006,-0.0471046,-0.053153116,0.5,1.8837281e-06,1.9077627e-06,0.00012455923,1,1,1
304638131,304637639,4325386,-0.0014755988,0.0013383242,-0.00047365212,0.34906584,2.644972e-09,2.651551e-09,3.2914211e-09,4259850,0.0074172285,-0.042223196,-0.12203941,0.4,6.5155414e-06,5.0023996e-06,5.002339e-06,396825,-0.039137006,-0.0471046,-0.053153116,0.5,1.8837281e-06,1.9077627e-06,0.00012455923,1,1,1
304746618,304746117,4325386,-0.0014729453,0.0013350513,-0.00061409594,0.34906584,2.6501816e-09,2.6567415e-09,3.2824208e-09,4259850,0.0073865745,-0.04213527,-0.123253964,0.4,6.5013955e-06,4.9915784e-06,4.991407e-06,396825,-0.039137006,-0.0471046,-0.053153116,0.5,1.8837281e-06,1.9077627e-06,0.00012455923,1,1,1
304841137,304840476,4325386,-0.0014801702,0.001343982,-0.0007046397,0.34906584,2.6397928e-09,2.6469698e-09,3.2818068e-09,4259850,0.007065784,-0.042299446,-0.12423163,0.4,6.4806613e-06,4.9901014e-06,4.9900323e-06,396825,-0.039137006,-0.0471046,-0.053153116,0.5,1.8837281e-06,1.9077627e-06,0.00012455923,1,1,1
304944854,304944192,4325386,-0.0014820354,0.0013451056,-0.00081790914,0.34906584,2.6522287e-09,2.6594074e-09,3.2840697e-09,4259850,0.007062267,-0.042342193,-0.12551859,0.4,6.486728e-06,4.9948117e-06,4.9946584e-06,396825,-0.039137006,-0.0471046,-0.053153116,0.5,1.8837281e-06,1.9077627e-06,0.00012455923,1,1,1
305084484,305083878,4325386,-0.0014852725,0.0013503201,-0.00094371696,0.34906584,2.6398468e-09,2.6476337e-09,3.2751404e-09,4259850,0.006729038,-0.04238825,-0.12652524,0.4,6.4489914e-06,4.9798177e-06,4.9797186e-06,396825,-0.039137006,-0.0471046,-0.053153116,0.5,1.8837281e-06,1.9077627e-06,0.00012455923,1,1,1
305165761,305165013,4325386,-0.0014927145,0.0013595056,-0.0010470856,0.34906584,2.6305869e-09,2.6390234e-09,3.273646e-09,4259850,0.006427627,-0.042556714,-0.12763454,0.4,6.4312308e-06,4.979778e-06,4.979778e-06,396825,-0.039137006,-0.0471046,-0.053153116,0.5,1.8837281e-06,1.9077627e-06,0.00012455923,1,1,1
305238023,305237185,4325386,-0.0014972533,0.0013633289,-0.0011127999,0.34906584,2.6450477e-09,2.653503e-09,3.2832421e-09,4259850,0.0064385394,-0.042679124,-0.12867129,0.4,6.449522e-06,4.993976e-06,4.9939185e-06,396825,-0.039137006,-0.0471046,-0.053153116,0.5,1.8837281e-06,1.9077627e-06,0.00012455923,1,1,1
305292643,305291224,4325386,-0.0015045394,0.0013697466,-0.0011597868,0.34906584,2.6625862e-09,2.6710816e-09,3.299675e-09,4259850,0.0064639347,-0.042882193,-0.12972754,0.4,6.480097e-06,5.017661e-06,5.017558e-06,396825,-0.039137006,-0.0471046,-0.053153116,0.5,1.8837281e-06,1.9077627e-06,0.00012455923,1,1,1
305432390,305430953,4325386,-0.0015055615,0.0013727763,-0.0013044196,0.34906584,2.6470592e-09,2.6561728e-09,3.2842506e-09,4259850,0.006136767,-0.04286225,-0.13076162,0.4,6.4349565e-06,4.9960186e-06,4.9959676e-06,396825,-0.039137006,-0.0471046,-0.053153116,0.5,1.8837281e-06,1.9077627e-06,0.00012455923,1,1,1
305499238,305498773,4325386,-0.001510211,0.0013766709,-0.0013724298,0.34906584,2.66171e-09,2.670847e-09,3.2942704e-09,4259850,0.0061448235,-0.042987186,-0.13184465,0.4,6.453565e-06,5.0104923e-06,5.0103804e-06,396825,-0.039137006,-0.0471046,-0.053153116,0.5,1.8837281e-06,1.9077627e-06,0.00012455923,1,1,1
305634317,305633795,4325386,-0.0015112532,0.0013797611,-0.001519615,0.34906584,2.6466804e-09,2.6564424e-09,3.2792271e-09,4259850,0.0058278227,-0.042967003,-0.13292755,0.4,6.4099045e-06,4.9894625e-06,4.989411e-06,396825,-0.039137006,-0.0471046,-0.053153116,0.5,1.8837281e-06,1.9077627e-06,0.00012455923,1,1,1
305684125,305683521,4325386,-0.001518587,0.0013862569,-0.0015708017,0.34906584,2.6641447e-09,2.67395e-09,3.2952445e-09,4259850,0.0058500934,-0.043170612,-0.13401699,0.4,6.440087e-06,5.0129784e-06,5.012885e-06,396825,-0.039137006,-0.0471046,-0.053153116,0.5,1.8837281e-06,1.9077627e-06,0.00012455923,1,1,1
305765061,305764660,4325386,-0.0015237747,0.0013906809,-0.0016404502,0.34906584,2.6807168e-09,2.6905504e-09,3.3073255e-09,4259850,0.00586086,-0.043310884,-0.13512586,0.4,6.4607493e-06,5.0290905e-06,5.028937e-06,396825,-0.039137006,-0.0471046,-0.053153116,0.5,1.8837281e-06,1.9077627e-06,0.00012455923,1,1,1
305877771,305877193,4325386,-0.0015265411,0.0013954061,-0.0017624664,0.34906584,2.6664693e-09,2.676948e-09,3.2959684e-09,4259850,0.0055647762,-0.043341205,-0.13609986,0.4,6.4263277e-06,5.014724e-06,5.014637e-06,396825,-0.039137006,-0.0471046,-0.053153116,0.5,1.8837281e-06,1.9077627e-06,0.00012455923,1,1,1
306008565,306008073,4325386,-0.0015324565,0.0014031362,-0.0018849811,0.34906584,2.6603066e-09,2.6714522e-09,3.2935166e-09,4259850,0.0052926573,-0.043459363,-0.13736874,0.4,6.4066994e-06,5.0113767e-06,5.0113586e-06,396825,-0.039137006,-0.0471046,-0.053153116,0.5,1.8837281e-06,1.9077627e-06,0.00012455923,1,1,1
306171035,306170352,4325386,-0.0015293226,0.0013996192,-0.0020208056,0.34906584,2.6694804e-09,2.6805886e-09,3.2857028e-09,4259850,0.0052593052,-0.043351397,-0.13852787,0.4,6.3903544e-06,4.9986634e-06,4.9985197e-06,396825,-0.039137006,-0.0471046,-0.053153116,0.5,1.8837281e-06,1.9077627e-06,0.00012455923,1,1,1
306310874,306310159,4325386,-0.0015306497,0.0014025872,-0.002151241,0.34906584,2.6568485e-09,2.6685856e-09,3.2725753e-09,4259850,0.004974769,-0.04333681,-0.13951235,0.4,6.3529114e-06,4.9807604e-06,4.980662e-06,396825,-0.039137006,-0.0471046,-0.053153116,0.5,1.8837281e-06,1.9077627e-06,0.00012455923,1,1,1
306405954,306404566,4325386,-0.0015387598,0.0014120218,-0.0022509277,0.34906584,2.6529665e-09,2.6653915e-09,3.2756973e-09,4259850,0.0047320775,-0.043519344,-0.14069949,0.4,6.3461353e-06,4.9863197e-06,4.986311e-06,396825,-0.039137006,-0.0471046,-0.053153116,0.5,1.8837281e-06,1.9077627e-06,0.00012455923,1,1,1
306486286,306485702,4325386,-0.0015446852,0.0014170666,-0.002317794,0.34906584,2.67054e-09,2.6830038e-09,3.288628e-09,4259850,0.0047407416,-0.04367881,-0.14179392,0.4,6.3690477e-06,5.0043677e-06,5.004302e-06,396825,-0.039137006,-0.0471046,-0.053153116,0.5,1.8837281e-06,1.9077627e-06,0.00012455923,1,1,1
306590395,306589418,4325386,-0.0015461437,0.0014177788,-0.002414766,0.34906584,2.68201e-09,2.6944742e-09,3.2894287e-09,4259850,0.0047287247,-0.043706026,-0.14284347,0.4,6.3725647e-06,5.007181e-06,5.0070225e-06,396825,-0.039137006,-0.0471046,-0.053153116,0.5,1.8837281e-06,1.9077627e-06,0.00012455923,1,1,1
306693762,306693045,4325386,-0.0015534726,0.0014264802,-0.0025099525,0.34906584,2.6773408e-09,2.6904845e-09,3.290834e-09,4259850,0.004491141,-0.043863866,-0.14396799,0.4,6.363888e-06,5.010779e-06,5.0107046e-06,396825,-0.039137006,-0.0471046,-0.053153116,0.5,1.8837281e-06,1.9077627e-06,0.00012455923,1,1,1
306833391,306832776,4325386,-0.0015550185,0.0014295179,-0.0026330824,0.34906584,2.667799e-09,2.681568e-09,3.2807739e-09,4259850,0.00423756,-0.04385083,-0.14494148,0.4,6.332008e-06,4.995569e-06,4.995542e-06,396825,-0.039137006,-0.0471046,-0.053153116,0.5,1.8837281e-06,1.9077627e-06,0.00012455923,1,1,1
306915033,306913911,4325386,-0.0015607893,0.0014343765,-0.0026985102,0.34906584,2.6850346e-09,2.6988456e-09,3.293152e-09,4259850,0.004239454,-0.044003088,-0.14604655,0.4,6.3539046e-06,5.0128924e-06,5.0128083e-06,396825,-0.039137006,-0.0471046,-0.053153116,0.5,1.8837281e-06,1.9077627e-06,0.00012455923,1,1,1
306982204,306981733,4325386,-0.0015642892,0.0014370342,-0.0027788032,0.34906584,2.697144e-09,2.7109786e-09,3.2977938e-09,4259850,0.0042337077,-0.044088244,-0.14709245,0.4,6.3659627e-06,5.0224353e-06,5.022282e-06,396825,-0.039137006,-0.0471046,-0.053153116,0.5,1.8837281e-06,1.9077627e-06,0.00012455923,1,1,1
307103700,307103224,4325386,-0.0015723796,0.0014463497,-0.00287424,0.34906584,2.6957254e-09,2.7102434e-09,3.302457e-09,4259850,0.0040136627,-0.04426326,-0.14832918,0.4,6.3630046e-06,5.0295553e-06,5.0294857e-06,396825,-0.039137006,-0.0471046,-0.053153116,0.5,1.8837281e-06,1.9077627e-06,0.00012455923,1,1,1
307158026,307157317,4325386,-0.0015536901,0.0014286756,-0.0028931485,0.34906584,2.668942e-09,2.6832783e-09,3.2613487e-09,4259850,0.0039528487,-0.043726727,-0.1470812,0.4,6.2857175e-06,4.9685095e-06,4.9683936e-06,396825,-0.039137006,-0.0471046,-0.053153116,0.5,1.8837281e-06,1.9077627e-06,0.00012455923,1,1,1
307221119,307220464,4325386,-0.0015639365,0.0014402441,-0.0029548828,0.34906584,2.6683438e-09,2.683378e-09,3.2721166e-09,4259850,0.003763378,-0.043970916,-0.14809634,0.4,6.294274e-06,4.9841237e-06,4.9841324e-06,396825,-0.039137006,-0.0471046,-0.053153116,0.5,1.8837281e-06,1.9077627e-06,0.00012455923,1,1,1
307270554,307270106,4325386,-0.0015718536,0.001447207,-0.0030033009,0.34906584,2.6864198e-09,2.7015252e-09,3.2886183e-09,4259850,0.0037707288,-0.04418582,-0.14920986,0.4,6.325119e-06,5.0085755e-06,5.0085423e-06,396825,-0.039137006,-0.0471046,-0.053153116,0.5,1.8837281e-06,1.9077627e-06,0.00012455923,1,1,1
307320106,307319583,4325386,-0.0015795012,0.0014539327,-0.0030533017,0.34906584,2.704046e-09,2.7192226e-09,3.3049818e-09,4259850,0.0037790225,-0.044393152,-0.15029663,0.4,6.354818e-06,5.0321023e-06,5.032033e-06,396825,-0.039137006,-0.0471046,-0.053153116,0.5,1.8837281e-06,1.9077627e-06,0.00012455923,1,1,1
307432856,307432366,4325386,-0.0015865725,0.0014623611,-0.003146877,0.34906584,2.7019473e-09,2.717782e-09,3.3077399e-09,4259850,0.0035876497,-0.044540808,-0.15132919,0.4,6.350487e-06,5.037145e-06,5.037139e-06,396825,-0.039137006,-0.0471046,-0.053153116,0.5,1.8837281e-06,1.9077627e-06,0.00012455923,1,1,1
307707711,307707228,4325386,-0.0015780734,0.001455058,-0.0033594503,0.34906584,2.6879625e-09,2.7042681e-09,3.272811e-09,4259850,0.00331937,-0.04421461,-0.1525359,0.4,6.2808494e-06,4.9898727e-06,4.9898076e-06,396825,-0.039137006,-0.0471046,-0.053153116,0.5,1.8837281e-06,1.9077627e-06,0.00012455923,1,1,1
307757471,307756917,4325386,-0.0015858943,0.0014619913,-0.003410258,0.34906584,2.7058067e-09,2.7221874e-09,3.2888727e-09,4259850,0.0033279064,-0.044426452,-0.15361415,0.4,6.3108487e-06,5.0137346e-06,5.013627e-06,396825,-0.039137006,-0.0471046,-0.053153116,0.5,1.8837281e-06,1.9077627e-06,0.00012455923,1,1,1
307888469,307887525,4325386,-0.0015899193,0.0014674779,-0.0035124023,0.34906584,2.701546e-09,2.7185318e-09,3.2863745e-09,4259850,0.0031409927,-0.044481657,-0.15462027,0.4,6.2969634e-06,5.0101326e-06,5.010081e-06,396825,-0.039137006,-0.0471046,-0.053153116,0.5,1.8837281e-06,1.9077627e-06,0.00012455923,1,1,1
308054833,308054347,4325386,-0.0015927699,0.0014717183,-0.0036443772,0.34906584,2.6992262e-09,2.7167883e-09,3.2806335e-09,4259850,0.0029583147,-0.04449517,-0.15582252,0.4,6.2785907e-06,5.0025e-06,5.002482e-06,396825,-0.039137006,-0.0471046,-0.053153116,0.5,1.8837281e-06,1.9077627e-06,0.00012455923,1,1,1
308164084,308162612,4325386,-0.0015968246,0.0014747471,-0.003737267,0.34906584,2.7158191e-09,2.733413e-09,3.2872227e-09,4259850,0.0029410273,-0.04458656,-0.15706116,0.4,6.2915806e-06,5.0129097e-06,5.012798e-06,396825,-0.039137006,-0.0471046,-0.053153116,0.5,1.8837281e-06,1.9077627e-06,0.00012455923,1,1,1
308266703,308266215,4325386,-0.0016023725,0.0014815452,-0.0038264256,0.34906584,2.7121865e-09,2.7303844e-09,3.2878409e-09,4259850,0.0027808207,-0.044686172,-0.15804754,0.4,6.286752e-06,5.0155913e-06,5.015573e-06,396825,-0.039137006,-0.0471046,-0.053153116,0.5,1.8837281e-06,1.9077627e-06,0.00012455923,1,1,1
308406439,308406075,4325386,-0.0016037673,0.001481894,-0.0039311843,0.34906584,2.7268625e-09,2.745058e-09,3.2888152e-09,4259850,0.0027560773,-0.044697147,-0.15914369,0.4,6.288255e-06,5.016876e-06,5.0167487e-06,396825,-0.039137006,-0.0471046,-0.053153116,0.5,1.8837281e-06,1.9077627e-06,0.00012455923,1,1,1
308568827,308568331,4325386,-0.0016050881,0.0014840958,-0.004060622,0.34906584,2.7215905e-09,2.740319e-09,3.2793464e-09,4259850,0.0025828583,-0.044660408,-0.16022281,0.4,6.2659706e-06,5.005202e-06,5.0050994e-06,396825,-0.039137006,-0.0471046,-0.053153116,0.5,1.8837281e-06,1.9077627e-06,0.00012455923,1,1,1
308744566,308743958,4325386,-0.0016080835,0.0014873837,-0.0041963463,0.34906584,2.7205915e-09,2.7398572e-09,3.2746375e-09,4259850,0.0024135867,-0.044666644,-0.16154158,0.4,6.2514596e-06,4.9992764e-06,4.999201e-06,396825,-0.039137006,-0.0471046,-0.053153116,0.5,1.8837281e-06,1.9077627e-06,0.00012455923,1,1,1
308929436,308928751,4325386,-0.0016077979,0.0014871516,-0.0043424624,0.34906584,2.7159788e-09,2.7357256e-09,3.2625067e-09,4259850,0.0022462562,-0.044574093,-0.16267896,0.4,6.2244953e-06,4.9829823e-06,4.9829255e-06,396825,-0.039137006,-0.0471046,-0.053153116,0.5,1.8837281e-06,1.9077627e-06,0.00012455923,1,1,1
308974509,308974028,4325386,-0.0016171549,0.0014954564,-0.004403017,0.34906584,2.736047e-09,2.755904e-09,3.281604e-09,4259850,0.0022476115,-0.044819597,-0.16398066,0.4,6.25905e-06,5.0106546e-06,5.0105523e-06,396825,-0.039137006,-0.0471046,-0.053153116,0.5,1.8837281e-06,1.9077627e-06,0.00012455923,1,1,1
309078095,309077605,4325386,-0.0016220027,0.0015013802,-0.0044941027,0.34906584,2.7327471e-09,2.7531502e-09,3.2820389e-09,4259850,0.002141457,-0.044888977,-0.16500476,0.4,6.2560885e-06,5.0131416e-06,5.0131325e-06,396825,-0.039137006,-0.0471046,-0.053153116,0.5,1.8837281e-06,1.9077627e-06,0.00012455923,1,1,1
309208848,309208214,4325386,-0.0016222898,0.0015013826,-0.0045991587,0.34906584,2.7438412e-09,2.7642266e-09,3.2788168e-09,4259850,0.0021264295,-0.044849776,-0.16609827,0.4,6.2517024e-06,5.009713e-06,5.009595e-06,396825,-0.039137006,-0.0471046,-0.053153116,0.5,1.8837281e-06,1.9077627e-06,0.00012455923,1,1,1
309380218,309379728,4325386,-0.0016243783,0.0015034924,-0.00473764,0.34906584,2.7420328e-09,2.7629075e-09,3.2729721e-09,4259850,0.0020046143,-0.04482132,-0.16731812,0.4,6.236585e-06,5.0021117e-06,5.002027e-06,396825,-0.039137006,-0.0471046,-0.053153116,0.5,1.8837281e-06,1.9077627e-06,0.00012455923,1,1,1
309556224,309555289,4325386,-0.0016270861,0.0015049668,-0.0048781848,0.34906584,2.74172e-09,2.7630782e-09,3.268904e-09,4259850,0.0018605026,-0.044808887,-0.16868971,0.4,6.225295e-06,4.9972136e-06,4.9971623e-06,396825,-0.039137006,-0.0471046,-0.053153116,0.5,1.8837281e-06,1.9077627e-06,0.00012455923,1,1,1
309601692,309600364,4325386,-0.0016351758,0.0015118021,-0.004938259,0.34906584,2.759496e-09,2.7809535e-09,3.2844671e-09,4259850,0.0018515779,-0.04501543,-0.16986953,0.4,6.2542736e-06,5.0205063e-06,5.0204126e-06,396825,-0.039137006,-0.0471046,-0.053153116,0.5,1.8837281e-06,1.9077627e-06,0.00012455923,1,1,1
309637008,309636425,4325386,-0.0016208444,0.0014979509,-0.004930305,0.34906584,2.738416e-09,2.7596785e-09,3.2540013e-09,4259850,0.0018195898,-0.044605028,-0.16870444,0.4,6.197482e-06,4.9749474e-06,4.9748305e-06,396825,-0.039137006,-0.0471046,-0.053153116,0.5,1.8837281e-06,1.9077627e-06,0.00012455923,1,1,1
309699917,309699574,4325386,-0.0016277994,0.0015049982,-0.004998761,0.34906584,2.7377138e-09,2.7595168e-09,3.2626026e-09,4259850,0.0017437944,-0.044746965,-0.16970836,0.4,6.208328e-06,4.9873997e-06,4.987407e-06,396825,-0.039137006,-0.0471046,-0.053153116,0.5,1.8837281e-06,1.9077627e-06,0.00012455923,1,1,1
309740911,309740096,4325386,-0.0016353341,0.0015114859,-0.0050579743,0.34906584,2.7534606e-09,2.775357e-09,3.2759446e-09,4259850,0.001738678,-0.04493658,-0.1708316,0.4,6.234959e-06,5.0088206e-06,5.008788e-06,396825,-0.039137006,-0.0471046,-0.053153116,0.5,1.8837281e-06,1.9077627e-06,0.00012455923,1,1,1
309781139,309780664,4325386,-0.0016415103,0.0015167381,-0.005113542,0.34906584,2.7669185e-09,2.7888913e-09,3.2872212e-09,4259850,0.0017307018,-0.045087434,-0.17183954,0.4,6.2563663e-06,5.026026e-06,5.0259478e-06,396825,-0.039137006,-0.0471046,-0.053153116,0.5,1.8837281e-06,1.9077627e-06,0.00012455923,1,1,1
309862203,309861798,4325386,-0.0016471398,0.0015212938,-0.0051875454,0.34906584,2.7829636e-09,2.8050002e-09,3.2973753e-09,4259850,0.001718971,-0.045213506,-0.17295611,0.4,6.274428e-06,5.040591e-06,5.0404647e-06,396825,-0.039137006,-0.0471046,-0.053153116,0.5,1.8837281e-06,1.9077627e-06,0.00012455923,1,1,1
310001881,310001529,4325386,-0.001648495,0.0015225492,-0.005298644,0.34906584,2.7774265e-09,2.7999085e-09,3.2925098e-09,4259850,0.001629759,-0.04516694,-0.17401381,0.4,6.2612817e-06,5.033512e-06,5.033452e-06,396825,-0.039137006,-0.0471046,-0.053153116,0.5,1.8837281e-06,1.9077627e-06,0.00012455923,1,1,1
310069558,310069141,4325386,-0.0016313273,0.0015058145,-0.005318845,0.34906584,2.7533433e-09,2.7755755e-09,3.2533953e-09,4259850,0.0015878514,-0.044655338,-0.17291568,0.4,6.1912906e-06,4.9772984e-06,4.9771734e-06,396825,-0.039137006,-0.0471046,-0.053153116,0.5,1.8837281e-06,1.9077627e-06,0.00012455923,1,1,1
310132838,310132405,4325386,-0.0016377309,0.0015119888,-0.0053913044,0.34906584,2.7524578e-09,2.7751956e-09,3.2616796e-09,4259850,0.0015322431,-0.0447797,-0.17397958,0.4,6.2023287e-06,4.9892815e-06,4.9892724e-06,396825,-0.039137006,-0.0471046,-0.053153116,0.5,1.8837281e-06,1.9077627e-06,0.00012455923,1,1,1
310206171,310204365,4325386,-0.0016429826,0.0015157395,-0.005484567,0.34906584,2.7660851e-09,2.7888796e-09,3.2679561e-09,4259850,0.0015043163,-0.044879757,-0.17527361,0.4,6.2172967e-06,5.0013546e-06,5.001268e-06,396825,-0.039137006,-0.0471046,-0.053153116,0.5,1.8837281e-06,1.9077627e-06,0.00012455923,1,1,1
310272807,310272206,4325386,-0.0016485084,0.00151997,-0.0055607217,0.34906584,2.780722e-09,2.8035807e-09,3.2765977e-09,4259850,0.0014858525,-0.0449981,-0.17639793,0.4,6.2344216e-06,5.015185e-06,5.015041e-06,396825,-0.039137006,-0.0471046,-0.053153116,0.5,1.8837281e-06,1.9077627e-06,0.00012455923,1,1,1
310376242,310375838,4325386,-0.0016520263,0.0015228338,-0.005647454,0.34906584,2.7777203e-09,2.8010265e-09,3.279859e-09,4259850,0.0014227434,-0.045031317,-0.17740871,0.4,6.234308e-06,5.017921e-06,5.017879e-06,396825,-0.039137006,-0.0471046,-0.053153116,0.5,1.8837281e-06,1.9077627e-06,0.00012455923,1,1,1
310471026,310470312,4325386,-0.0016527051,0.001521996,-0.005750332,0.34906584,2.7848757e-09,2.8081688e-09,3.2753635e-09,4259850,0.0013829258,-0.04499101,-0.17841373,0.4,6.230135e-06,5.0146214e-06,5.0144868e-06,396825,-0.039137006,-0.0471046,-0.053153116,0.5,1.8837281e-06,1.9077627e-06,0.00012455923,1,1,1
310620023,310619235,4325386,-0.0016512293,0.001519119,-0.0058859875,0.34906584,2.7768834e-09,2.8005238e-09,3.264586e-09,4259850,0.0012966732,-0.04485061,-0.17953426,0.4,6.2081326e-06,4.9994946e-06,4.999411e-06,396825,-0.039137006,-0.0471046,-0.053153116,0.5,1.8837281e-06,1.9077627e-06,0.00012455923,1,1,1
310714878,310713755,4325386,-0.0016532537,0.0015197126,-0.0059773703,0.34906584,2.78669e-09,2.8103393e-09,3.2652194e-09,4259850,0.0012608664,-0.04485387,-0.18054734,0.4,6.2099566e-06,5.001022e-06,5.000873e-06,396825,-0.039137006,-0.0471046,-0.053153116,0.5,1.8837281e-06,1.9077627e-06,0.00012455923,1,1,1
310849656,310848985,4325386,-0.0016500938,0.0015148531,-0.006110253,0.34906584,2.775202e-09,2.7991547e-09,3.25132e-09,4259850,0.00116972,-0.04466686,-0.18155847,0.4,6.182793e-06,4.981441e-06,4.9813307e-06,396825,-0.039137006,-0.0471046,-0.053153116,0.5,1.8837281e-06,1.9077627e-06,0.00012455923,1,1,1
310930615,310930069,4325386,-0.0016530063,0.0015163139,-0.0062057143,0.34906584,2.7712046e-09,2.79555e-09,3.2530993e-09,4259850,0.001121465,-0.044687938,-0.18265738,0.4,6.184109e-06,4.9845216e-06,4.984528e-06,396825,-0.039137006,-0.0471046,-0.053153116,0.5,1.8837281e-06,1.9077627e-06,0.00012455923,1,1,1
310971290,310970683,4325386,-0.0016597732,0.0015217866,-0.0062727,0.34906584,2.7852263e-09,2.809661e-09,3.2642067e-09,4259850,0.0011014569,-0.04484356,-0.18381575,0.4,6.2064787e-06,5.002579e-06,5.0025465e-06,396825,-0.039137006,-0.0471046,-0.053153116,0.5,1.8837281e-06,1.9077627e-06,0.00012455923,1,1,1
311011697,311011206,4325386,-0.0016674147,0.0015280263,-0.006343693,0.34906584,2.800721e-09,2.8252578e-09,3.277772e-09,4259850,0.0010810513,-0.0450223,-0.18507648,0.4,6.2320887e-06,5.0232297e-06,5.023161e-06,396825,-0.039137006,-0.0471046,-0.053153116,0.5,1.8837281e-06,1.9077627e-06,0.00012455923,1,1,1
311291232,311290809,4325386,-0.0016612709,0.0015179686,-0.0065766345,0.34906584,2.7942648e-09,2.819003e-09,3.2550886e-09,4259850,0.00093162793,-0.044688486,-0.1868353,0.4,6.1885194e-06,4.9900264e-06,4.9899104e-06,396825,-0.039137006,-0.0471046,-0.053153116,0.5,1.8837281e-06,1.9077627e-06,0.00012455923,1,1,1
312255890,312255265,4325386,-0.0016699728,0.0015192502,-0.0070845652,0.34906584,2.8231761e-09,2.8494518e-09,3.306843e-09,4259850,0.0008517802,-0.044689562,-0.19241306,0.4,6.196265e-06,5.0025515e-06,5.002486e-06,396825,-0.039137006,-0.0471046,-0.053153116,0.5,1.8837281e-06,1.9077627e-06,0.00012455923,1,1,1
312648164,312647417,4325386,-0.0016766507,0.001523794,-0.0071367146,0.34906584,2.850536e-09,2.8774352e-09,3.361146e-09,4259850,0.0009326732,-0.04496042,-0.19341868,0.4,6.23447e-06,5.0349104e-06,5.034859e-06,396825,-0.039137006,-0.0471046,-0.053153116,0.5,1.8837281e-06,1.9077627e-06,0.00012455923,1,1,1
312751954,312751310,4325386,-0.0016646059,0.0015128265,-0.0070878644,0.34906584,2.8411085e-09,2.8678144e-09,3.3462317e-09,4259850,0.000937724,-0.044641957,-0.19194765,0.4,6.189841e-06,4.998928e-06,4.9987934e-06,396825,-0.039137006,-0.0471046,-0.053153116,0.5,1.8837281e-06,1.9077627e-06,0.00012455923,1,1,1
313139093,313138730,4325386,-0.0016532117,0.0015005544,-0.007072875,0.34906584,2.839116e-09,2.8661082e-09,3.3651364e-09,4259850,0.001041684,-0.04446075,-0.19078907,0.4,6.165102e-06,4.980135e-06,4.9800183e-06,396825,-0.039137006,-0.0471046,-0.053153116,0.5,1.8837281e-06,1.9077627e-06,0.00012455923,1,1,1
313378311,313377627,4325386,-0.0016452022,0.0014922014,-0.0070617744,0.34906584,2.8400735e-09,2.8671565e-09,3.374228e-09,4259850,0.0011172199,-0.044323646,-0.18979941,0.4,6.145592e-06,4.96493e-06,4.964762e-06,396825,-0.039137006,-0.0471046,-0.053153116,0.5,1.8837281e-06,1.9077627e-06,0.00012455923,1,1,1
313477236,313476792,4325386,-0.0016524009,0.0014976974,-0.0071085105,0.34906584,2.8537872e-09,2.8812057e-09,3.4044754e-09,4259850,0.0011642777,-0.044588663,-0.19090565,0.4,6.1835167e-06,4.995969e-06,4.9959353e-06,396825,-0.039137006,-0.0471046,-0.053153116,0.5,1.8837281e-06,1.9077627e-06,0.00012455923,1,1,1
313726117,313724707,4325386,-0.00164455,0.001489427,-0.007102129,0.34906584,2.857222e-09,2.8847231e-09,3.415945e-09,4259850,0.0012547284,-0.04447044,-0.18987778,0.4,6.166387e-06,4.9826267e-06,4.982542e-06,396825,-0.039137006,-0.0471046,-0.053153116,0.5,1.8837281e-06,1.9077627e-06,0.00012455923,1,1,1
313829113,313828589,4325386,-0.0016516461,0.0014947822,-0.007153537,0.34906584,2.8730893e-09,2.900918e-09,3.4474243e-09,4259850,0.0013236117,-0.044750825,-0.19088079,0.4,6.2057734e-06,5.0148487e-06,5.0148487e-06,396825,-0.039137006,-0.0471046,-0.053153116,0.5,1.8837281e-06,1.9077627e-06,0.00012455923,1,1,1
314135921,314134885,4325386,-0.0016418175,0.00148474,-0.007145088,0.34906584,2.8792684e-09,2.9071379e-09,3.4599472e-09,4259850,0.0014452137,-0.0445955,-0.18936884,0.4,6.1826017e-06,4.9966575e-06,4.996547e-06,396825,-0.039137006,-0.0471046,-0.053153116,0.5,1.8837281e-06,1.9077627e-06,0.00012455923,1,1,1
314378629,314378286,4325386,-0.0016329172,0.0014756576,-0.0071361708,0.34906584,2.8814109e-09,2.9093314e-09,3.4701793e-09,4259850,0.0015504236,-0.044462614,-0.1881093,0.4,6.1631667e-06,4.9814353e-06,4.9813157e-06,396825,-0.039137006,-0.0471046,-0.053153116,0.5,1.8837281e-06,1.9077627e-06,0.00012455923,1,1,1
314617984,314617181,4325386,-0.0016200837,0.001462246,-0.0071284757,0.34906584,2.8715483e-09,2.899643e-09,3.4799186e-09,4259850,0.0017123764,-0.04432426,-0.18670827,0.4,6.143246e-06,4.966244e-06,4.966244e-06,396825,-0.039137006,-0.0471046,-0.053153116,0.5,1.8837281e-06,1.9077627e-06,0.00012455923,1,1,1
314734906,314734376,4325386,-0.0016328826,0.0014737778,-0.007190608,0.34906584,2.9064333e-09,2.9347518e-09,3.5182626e-09,4259850,0.0017619629,-0.044684462,-0.1878173,0.4,6.192214e-06,5.0059048e-06,5.0058175e-06,396825,-0.039137006,-0.0471046,-0.053153116,0.5,1.8837281e-06,1.9077627e-06,0.00012455923,1,1,1
314946700,314946227,4325386,-0.0016243577,0.0014652712,-0.0071823737,0.34906584,2.9074863e-09,2.935855e-09,3.5272154e-09,4259850,0.0018786215,-0.044570826,-0.18650252,0.4,6.175029e-06,4.9925825e-06,4.9924865e-06,396825,-0.039137006,-0.0471046,-0.053153116,0.5,1.8837281e-06,1.9077627e-06,0.00012455923,1,1,1
315104626,315103988,4325386,-0.0016168637,0.0014577889,-0.007175981,0.34906584,2.905667e-09,2.9341014e-09,3.5340824e-09,4259850,0.0019881583,-0.04448402,-0.18539616,0.4,6.16167e-06,4.9823734e-06,4.982313e-06,396825,-0.039137006,-0.0471046,-0.053153116,0.5,1.8837281e-06,1.9077627e-06,0.00012455923,1,1,1
315172279,315171786,4325386,-0.0016274855,0.0014673757,-0.007225803,0.34906584,2.9319e-09,2.9605225e-09,3.5638446e-09,4259850,0.002021756,-0.044781737,-0.18638581,0.4,6.202438e-06,5.015379e-06,5.015274e-06,396825,-0.039137006,-0.0471046,-0.053153116,0.5,1.8837281e-06,1.9077627e-06,0.00012455923,1,1,1
315312129,315311533,4325386,-0.0016208569,0.0014607449,-0.007223239,0.34906584,2.9289915e-09,2.9576963e-09,3.5699725e-09,4259850,0.0021413204,-0.044721734,-0.1852838,0.4,6.1924725e-06,5.007967e-06,5.0079066e-06,396825,-0.039137006,-0.0471046,-0.053153116,0.5,1.8837281e-06,1.9077627e-06,0.00012455923,1,1,1
315397380,315396974,4325386,-0.001613589,0.0014542211,-0.007192856,0.34906584,2.924989e-09,2.9535665e-09,3.5625007e-09,4259850,0.0021523926,-0.044527102,-0.18421471,0.4,6.1650835e-06,4.9858595e-06,4.9857454e-06,396825,-0.039137006,-0.0471046,-0.053153116,0.5,1.8837281e-06,1.9077627e-06,0.00012455923,1,1,1
315429208,315428526,4325386,-0.001603615,0.0014452542,-0.0071507804,0.34906584,2.9100276e-09,2.9384302e-09,3.5431158e-09,4259850,0.0021608386,-0.04425764,-0.18282172,0.4,6.127275e-06,4.9553155e-06,4.9551672e-06,396825,-0.039137006,-0.0471046,-0.053153116,0.5,1.8837281e-06,1.9077627e-06,0.00012455923,1,1,1
315496812,315496286,4325386,-0.001611772,0.0014519867,-0.007207189,0.34906584,2.9279508e-09,2.9566947e-09,3.5766003e-09,4259850,0.0022532225,-0.044593778,-0.1839634,0.4,6.173111e-06,4.9930427e-06,4.993016e-06,396825,-0.039137006,-0.0471046,-0.053153116,0.5,1.8837281e-06,1.9077627e-06,0.00012455923,1,1,1
315681465,315681051,4325386,-0.0016070094,0.0014472286,-0.007211888,0.34906584,2.9341083e-09,2.9629719e-09,3.5916938e-09,4259850,0.0023968506,-0.044591136,-0.18283236,0.4,6.1703904e-06,4.9916785e-06,4.9916525e-06,396825,-0.039137006,-0.0471046,-0.053153116,0.5,1.8837281e-06,1.9077627e-06,0.00012455923,1,1,1
315789817,315789124,4325386,-0.0016022892,0.0014431718,-0.0071930364,0.34906584,2.936867e-09,2.9656508e-09,3.5916115e-09,4259850,0.0024348684,-0.0444735,-0.1817513,0.4,6.153195e-06,4.9778396e-06,4.9777163e-06,396825,-0.039137006,-0.0471046,-0.053153116,0.5,1.8837281e-06,1.9077627e-06,0.00012455923,1,1,1
316109662,316109193,4325386,-0.0016021775,0.0014416857,-0.0072308127,0.34906584,2.962399e-09,2.991592e-09,3.6392085e-09,4259850,0.002713006,-0.044712044,-0.18077798,0.4,6.1818e-06,5.002897e-06,5.002861e-06,396825,-0.039137006,-0.0471046,-0.053153116,0.5,1.8837281e-06,1.9077627e-06,0.00012455923,1,1,1
316218053,316217334,4325386,-0.0015970473,0.0014369995,-0.0072060674,0.34906584,2.9640335e-09,2.9931353e-09,3.637834e-09,4259850,0.0027469464,-0.044575997,-0.17959708,0.4,6.162355e-06,4.987227e-06,4.9870932e-06,396825,-0.039137006,-0.0471046,-0.053153116,0.5,1.8837281e-06,1.9077627e-06,0.00012455923,1,1,1
316429814,316429186,4325386,-0.0015899189,0.0014302692,-0.007189429,0.34906584,2.9695042e-09,2.9986906e-09,3.6507621e-09,4259850,0.0029050116,-0.04451151,-0.1779141,0.4,6.15e-06,4.9783766e-06,4.9782348e-06,396825,-0.039137006,-0.0471046,-0.053153116,0.5,1.8837281e-06,1.9077627e-06,0.00012455923,1,1,1
316758843,316758299,4325386,-0.0015908508,0.001429734,-0.0072170165,0.34906584,2.999683e-09,3.0293241e-09,3.7023287e-09,4259850,0.003198476,-0.044793494,-0.17689545,0.4,6.1814517e-06,5.0064477e-06,5.006377e-06,396825,-0.039137006,-0.0471046,-0.053153116,0.5,1.8837281e-06,1.9077627e-06,0.00012455923,1,1,1
316858059,316857395,4325386,-0.0015848149,0.0014245252,-0.0071857674,0.34906584,2.9989478e-09,3.028483e-09,3.6984176e-09,4259850,0.0032301804,-0.044640534,-0.17556958,0.4,6.1594174e-06,4.9886585e-06,4.9884984e-06,396825,-0.039137006,-0.0471046,-0.053153116,0.5,1.8837281e-06,1.9077627e-06,0.00012455923,1,1,1
317020076,317019665,4325386,-0.0015769342,0.0014164252,-0.0071576787,0.34906584,2.9977842e-09,3.0273972e-09,3.7038996e-09,4259850,0.0033623318,-0.04454471,-0.17404777,0.4,6.1416763e-06,4.9757823e-06,4.975667e-06,396825,-0.039137006,-0.0471046,-0.053153116,0.5,1.8837281e-06,1.9077627e-06,0.00012455923,1,1,1
317182798,317181982,4325386,-0.0015708107,0.0014099445,-0.007133062,0.34906584,3.0000942e-09,3.0298228e-09,3.7132075e-09,4259850,0.0034983566,-0.044499602,-0.17274734,0.4,6.1303754e-06,4.968259e-06,4.9681794e-06,396825,-0.039137006,-0.0471046,-0.053153116,0.5,1.8837281e-06,1.9077627e-06,0.00012455923,1,1,1
317507051,317506471,4325386,-0.0015723697,0.0014091601,-0.007140331,0.34906584,3.0320857e-09,3.0623262e-09,3.764684e-09,4259850,0.0038080998,-0.044796515,-0.17161505,0.4,6.159459e-06,4.9955593e-06,4.9955506e-06,396825,-0.039137006,-0.0471046,-0.053153116,0.5,1.8837281e-06,1.9077627e-06,0.00012455923,1,1,1
317670385,317668741,4325386,-0.001568218,0.0014059073,-0.007104314,0.34906584,3.0415508e-09,3.0717267e-09,3.7715138e-09,4259850,0.0038540307,-0.044711806,-0.17025492,0.4,6.146374e-06,4.9850164e-06,4.9848636e-06,396825,-0.039137006,-0.0471046,-0.053153116,0.5,1.8837281e-06,1.9077627e-06,0.00012455923,1,1,1
317831352,317831009,4325386,-0.001562169,0.0013985783,-0.0070726057,0.34906584,3.0436724e-09,3.0739797e-09,3.779667e-09,4259850,0.0039802794,-0.04466025,-0.16898344,0.4,6.132691e-06,4.9759933e-06,4.975886e-06,396825,-0.039137006,-0.0471046,-0.053153116,0.5,1.8837281e-06,1.9077627e-06,0.00012455923,1,1,1
318030192,318029340,4325386,-0.001577117,0.0014094833,-0.0071250023,0.34906584,3.0924112e-09,3.1232703e-09,3.8437764e-09,4259850,0.0041591916,-0.045220654,-0.16993573,0.4,6.2019935e-06,5.034495e-06,5.034419e-06,396825,-0.039137006,-0.0471046,-0.053153116,0.5,1.8837281e-06,1.9077627e-06,0.00012455923,1,1,1
318160706,318160141,4325386,-0.0015717226,0.0014021567,-0.0070933755,0.34906584,3.092619e-09,3.1236371e-09,3.8498067e-09,4259850,0.0042830934,-0.045182217,-0.1687148,0.4,6.189073e-06,5.0264325e-06,5.026395e-06,396825,-0.039137006,-0.0471046,-0.053153116,0.5,1.8837281e-06,1.9077627e-06,0.00012455923,1,1,1
318291270,318290772,4325386,-0.0015668542,0.0013976212,-0.0070560137,0.34906584,3.0961458e-09,3.127077e-09,3.850442e-09,4259850,0.004296576,-0.045065325,-0.16758272,0.4,6.1721394e-06,5.0127205e-06,5.012583e-06,396825,-0.039137006,-0.0471046,-0.053153116,0.5,1.8837281e-06,1.9077627e-06,0.00012455923,1,1,1
318318289,318317816,4325386,-0.0015546011,0.0013843421,-0.007004105,0.34906584,3.0719298e-09,3.1028837e-09,3.8287564e-09,4259850,0.004373917,-0.044808332,-0.16623592,0.4,6.1298206e-06,4.980877e-06,4.980877e-06,396825,-0.039137006,-0.0471046,-0.053153116,0.5,1.8837281e-06,1.9077627e-06,0.00012455923,1,1,1
318602576,318602074,4325386,-0.0015544317,0.0013814801,-0.0069644856,0.34906584,3.100431e-09,3.1316865e-09,3.863964e-09,4259850,0.0045376974,-0.044955783,-0.16496006,0.4,6.1404435e-06,4.99228e-06,4.99223e-06,396825,-0.039137006,-0.0471046,-0.053153116,0.5,1.8837281e-06,1.9077627e-06,0.00012455923,1,1,1
318809800,318809241,4325386,-0.0015533427,0.0013784221,-0.0069340165,0.34906584,3.117349e-09,3.1488923e-09,3.887367e-09,4259850,0.0046883025,-0.045054313,-0.16395062,0.4,6.145069e-06,4.9989417e-06,4.998885e-06,396825,-0.039137006,-0.0471046,-0.053153116,0.5,1.8837281e-06,1.9077627e-06,0.00012455923,1,1,1
318909267,318908298,4325386,-0.0015471183,0.0013731963,-0.00688655,0.34906584,3.1162766e-09,3.1477099e-09,3.8825503e-09,4259850,0.0046941596,-0.04490183,-0.16280809,0.4,6.1233945e-06,4.9813384e-06,4.9811833e-06,396825,-0.039137006,-0.0471046,-0.053153116,0.5,1.8837281e-06,1.9077627e-06,0.00012455923,1,1,1
319070985,319070565,4325386,-0.0015405455,0.0013656177,-0.006837485,0.34906584,3.1178686e-09,3.1494853e-09,3.8878096e-09,4259850,0.0048150644,-0.044830807,-0.16161871,0.4,6.105211e-06,4.969568e-06,4.9694613e-06,396825,-0.039137006,-0.0471046,-0.053153116,0.5,1.8837281e-06,1.9077627e-06,0.00012455923,1,1,1
319233468,319232879,4325386,-0.0015353544,0.0013600506,-0.006789645,0.34906584,3.1228684e-09,3.154712e-09,3.896724e-09,4259850,0.0049555735,-0.044806473,-0.1604493,0.4,6.093185e-06,4.962938e-06,4.962863e-06,396825,-0.039137006,-0.0471046,-0.053153116,0.5,1.8837281e-06,1.9077627e-06,0.00012455923,1,1,1
319575933,319575440,4325386,-0.0015345003,0.0013565049,-0.006734002,0.34906584,3.1555143e-09,3.188048e-09,3.9410177e-09,4259850,0.0052484134,-0.045027863,-0.15934718,0.4,6.1058076e-06,4.979963e-06,4.979959e-06,396825,-0.039137006,-0.0471046,-0.053153116,0.5,1.8837281e-06,1.9077627e-06,0.00012455923,1,1,1
319724758,319724224,4325386,-0.0015493023,0.0013701386,-0.006768144,0.34906584,3.2034546e-09,3.2363294e-09,3.9951993e-09,4259850,0.0053281253,-0.045505613,-0.16028427,0.4,6.169489e-06,5.0319377e-06,5.0317894e-06,396825,-0.039137006,-0.0471046,-0.053153116,0.5,1.8837281e-06,1.9077627e-06,0.00012455923,1,1,1
319832978,319832327,4325386,-0.0015401929,0.0013605196,-0.00671327,0.34906584,3.193718e-09,3.2267657e-09,3.9869317e-09,4259850,0.0054347366,-0.045341622,-0.15908681,0.4,6.1389787e-06,5.0106155e-06,5.010567e-06,396825,-0.039137006,-0.0471046,-0.053153116,0.5,1.8837281e-06,1.9077627e-06,0.00012455923,1,1,1
319927895,319926988,4325386,-0.0015329849,0.0013548102,-0.0066596717,0.34906584,3.1905747e-09,3.2234884e-09,3.979054e-09,4259850,0.005432861,-0.045161564,-0.15793054,0.4,6.1138394e-06,4.990119e-06,4.989972e-06,396825,-0.039137006,-0.0471046,-0.053153116,0.5,1.8837281e-06,1.9077627e-06,0.00012455923,1,1,1
319959245,319958544,4325386,-0.0015216916,0.0013428234,-0.0066128206,0.34906584,3.1678098e-09,3.2008387e-09,3.9570485e-09,4259850,0.005515723,-0.044902604,-0.15674204,0.4,6.071394e-06,4.9590853e-06,4.9590853e-06,396825,-0.039137006,-0.0471046,-0.053153116,0.5,1.8837281e-06,1.9077627e-06,0.00012455923,1,1,1
320040278,320039671,4325386,-0.0015333926,0.001353691,-0.0066468283,0.34906584,3.2015957e-09,3.234895e-09,3.9960923e-09,4259850,0.0055739745,-0.045273263,-0.15771855,0.4,6.120889e-06,4.999528e-06,4.99947e-06,396825,-0.039137006,-0.0471046,-0.053153116,0.5,1.8837281e-06,1.9077627e-06,0.00012455923,1,1,1
320234132,320233534,4325386,-0.0015249016,0.0013456157,-0.0065767514,0.34906584,3.2036462e-09,3.2371683e-09,3.998371e-09,4259850,0.0057078763,-0.04514674,-0.15625237,0.4,6.095234e-06,4.9823298e-06,4.9822756e-06,396825,-0.039137006,-0.0471046,-0.053153116,0.5,1.8837281e-06,1.9077627e-06,0.00012455923,1,1,1
320657976,320657195,4325386,-0.0015214054,0.0013412456,-0.006488675,0.34906584,3.2415426e-09,3.2758447e-09,4.0421533e-09,4259850,0.006019335,-0.045291647,-0.15486951,0.4,6.097784e-06,4.9921514e-06,4.992079e-06,396825,-0.039137006,-0.0471046,-0.053153116,0.5,1.8837281e-06,1.9077627e-06,0.00012455923,1,1,1
320896614,320896092,4325386,-0.0015134767,0.0013333393,-0.006415849,0.34906584,3.249843e-09,3.2844112e-09,4.04926e-09,4259850,0.006144007,-0.04517661,-0.15358976,0.4,6.0739644e-06,4.9765817e-06,4.976488e-06,396825,-0.039137006,-0.0471046,-0.053153116,0.5,1.8837281e-06,1.9077627e-06,0.00012455923,1,1,1
321036447,321035869,4325386,-0.0015256371,0.0013425741,-0.0064486116,0.34906584,3.2895093e-09,3.3247958e-09,4.099439e-09,4259850,0.00633737,-0.04562653,-0.15453404,0.4,6.126973e-06,5.0239987e-06,5.0239532e-06,396825,-0.039137006,-0.0471046,-0.053153116,0.5,1.8837281e-06,1.9077627e-06,0.00012455923,1,1,1
321225581,321225137,4325386,-0.0015154643,0.001332734,-0.0063760635,0.34906584,3.2871095e-09,3.3226228e-09,4.094657e-09,4259850,0.0064472468,-0.04542463,-0.15321477,0.4,6.092066e-06,4.9993555e-06,4.999333e-06,396825,-0.039137006,-0.0471046,-0.053153116,0.5,1.8837281e-06,1.9077627e-06,0.00012455923,1,1,1
321406172,321405677,4325386,-0.001505687,0.001322982,-0.0063048014,0.34906584,3.2841312e-09,3.319881e-09,4.0889594e-09,4259850,0.006556322,-0.04522537,-0.15174888,0.4,6.058052e-06,4.975385e-06,4.975367e-06,396825,-0.039137006,-0.0471046,-0.053153116,0.5,1.8837281e-06,1.9077627e-06,0.00012455923,1,1,1
321978357,321977885,4325386,-0.0015028295,0.001318626,-0.006204234,0.34906584,3.3375556e-09,3.3742247e-09,4.1414725e-09,4259850,0.0068475795,-0.04536174,-0.15053622,0.4,6.0610278e-06,4.985662e-06,4.985515e-06,396825,-0.039137006,-0.0471046,-0.053153116,0.5,1.8837281e-06,1.9077627e-06,0.00012455923,1,1,1
322217495,322216781,4325386,-0.0014960082,0.0013084572,-0.0061490303,0.34906584,3.342843e-09,3.3802847e-09,4.1488626e-09,4259850,0.0070599155,-0.045265984,-0.14952305,0.4,6.03594e-06,4.972607e-06,4.972607e-06,396825,-0.039137006,-0.0471046,-0.053153116,0.5,1.8837281e-06,1.9077627e-06,0.00012455923,1,1,1
322344250,322343132,4325386,-0.0015080491,0.001319381,-0.0061820676,0.34906584,3.3841254e-09,3.421887e-09,4.1938373e-09,4259850,0.0071281283,-0.04565173,-0.15050076,0.4,6.0870634e-06,5.014744e-06,5.014642e-06,396825,-0.039137006,-0.0471046,-0.053153116,0.5,1.8837281e-06,1.9077627e-06,0.00012455923,1,1,1
322870877,322870364,4325386,-0.0014919521,0.0012987525,-0.006073388,0.34906584,3.3930136e-09,3.4318082e-09,4.196718e-09,4259850,0.0073902886,-0.04529242,-0.14817153,0.4,6.023525e-06,4.9731484e-06,4.9731184e-06,396825,-0.039137006,-0.0471046,-0.053153116,0.5,1.8837281e-06,1.9077627e-06,0.00012455923,1,1,1
323524432,323524066,4325386,-0.0015089841,0.001306308,-0.006122351,0.34906584,3.4875154e-09,3.5281855e-09,4.297671e-09,4259850,0.0077596693,-0.04586272,-0.14903179,0.4,6.088288e-06,5.0364024e-06,5.036345e-06,396825,-0.039137006,-0.0471046,-0.053153116,0.5,1.8837281e-06,1.9077627e-06,0.00012455923,1,1,1
