timestamp,timestamp_sample,control[0],control[1],control[2],control[3],control[4],control[5],control[6],control[7]
293535239,293535009,-0.0017708775,0.00011816251,0.0013919857,0.0,0.0,0.0,0.0,-1.0
293587668,293587437,-0.0017783211,4.261128e-05,0.0012619778,0.0,0.0,0.0,0.0,-1.0
293636354,293636121,-0.0017588253,0.00013554239,0.0012949042,0.0,0.0,0.0,0.0,-1.0
293685036,293684805,-0.0018383311,-4.797398e-05,0.001090199,0.0,0.0,0.0,0.0,-1.0
293737458,293737229,-0.0019795657,5.9791877e-05,0.0011959105,0.0,0.0,0.0,0.0,-1.0
293787388,293787160,-0.0016808796,0.00017425774,0.0008504086,0.0,0.0,0.0,0.0,-1.0
293836116,293835882,-0.0016893388,-3.7601745e-05,0.000773578,0.0,0.0,0.0,0.0,-1.0
293888511,293888271,-0.0017905117,-6.142631e-05,0.0012349755,0.0,0.0,0.0,0.0,-1.0
293937226,293936985,-0.0019362647,6.675459e-05,0.0010365321,0.0,0.0,0.0,0.0,-1.0
293985868,293985636,-0.0018565889,0.0002645472,0.0015762451,0.0,0.0,0.0,0.0,-1.0
294035799,294035568,-0.0019641684,0.00012792305,0.0012949521,0.0,0.0,0.0,0.0,-1.0
294088227,294087995,-0.0019406602,5.9363865e-05,0.0012781046,0.0,0.0,0.0,0.0,-1.0
294136908,294136677,-0.0019701715,-4.7798112e-05,0.001105863,0.0,0.0,0.0,0.0,-1.0
294185592,294185361,-0.0016325604,7.4792326e-05,0.0011784787,0.0,0.0,0.0,0.0,-1.0
294235535,294235293,-0.0020400626,-0.00021574913,0.0014967652,0.0,0.0,0.0,0.0,-1.0
294287951,294287720,-0.0019213705,-0.00012571689,0.0020406577,0.0,0.0,0.0,0.0,-1.0
294336633,294336403,-0.0014131003,0.00020980557,0.0019107781,0.0,0.0,0.0,0.0,-1.0
294385317,294385083,-0.001360242,4.592532e-05,0.0012222665,0.014205607,0.0,0.0,0.0,-1.0
294437748,294437515,-0.0019323307,-7.400883e-05,0.0017449249,0.016448598,0.0,0.0,0.0,-1.0
294486419,294486194,-0.0013925196,0.0001058913,0.0011646465,0.017196262,0.0,0.0,0.0,-1.0
294536347,294536125,-0.0019921253,9.073603e-05,0.0024168117,0.017196262,0.0,0.0,0.0,-1.0
294588778,294588552,-0.0015789772,-9.229067e-06,0.0027524827,0.017196262,0.0,0.0,0.0,-1.0
294637473,294637235,-0.0014710127,0.00021169029,0.0050295047,0.017196262,0.0,0.0,0.0,-1.0
294686148,294685919,-0.0021246367,0.00015182614,0.0064131953,0.038971964,0.0,0.0,0.0,-1.0
294736080,294735849,-0.00178713,-0.00043572378,0.0063553443,0.045490652,0.0,0.0,0.0,-1.0
294788511,294788277,-0.0022456516,-0.0012071569,0.006623245,0.045490652,0.0,0.0,0.0,-1.0
294837196,294836970,-0.004436553,-0.004530179,0.0061576213,0.045490652,0.0,0.0,0.0,-1.0
294885868,294885642,-0.003112158,0.0058897,0.0027964327,0.045490652,0.0,0.0,0.0,-1.0
294938309,294938072,-0.0029111481,-0.0047790837,0.00469264,0.045490652,0.0,0.0,0.0,-1.0
294986982,294986753,-0.0021133318,-0.017195437,0.0024208818,0.045490652,0.0,0.0,0.0,-1.0
295036920,295036684,-0.0039180354,0.011580015,-0.00037937245,0.045490652,0.0,0.0,0.0,-1.0
295085592,295085367,-0.0034208694,0.015484375,0.0001392497,0.045490652,0.0,0.0,0.0,-1.0
295138020,295137794,-0.009442147,-0.027297573,0.006395206,0.045490652,0.0,0.0,0.0,-1.0
295186723,295186479,-0.0033727705,0.006109954,0.005627118,0.045490652,0.0,0.0,0.0,-1.0
295235392,295235160,0.0006102907,0.014830171,0.008879778,0.045490652,0.0,0.0,0.0,-1.0
295285325,295285091,-0.01394044,-0.023034997,0.008979653,0.045490652,0.0,0.0,0.0,-1.0
295337754,295337520,-0.008944867,-0.009837935,0.0027283495,0.045490652,0.0,0.0,0.0,-1.0
295386445,295386206,-0.0068352465,0.014187821,0.0019290711,0.054182243,0.0,0.0,0.0,-1.0
295435115,295434884,-0.00055018335,0.011250478,0.001166895,0.062149536,0.0,0.0,0.0,-1.0
295485046,295484815,-0.015168524,-0.037430994,0.0072683506,0.062149536,0.0,0.0,0.0,-1.0
295537487,295537245,-0.0056181904,0.0019871714,-0.0003674814,0.062149536,0.0,0.0,0.0,-1.0
295586157,295585926,-0.0069726063,0.0072347494,-0.0067864154,0.06577103,0.0,0.0,0.0,-1.0
295638582,295638353,-0.0072320392,-0.010441424,-0.007963939,0.068668224,0.0,0.0,0.0,-1.0
295687269,295687036,-0.0031713645,-0.011448825,-0.0069402796,0.070116825,0.0,0.0,0.0,-1.0
295735965,295735727,0.00030553757,-0.012597616,-0.010463512,0.073738314,0.0,0.0,0.0,-1.0
295785888,295785655,-0.0021347478,-0.011160748,-0.01059572,0.073738314,0.0,0.0,0.0,-1.0
295835822,295835582,0.0024277295,-0.0038951717,-0.009550188,0.07591122,0.0,0.0,0.0,-1.0
295886983,295886760,0.004005018,0.0011330977,-0.009082329,0.07735981,0.0,0.0,0.0,-1.0
295935679,295935444,-0.0036817577,-0.01992313,-0.011868685,0.07735981,0.0,0.0,0.0,-1.0
295988102,295987876,-0.00675608,-0.031218946,-0.011782777,0.07735981,0.0,0.0,0.0,-1.0
296038036,296037802,-0.0014026817,0.0068943244,-0.01347244,0.07735981,0.0,0.0,0.0,-1.0
296086716,296086484,0.003913254,0.020771582,-0.013439192,0.07735981,0.0,0.0,0.0,-1.0
296135395,296135167,-0.00052560924,-0.006465256,-0.014030839,0.07735981,0.0,0.0,0.0,-1.0
296187822,296187595,-0.002221414,-0.026565753,-0.012828989,0.07735981,0.0,0.0,0.0,-1.0
296236512,296236279,0.0015506417,0.013607017,-0.01128224,0.07735981,0.0,0.0,0.0,-1.0
296286437,296286209,-0.0003507905,0.038716063,-0.011126151,0.07735981,0.0,0.0,0.0,-1.0
296338865,296338637,0.0038053116,0.001040895,-0.011051607,0.07735981,0.0,0.0,0.0,-1.0
296387551,296387319,0.001845943,-0.008901096,-0.0096658105,0.07735981,0.0,0.0,0.0,-1.0
296436227,296436002,0.0028153514,-0.008561329,-0.008303576,0.07735981,0.0,0.0,0.0,-1.0
296484977,296484747,-0.0073766857,0.0056190845,-0.00904177,0.07880841,0.0,0.0,0.0,-1.0
296538588,296538361,-0.0039902274,0.020918872,-0.01253237,0.0846028,0.0,0.0,0.0,-1.0
296587279,296587044,-0.0042142305,0.008717375,-0.011288928,0.0896729,0.0,0.0,0.0,-1.0
296635951,296635726,-0.0035365087,-0.0066307923,-0.014157795,0.091121495,0.0,0.0,0.0,-1.0
296688380,296688154,-0.0036918959,0.020233996,-0.014676504,0.091845796,0.0,0.0,0.0,-1.0
296737069,296736838,0.0031679308,0.014771699,-0.014330983,0.091845796,0.0,0.0,0.0,-1.0
296786997,296786768,0.0061299335,0.000793031,-0.013445329,0.091845796,0.0,0.0,0.0,-1.0
296835682,296835451,-0.002144937,-0.003805801,-0.013427923,0.091845796,0.0,0.0,0.0,-1.0
296888103,296887878,-0.009211853,0.013859553,-0.0130604915,0.091845796,0.0,0.0,0.0,-1.0
296936786,296936561,-0.008657034,-0.0037986815,-0.0122330785,0.091845796,0.0,0.0,0.0,-1.0
296985486,296985245,-0.008842995,-0.007312583,-0.009249074,0.091845796,0.0,0.0,0.0,-1.0
297037897,297037673,-0.0070638596,0.0031929403,-0.004671552,0.091845796,0.0,0.0,0.0,-1.0
297087825,297087603,-0.009196759,-0.012729967,-0.0049031316,0.091845796,0.0,0.0,0.0,-1.0
297136512,297136286,-0.0094378665,-0.015991317,-0.0030327828,0.091845796,0.0,0.0,0.0,-1.0
297185200,297184970,-0.0022536013,-0.012468075,-0.0030694536,0.091845796,0.0,0.0,0.0,-1.0
297237624,297237396,0.00010486999,-0.0033230733,-0.002619726,0.091845796,0.0,0.0,0.0,-1.0
297287556,297287327,-0.008233391,-0.00024204847,-0.0023029065,0.091845796,0.0,0.0,0.0,-1.0
297336244,297336014,0.0030074872,-0.014302726,-0.002406119,0.09691589,0.0,0.0,0.0,-1.0
297384923,297384694,0.00076325703,-0.0036616768,-0.004183872,0.10198598,0.0,0.0,0.0,-1.0
297437345,297437120,-0.001273138,0.011474375,-0.0058812923,0.103434585,0.0,0.0,0.0,-1.0
297486081,297485851,-0.006016002,0.012479598,-0.004489644,0.10488318,0.0,0.0,0.0,-1.0
297535960,297535735,-0.001227614,-0.0013608944,-0.007956425,0.10705608,0.0,0.0,0.0,-1.0
297588404,297588165,0.001991942,-0.010740592,-0.011213264,0.11067758,0.0,0.0,0.0,-1.0
297637068,297636845,0.0025511242,0.006825,-0.012790109,0.11067758,0.0,0.0,0.0,-1.0
297685759,297685530,-0.0037339544,0.00938141,-0.014439695,0.11067758,0.0,0.0,0.0,-1.0
297738191,297737957,-0.0044266214,-0.012177671,-0.016966727,0.11067758,0.0,0.0,0.0,-1.0
297786870,297786639,-0.0025185335,-0.013433689,-0.01834696,0.11067758,0.0,0.0,0.0,-1.0
297836802,297836571,-0.0032326698,-0.0018317307,-0.019081343,0.11067758,0.0,0.0,0.0,-1.0
297885478,297885252,0.005243815,-0.007123878,-0.01731484,0.11067758,0.0,0.0,0.0,-1.0
297937911,297937681,-0.00011211052,-0.002157687,-0.01901458,0.11067758,0.0,0.0,0.0,-1.0
297986588,297986363,-0.006580165,0.0057162237,-0.016694194,0.11067758,0.0,0.0,0.0,-1.0
298036537,298036295,0.00082296197,-0.0018451125,-0.015626239,0.10560747,0.0,0.0,0.0,-1.0
298088955,298088724,0.005565299,-0.005232116,-0.017477265,0.09836449,0.0,0.0,0.0,-1.0
298137635,298137406,-0.002884241,0.0006777831,-0.019572325,0.09764019,0.0,0.0,0.0,-1.0
298186326,298186087,-0.0059642512,0.0055205487,-0.020371184,0.09764019,0.0,0.0,0.0,-1.0
298234998,298234773,-0.0006300722,-0.0009313709,-0.020795723,0.09836449,0.0,0.0,0.0,-1.0
298287435,298287199,0.0033328559,-0.004627134,-0.021900045,0.09836449,0.0,0.0,0.0,-1.0
298337356,298337129,-0.0010100653,-0.0015920233,-0.02384367,0.09908878,0.0,0.0,0.0,-1.0
298386042,298385812,-0.0029393437,-0.0005110019,-0.025814211,0.10198598,0.0,0.0,0.0,-1.0
298438476,298438240,0.0014854476,-0.004195263,-0.027615268,0.10271028,0.0,0.0,0.0,-1.0
298487157,298486923,0.0023610003,-0.0010349867,-0.029072495,0.10271028,0.0,0.0,0.0,-1.0
298537085,298536855,0.001947366,-0.00048222014,-0.029631963,0.10271028,0.0,0.0,0.0,-1.0
298585767,298585537,0.0003497511,-0.00347833,-0.030912045,0.10271028,0.0,0.0,0.0,-1.0
298638200,298637965,-0.0029720482,0.004046638,-0.030539766,0.10271028,0.0,0.0,0.0,-1.0
298686883,298686653,-0.0031634513,0.004618766,-0.030794518,0.10271028,0.0,0.0,0.0,-1.0
298735558,298735331,-0.003239763,-0.0022016086,-0.028412268,0.09836449,0.0,0.0,0.0,-1.0
298785492,298785262,-0.00069989974,-0.0028597745,-0.02702057,0.09691589,0.0,0.0,0.0,-1.0
298837920,298837689,0.00072156393,0.0024737357,-0.025732718,0.09691589,0.0,0.0,0.0,-1.0
298886614,298886375,-0.0012524272,0.00780331,-0.025550507,0.09691589,0.0,0.0,0.0,-1.0
298935279,298935055,0.0005198413,0.005157688,-0.024839316,0.09691589,0.0,0.0,0.0,-1.0
298987714,298987483,-0.0007815385,0.0017459184,-0.023977878,0.09691589,0.0,0.0,0.0,-1.0
299036412,299036169,-0.0010835652,0.0021984968,-0.022082314,0.0838785,0.0,0.0,0.0,-1.0
299086336,299086097,0.002295195,0.00837232,-0.02051918,0.0838785,0.0,0.0,0.0,-1.0
299135005,299134780,0.006089319,0.009338957,-0.017750831,0.0896729,0.0,0.0,0.0,-1.0
299187472,299187247,9.9218574e-05,-0.005262191,-0.01645786,0.0903972,0.0,0.0,0.0,-1.0
299236122,299235891,-0.004284487,-0.003833291,-0.01635664,0.0903972,0.0,0.0,0.0,-1.0
299286071,299285835,0.00028205523,0.001167018,-0.016838176,0.091121495,0.0,0.0,0.0,-1.0
299338485,299338249,0.00071198563,0.008539176,-0.01724968,0.091121495,0.0,0.0,0.0,-1.0
299387160,299386933,0.003840001,0.0012568444,-0.017597334,0.09474299,0.0,0.0,0.0,-1.0
299435844,299435615,0.0070665986,-0.00039708157,-0.017853053,0.096191585,0.0,0.0,0.0,-1.0
299488276,299488043,0.005945908,0.0049219807,-0.017878849,0.096191585,0.0,0.0,0.0,-1.0
299537010,299536784,-0.0015084322,0.005687089,-0.017426765,0.096191585,0.0,0.0,0.0,-1.0
299586882,299586657,-0.0049880156,0.005345898,-0.017380904,0.09691589,0.0,0.0,0.0,-1.0
299635581,299635342,-0.0037614263,0.005909815,-0.017587792,0.10053739,0.0,0.0,0.0,-1.0
299687992,299687767,-0.0028080682,0.008183629,-0.017573575,0.10415888,0.0,0.0,0.0,-1.0
299736683,299736450,-0.004278021,0.008814263,-0.016601956,0.10560747,0.0,0.0,0.0,-1.0
299785367,299785134,-0.0076655895,0.012713313,-0.016384104,0.10560747,0.0,0.0,0.0,-1.0
299839043,299838812,-0.009273773,0.009793969,-0.01744255,0.10560747,0.0,0.0,0.0,-1.0
299887720,299887492,-0.002764801,0.00040735598,-0.018841432,0.10560747,0.0,0.0,0.0,-1.0
299936409,299936175,0.0037080643,-0.00077206537,-0.019608865,0.10705608,0.0,0.0,0.0,-1.0
299986338,299986107,0.0012252831,0.00093420135,-0.019842299,0.10922897,0.0,0.0,0.0,-1.0
300037512,300037286,0.0012046527,0.0014341807,-0.019500365,0.108504675,0.0,0.0,0.0,-1.0
300087448,300087217,0.0035126156,0.0032859228,-0.018318525,0.10271028,0.0,0.0,0.0,-1.0
300136128,300135900,0.0026534528,0.0016450621,-0.018204495,0.10053739,0.0,0.0,0.0,-1.0
300188552,300188327,0.0003771588,-0.00030890605,-0.018460177,0.10126168,0.0,0.0,0.0,-1.0
300237235,300237011,-0.001336535,-0.0018391946,-0.018293956,0.10126168,0.0,0.0,0.0,-1.0
300285924,300285697,0.0028752945,-0.0005234137,-0.018317439,0.10126168,0.0,0.0,0.0,-1.0
300335851,300335625,0.004969397,-0.000389857,-0.019021558,0.10271028,0.0,0.0,0.0,-1.0
300388285,300388052,0.00058276864,0.004468939,-0.018930532,0.10705608,0.0,0.0,0.0,-1.0
300437017,300436785,-0.0015171225,0.004748349,-0.019168198,0.10705608,0.0,0.0,0.0,-1.0
300485644,300485418,-0.0006777822,0.0027284357,-0.01946211,0.10560747,0.0,0.0,0.0,-1.0
300535579,300535349,1.3139355e-05,0.0020904727,-0.019794831,0.10271028,0.0,0.0,0.0,-1.0
300588014,300587777,-0.00041944298,0.002823712,-0.01996212,0.09691589,0.0,0.0,0.0,-1.0
300636695,300636461,-0.0017649184,0.0055786325,-0.01990174,0.09908878,0.0,0.0,0.0,-1.0
300685371,300685143,-0.0030996967,0.00386795,-0.020011308,0.10560747,0.0,0.0,0.0,-1.0
300737806,300737571,-0.0039250576,0.0029523668,-0.019805744,0.10560747,0.0,0.0,0.0,-1.0
300786484,300786259,-0.0025339338,0.0023204267,-0.020015532,0.10633177,0.0,0.0,0.0,-1.0
300836413,300836185,-0.0029412354,0.0037727777,-0.019665532,0.10633177,0.0,0.0,0.0,-1.0
300888849,300888615,0.0005654673,0.0020173686,-0.019264733,0.10633177,0.0,0.0,0.0,-1.0
300937531,300937298,0.003106786,0.0006188837,-0.018972438,0.10271028,0.0,0.0,0.0,-1.0
300986203,300985978,0.0027133261,0.00080489897,-0.018656442,0.09908878,0.0,0.0,0.0,-1.0
301034892,301034662,-0.0009860204,0.0013737007,-0.01830471,0.09981308,0.0,0.0,0.0,-1.0
301088576,301088338,0.00018917242,0.001820154,-0.017625144,0.10053739,0.0,0.0,0.0,-1.0
301137248,301137023,0.0014142996,0.0023698772,-0.016983384,0.10053739,0.0,0.0,0.0,-1.0
301185928,301185702,0.0012361684,0.0027193525,-0.016003877,0.10053739,0.0,0.0,0.0,-1.0
301238417,301238186,-0.0010455042,0.0015882886,-0.015728164,0.10053739,0.0,0.0,0.0,-1.0
301287045,301286815,-0.0017395777,0.0028154785,-0.014858311,0.10198598,0.0,0.0,0.0,-1.0
301336969,301336745,0.00021874916,0.0074449675,-0.014968182,0.10198598,0.0,0.0,0.0,-1.0
301385663,301385428,0.0019601004,0.0060222754,-0.014847758,0.10198598,0.0,0.0,0.0,-1.0
301438093,301437860,0.00096952,0.00071328616,-0.014641966,0.10198598,0.0,0.0,0.0,-1.0
301486764,301486539,0.0018524753,-0.0019031334,-0.01495649,0.10198598,0.0,0.0,0.0,-1.0
301535447,301535222,-0.0014710363,0.0014309806,-0.014720621,0.10198598,0.0,0.0,0.0,-1.0
301587887,301587659,-0.0020131536,0.0013574566,-0.014897707,0.10198598,0.0,0.0,0.0,-1.0
301637809,301637581,-0.00046104586,0.0018297061,-0.015633233,0.10198598,0.0,0.0,0.0,-1.0
301686493,301686264,0.0012286849,0.0013092802,-0.015879562,0.10198598,0.0,0.0,0.0,-1.0
301735180,301734947,0.0006106888,0.0005004919,-0.015999444,0.10198598,0.0,0.0,0.0,-1.0
301787610,301787380,0.00033417656,0.0013885223,-0.016323762,0.10198598,0.0,0.0,0.0,-1.0
301837546,301837308,-0.00028566676,0.0015642284,-0.016245611,0.10198598,0.0,0.0,0.0,-1.0
301886216,301885988,0.0002900609,0.0017277352,-0.0165778,0.10198598,0.0,0.0,0.0,-1.0
301938644,301938416,0.0018332854,0.00213916,-0.01677819,0.10198598,0.0,0.0,0.0,-1.0
301987328,301987099,0.002633816,0.001636822,-0.017001184,0.10198598,0.0,0.0,0.0,-1.0
302037267,302037032,0.0032553012,0.00015363665,-0.017428402,0.10198598,0.0,0.0,0.0,-1.0
302085938,302085713,0.0031894364,0.0018394259,-0.017279783,0.10198598,0.0,0.0,0.0,-1.0
302138396,302138169,-0.0003211855,0.0034375188,-0.017428478,0.10198598,0.0,0.0,0.0,-1.0
302187061,302186830,-0.0030850645,0.0026599038,-0.017679458,0.10271028,0.0,0.0,0.0,-1.0
302235738,302235508,-0.0041134176,0.0035924753,-0.017826714,0.103434585,0.0,0.0,0.0,-1.0
302288158,302287934,0.0007088829,0.004170361,-0.018285349,0.103434585,0.0,0.0,0.0,-1.0
302336857,302336623,0.0039121937,0.0036446778,-0.018185697,0.103434585,0.0,0.0,0.0,-1.0
302386776,302386549,0.0034600287,0.0020858215,-0.017612,0.103434585,0.0,0.0,0.0,-1.0
302435459,302435232,0.0034156663,0.0035733832,-0.01811955,0.103434585,0.0,0.0,0.0,-1.0
302487913,302487680,0.0026821017,0.004661604,-0.018033003,0.103434585,0.0,0.0,0.0,-1.0
302536582,302536343,0.0025287964,0.0029104308,-0.018228281,0.103434585,0.0,0.0,0.0,-1.0
302586515,302586274,0.0040365225,0.0028792492,-0.018631281,0.103434585,0.0,0.0,0.0,-1.0
302638927,302638702,0.003417493,0.003968619,-0.01828161,0.103434585,0.0,0.0,0.0,-1.0
302687621,302687385,-0.00089703564,0.0020536617,-0.018433448,0.103434585,0.0,0.0,0.0,-1.0
302736299,302736069,-0.0013918922,0.002497262,-0.018575858,0.09908878,0.0,0.0,0.0,-1.0
302784977,302784751,-0.0007246348,0.0042213644,-0.018948779,0.096191585,0.0,0.0,0.0,-1.0
302836171,302835934,-0.0009944545,0.0048111863,-0.018902702,0.096191585,0.0,0.0,0.0,-1.0
302887333,302887110,-0.0009602043,0.0025492506,-0.018991604,0.09836449,0.0,0.0,0.0,-1.0
302936030,302935794,-0.0013317766,0.0010569482,-0.019611182,0.09981308,0.0,0.0,0.0,-1.0
302988450,302988221,0.00013151852,0.0023925963,-0.020278158,0.09981308,0.0,0.0,0.0,-1.0
303037133,303036904,0.00014733672,0.004440484,-0.020235918,0.09981308,0.0,0.0,0.0,-1.0
303087068,303086833,-0.0011537821,0.0038768242,-0.020067383,0.09981308,0.0,0.0,0.0,-1.0
303135748,303135519,-0.0022548859,0.0029805263,-0.020668883,0.09981308,0.0,0.0,0.0,-1.0
303188170,303187945,-0.0026341616,0.0014876563,-0.021064287,0.10633177,0.0,0.0,0.0,-1.0
303236864,303236629,0.001019588,0.0032481526,-0.021007512,0.11140187,0.0,0.0,0.0,-1.0
303285544,303285312,0.003330754,0.0040252637,-0.021089282,0.11140187,0.0,0.0,0.0,-1.0
303337966,303337739,0.0007304532,0.0031044208,-0.021151932,0.11140187,0.0,0.0,0.0,-1.0
303387894,303387671,-0.00022882267,0.002349129,-0.021237437,0.11140187,0.0,0.0,0.0,-1.0
303436580,303436354,0.00085645035,0.0045561786,-0.021505667,0.11140187,0.0,0.0,0.0,-1.0
303485275,303485038,0.0008454135,0.0052922787,-0.021814538,0.11140187,0.0,0.0,0.0,-1.0
303537694,303537464,0.0012218211,0.00433685,-0.021637337,0.11140187,0.0,0.0,0.0,-1.0
303586428,303586199,0.00012476402,0.004376949,-0.021892928,0.10995327,0.0,0.0,0.0,-1.0
303636314,303636079,-0.000116009185,0.004930948,-0.021439573,0.10633177,0.0,0.0,0.0,-1.0
303688733,303688506,0.0010209291,0.005033364,-0.021551054,0.103434585,0.0,0.0,0.0,-1.0
303737423,303737190,0.0018018547,0.0054889396,-0.021697147,0.10198598,0.0,0.0,0.0,-1.0
303786112,303785874,0.000115910094,0.0062580807,-0.021626106,0.10198598,0.0,0.0,0.0,-1.0
303836048,303835808,-0.001837684,0.005908687,-0.021679668,0.10126168,0.0,0.0,0.0,-1.0
303888456,303888231,-0.00046842778,0.0045661405,-0.021242315,0.10126168,0.0,0.0,0.0,-1.0
303937142,303936915,0.0008359454,0.0036443295,-0.02151703,0.10126168,0.0,0.0,0.0,-1.0
303985838,303985613,0.0017796769,0.0023262869,-0.021446431,0.10126168,0.0,0.0,0.0,-1.0
304038249,304038025,0.0013296015,0.0034729363,-0.021348441,0.10126168,0.0,0.0,0.0,-1.0
304086933,304086708,-0.0007552106,0.004514671,-0.021130092,0.09836449,0.0,0.0,0.0,-1.0
304136868,304136639,-0.0005712978,0.006064397,-0.021146815,0.09836449,0.0,0.0,0.0,-1.0
304185549,304185323,-0.00028956603,0.0059364024,-0.020303695,0.09836449,0.0,0.0,0.0,-1.0
304237979,304237750,-2.235797e-06,0.005736385,-0.01973975,0.09908878,0.0,0.0,0.0,-1.0
304286667,304286434,0.0009090316,0.005311276,-0.01932612,0.09908878,0.0,0.0,0.0,-1.0
304335347,304335117,0.0015270107,0.0030441622,-0.019506816,0.09908878,0.0,0.0,0.0,-1.0
304385280,304385047,0.0010577803,0.0023770106,-0.019190382,0.09908878,0.0,0.0,0.0,-1.0
304437704,304437475,0.0007212128,0.005788545,-0.018608328,0.09908878,0.0,0.0,0.0,-1.0
304486384,304486158,0.00042519713,0.0052263713,-0.01849123,0.09908878,0.0,0.0,0.0,-1.0
304535071,304534842,0.000522659,0.0024190121,-0.018430477,0.10053739,0.0,0.0,0.0,-1.0
304587495,304587269,0.00048151118,0.001782663,-0.017052688,0.10126168,0.0,0.0,0.0,-1.0
304637429,304637201,0.00022260647,0.005353138,-0.015772685,0.10198598,0.0,0.0,0.0,-1.0
304686109,304685884,-0.00042750867,0.0050712195,-0.013855116,0.10488318,0.0,0.0,0.0,-1.0
304738596,304738367,-0.00095459435,0.0026541864,-0.0034308855,0.107780375,0.0,0.0,0.0,-1.0
304787221,304786995,0.0005002915,0.0033354082,-0.002193614,0.107780375,0.0,0.0,0.0,-1.0
304835905,304835678,-6.1262115e-05,0.0039990754,-0.0008456019,0.108504675,0.0,0.0,0.0,-1.0
304885843,304885615,-0.00010163465,0.003960214,0.012727297,0.11067758,0.0,0.0,0.0,-1.0
304938267,304938037,0.00047774706,0.0020878692,0.023873648,0.11067758,0.0,0.0,0.0,-1.0
304986949,304986720,-0.00012770822,0.0040944484,0.027456071,0.11067758,0.0,0.0,0.0,-1.0
305035635,305035405,-0.00033896105,0.004877796,0.024461735,0.11067758,0.0,0.0,0.0,-1.0
305088062,305087830,0.0012981588,0.0027172065,0.021451907,0.11067758,0.0,0.0,0.0,-1.0
305137994,305137762,0.001216687,0.0032358726,0.012806515,0.11067758,0.0,0.0,0.0,-1.0
305186674,305186444,1.74018e-05,0.004906398,-0.0011455469,0.107780375,0.0,0.0,0.0,-1.0
305235352,305235128,-0.00019974647,0.005198603,-0.0044067386,0.10705608,0.0,0.0,0.0,-1.0
305287785,305287555,0.0007050416,0.0038347542,-0.008896886,0.10560747,0.0,0.0,0.0,-1.0
305336470,305336239,0.00016249758,0.0035183218,-0.020561615,0.09981308,0.0,0.0,0.0,-1.0
305386408,305386174,-0.00096863415,0.0026647528,-0.044172294,0.095467284,0.0,0.0,0.0,-1.0
305438835,305438612,-0.0007918487,0.004443456,-0.04503899,0.095467284,0.0,0.0,0.0,-1.0
305487508,305487281,-0.000494665,0.004845788,-0.044256546,0.096191585,0.0,0.0,0.0,-1.0
305536199,305535964,0.00038630934,0.0035332022,-0.04332996,0.096191585,0.0,0.0,0.0,-1.0
305584887,305584655,-9.407074e-05,0.0034791608,-0.041723605,0.09908878,0.0,0.0,0.0,-1.0
305638583,305638356,-4.319689e-05,0.0068738535,-0.040748306,0.10488318,0.0,0.0,0.0,-1.0
305687234,305687006,-0.0014519771,0.0038100572,-0.039832275,0.10633177,0.0,0.0,0.0,-1.0
305735913,305735689,-0.0030505683,0.0010017122,-0.038543757,0.10633177,0.0,0.0,0.0,-1.0
305788345,305788117,-0.002870716,0.0025562088,-0.037002962,0.10633177,0.0,0.0,0.0,-1.0
305837037,305836802,-0.0015038664,0.0050203926,-0.03551562,0.11140187,0.0,0.0,0.0,-1.0
305886965,305886732,-0.0011215651,0.003790214,-0.034227043,0.11502337,0.0,0.0,0.0,-1.0
305935641,305935414,0.0006868737,0.004840187,-0.03249332,0.11792056,0.0,0.0,0.0,-1.0
305988068,305987842,0.0017510311,0.005071617,-0.031400394,0.11864486,0.0,0.0,0.0,-1.0
306036754,306036525,0.00090552453,0.003814717,-0.030114532,0.11502337,0.0,0.0,0.0,-1.0
306085443,306085208,-0.000116884985,0.0036504187,-0.028655078,0.11067758,0.0,0.0,0.0,-1.0
306135376,306135151,0.00021089867,0.0031525358,-0.027484773,0.10271028,0.0,0.0,0.0,-1.0
306187795,306187567,-0.0002637059,0.0042939056,-0.026313828,0.10271028,0.0,0.0,0.0,-1.0
306236480,306236250,-0.00063546654,0.005685971,-0.025605727,0.10922897,0.0,0.0,0.0,-1.0
306285159,306284933,-0.00039188797,0.0047195153,-0.024599407,0.11140187,0.0,0.0,0.0,-1.0
306337589,306337361,-0.00029510015,0.002151653,-0.023887504,0.11140187,0.0,0.0,0.0,-1.0
306387532,306387293,-0.00041713624,0.004175131,-0.023103125,0.11140187,0.0,0.0,0.0,-1.0
306436212,306435976,-0.0016391621,0.0069110855,-0.022569342,0.11140187,0.0,0.0,0.0,-1.0
306488638,306488406,0.00081983855,0.0054556783,-0.022126254,0.10560747,0.0,0.0,0.0,-1.0
306537313,306537086,0.0020228524,0.002569987,-0.021765606,0.10271028,0.0,0.0,0.0,-1.0
306586007,306585771,0.0008741553,0.0036062375,-0.021791287,0.10271028,0.0,0.0,0.0,-1.0
306635939,306635704,-0.00059486856,0.0066721393,-0.021473227,0.10415888,0.0,0.0,0.0,-1.0
306688365,306688133,-0.0003281778,0.0053331004,-0.021374624,0.107780375,0.0,0.0,0.0,-1.0
306737041,306736811,0.0004516269,0.0033981057,-0.021033496,0.107780375,0.0,0.0,0.0,-1.0
306785723,306785495,-0.0003837298,0.0039556576,-0.020691853,0.107780375,0.0,0.0,0.0,-1.0
306838148,306837922,0.00041047024,0.0026089062,-0.018814834,0.107780375,0.0,0.0,0.0,-1.0
306888078,306887854,-0.0007224461,0.0034807324,-0.014352748,0.107780375,0.0,0.0,0.0,-1.0
306936769,306936537,0.0026685426,0.003968886,-0.010013653,0.10705608,0.0,0.0,0.0,-1.0
306985456,306985221,0.0026669146,0.0031002993,-0.004504652,0.10705608,0.0,0.0,0.0,-1.0
307037875,307037652,0.00035220542,0.002686593,0.0054269377,0.10633177,0.0,0.0,0.0,-1.0
307086558,307086331,-0.0004881846,0.0027132055,0.0057491567,0.103434585,0.0,0.0,0.0,-1.0
307136492,307136262,-9.4912095e-05,0.0027938012,0.006420712,0.096191585,0.0,0.0,0.0,-1.0
307188923,307188691,0.00021889707,0.0037456485,0.009246939,0.091845796,0.0,0.0,0.0,-1.0
307237599,307237373,0.0021609298,0.0046757506,0.008394212,0.091845796,0.0,0.0,0.0,-1.0
307286317,307286089,0.0014990936,0.0029092308,0.0065508294,0.09257009,0.0,0.0,0.0,-1.0
307334970,307334742,-0.0003962626,0.0024427946,0.0055946275,0.09257009,0.0,0.0,0.0,-1.0
307387400,307387167,0.00012218348,0.003424322,-0.00072562206,0.09764019,0.0,0.0,0.0,-1.0
307437326,307437099,0.0013012943,0.0033506881,-0.0046846815,0.10271028,0.0,0.0,0.0,-1.0
307486011,307485782,0.0017252747,0.002468857,-0.007274777,0.10488318,0.0,0.0,0.0,-1.0
307538435,307538209,0.0024663743,0.0019550433,-0.00853844,0.10488318,0.0,0.0,0.0,-1.0
307587118,307586892,0.00071210973,0.003456685,-0.010498574,0.10488318,0.0,0.0,0.0,-1.0
307637055,307636824,-0.0011320475,0.0052497466,-0.018892713,0.10995327,0.0,0.0,0.0,-1.0
307685732,307685507,-0.0006771326,0.0049158726,-0.020951418,0.11212617,0.0,0.0,0.0,-1.0
307738156,307737934,-0.0014068679,0.0036713078,-0.024820432,0.11792056,0.0,0.0,0.0,-1.0
307786845,307786617,-0.00031195188,0.0029809906,-0.026463632,0.12081775,0.0,0.0,0.0,-1.0
307835531,307835301,0.001157376,0.0040080287,-0.026720934,0.12371495,0.0,0.0,0.0,-1.0
307887966,307887732,0.0001375633,0.0045527453,-0.029399715,0.12371495,0.0,0.0,0.0,-1.0
307937951,307937723,0.0006066567,0.006816751,-0.030753266,0.12371495,0.0,0.0,0.0,-1.0
307986568,307986343,0.002776966,0.0048403447,-0.031753425,0.11647196,0.0,0.0,0.0,-1.0
308035249,308035026,0.0014481604,0.004983605,-0.031093558,0.113574766,0.0,0.0,0.0,-1.0
308087683,308087454,-0.00074181956,0.006354493,-0.030347351,0.113574766,0.0,0.0,0.0,-1.0
308136372,308136138,-0.00015495217,0.005417532,-0.029340034,0.112850465,0.0,0.0,0.0,-1.0
308186295,308186069,-0.0005472547,0.005694235,-0.028524084,0.10271028,0.0,0.0,0.0,-1.0
308238725,308238497,0.0002988783,0.004806768,-0.027124556,0.10053739,0.0,0.0,0.0,-1.0
308287414,308287180,0.001031212,0.0045427,-0.02615576,0.10053739,0.0,0.0,0.0,-1.0
308336088,308335862,0.0010124046,0.005328126,-0.025109276,0.09474299,0.0,0.0,0.0,-1.0
308386026,308385794,0.00075535546,0.004549642,-0.023587035,0.09474299,0.0,0.0,0.0,-1.0
308438456,308438223,0.001403903,0.0030776788,-0.022897625,0.09474299,0.0,0.0,0.0,-1.0
308487135,308486904,0.0018162779,0.0031268974,-0.022038005,0.0932944,0.0,0.0,0.0,-1.0
308535812,308535588,0.00243505,0.0023929072,-0.020664597,0.09257009,0.0,0.0,0.0,-1.0
308588242,308588016,0.0040890602,0.0024955242,-0.019979894,0.09257009,0.0,0.0,0.0,-1.0
308636924,308636699,0.0026658175,0.001616326,-0.019314406,0.096191585,0.0,0.0,0.0,-1.0
308686866,308686630,0.0019184797,0.0017081602,-0.018180143,0.10271028,0.0,0.0,0.0,-1.0
308735541,308735313,-0.0014798144,0.00215149,-0.0166817,0.10271028,0.0,0.0,0.0,-1.0
308787967,308787741,-0.0036841691,0.0022622738,-0.015430316,0.10271028,0.0,0.0,0.0,-1.0
308836658,308836424,-0.0035130682,0.0019295523,-0.014246979,0.10488318,0.0,0.0,0.0,-1.0
308886579,308886355,-0.005621405,-0.0004819092,-0.013346507,0.10560747,0.0,0.0,0.0,-1.0
308939019,308938783,-0.008816569,-0.0014919044,-0.011977037,0.10560747,0.0,0.0,0.0,-1.0
308987707,308987467,-0.00742608,-0.0014181029,-0.011932181,0.10198598,0.0,0.0,0.0,-1.0
309036404,309036175,-0.000559082,0.0019627204,-0.01228621,0.09908878,0.0,0.0,0.0,-1.0
309085060,309084833,0.003804411,0.0036708277,-0.012354853,0.09908878,0.0,0.0,0.0,-1.0
309137492,309137261,0.0058318665,0.0015608098,-0.012155946,0.10995327,0.0,0.0,0.0,-1.0
309187475,309187239,0.0065310085,-0.0019430927,-0.011250063,0.11140187,0.0,0.0,0.0,-1.0
309236102,309235875,0.0054984535,-0.002899913,-0.011518313,0.11140187,0.0,0.0,0.0,-1.0
309288530,309288303,0.0016770723,0.0049367957,-0.012053825,0.11140187,0.0,0.0,0.0,-1.0
309337213,309336986,-0.00047426042,0.0070573366,-0.012208794,0.11140187,0.0,0.0,0.0,-1.0
309385900,309385669,0.0015751465,0.0046595866,-0.012237507,0.11140187,0.0,0.0,0.0,-1.0
309435823,309435600,0.001587427,0.004311977,-0.012172288,0.11140187,0.0,0.0,0.0,-1.0
309488257,309488029,-0.00013694013,0.003444227,-0.012664555,0.11140187,0.0,0.0,0.0,-1.0
309536941,309536711,-0.0016802822,0.0028861603,-0.012934779,0.11140187,0.0,0.0,0.0,-1.0
309585623,309585398,-0.0028464042,0.0046287696,-0.012964559,0.11140187,0.0,0.0,0.0,-1.0
309635559,309635326,-0.001677332,0.004343392,-0.013486931,0.11140187,0.0,0.0,0.0,-1.0
309687979,309687754,-0.00015690277,0.0047270358,-0.0137469955,0.11140187,0.0,0.0,0.0,-1.0
309736682,309736441,-0.0011972813,0.0042822966,-0.014352204,0.11140187,0.0,0.0,0.0,-1.0
309785345,309785120,-0.0025869496,0.003438643,-0.014636115,0.11140187,0.0,0.0,0.0,-1.0
309837779,309837548,-0.0015917281,0.0052620885,-0.015354672,0.10488318,0.0,0.0,0.0,-1.0
309886481,309886233,0.00045614073,0.0043224194,-0.016160684,0.103434585,0.0,0.0,0.0,-1.0
309936394,309936163,0.00066298986,0.0028251738,-0.016261188,0.103434585,0.0,0.0,0.0,-1.0
309985077,309984846,-0.00023722147,0.004081041,-0.009110999,0.103434585,0.0,0.0,0.0,-1.0
310037502,310037273,0.00021478921,0.004312812,-0.0028201235,0.103434585,0.0,0.0,0.0,-1.0
310086191,310085956,-0.00043743465,0.002245787,-0.004228193,0.103434585,0.0,0.0,0.0,-1.0
310134868,310134640,7.697523e-05,0.0021458056,-0.006073817,0.103434585,0.0,0.0,0.0,-1.0
310188549,310188315,-0.001942309,0.0026646778,-0.008207351,0.103434585,0.0,0.0,0.0,-1.0
310237226,310236999,-0.00085646403,0.0030126444,-0.009364532,0.103434585,0.0,0.0,0.0,-1.0
310285920,310285683,-0.00060582644,0.0016205673,-0.01912061,0.10271028,0.0,0.0,0.0,-1.0
310335852,310335617,-0.0010592849,0.0024259794,-0.020692658,0.10198598,0.0,0.0,0.0,-1.0
310387021,310386793,-0.00051145925,0.0028132184,-0.019708132,0.09401869,0.0,0.0,0.0,-1.0
310436991,310436764,-0.0016482294,0.00237733,-0.019948151,0.0903972,0.0,0.0,0.0,-1.0
310485635,310485408,-0.0014912698,0.0023386965,-0.019427463,0.09257009,0.0,0.0,0.0,-1.0
310538059,310537835,-0.00021958887,0.0022810693,-0.018614754,0.09981308,0.0,0.0,0.0,-1.0
310586746,310586519,0.00038157357,0.0018382531,-0.015233824,0.10198598,0.0,0.0,0.0,-1.0
310635434,310635202,-0.00034809002,0.002619739,-0.014522247,0.10198598,0.0,0.0,0.0,-1.0
310687862,310687630,0.00018980233,0.0027755706,-0.012700352,0.10271028,0.0,0.0,0.0,-1.0
310737791,310737561,-0.000121733574,0.0030533685,-0.009831727,0.10198598,0.0,0.0,0.0,-1.0
310786486,310786244,-9.506415e-05,-0.00019303148,0.00026480207,0.10198598,0.0,0.0,0.0,-1.0
310835158,310834927,0.0021672642,0.00090332876,0.009344356,0.10488318,0.0,0.0,0.0,-1.0
310885092,310884859,0.0015935297,0.0051190387,0.008112653,0.107780375,0.0,0.0,0.0,-1.0
310937519,310937286,6.0009603e-05,0.0048081377,0.006415789,0.108504675,0.0,0.0,0.0,-1.0
310986201,310985969,0.00021697878,0.0013993868,0.007537497,0.108504675,0.0,0.0,0.0,-1.0
311038633,311038403,0.0017920263,-0.00057796005,0.007010494,0.11140187,0.0,0.0,0.0,-1.0
311335722,311335490,0.00093236327,0.0062484737,-0.015566533,0.10488318,0.0,0.0,0.0,-1.0
312036010,312035777,0.0010745694,0.0025094883,-0.0016809929,0.08894859,0.0,0.0,0.0,-1.0
312088446,312088205,0.0015973402,-0.0002462254,0.0029663628,0.0896729,0.0,0.0,0.0,-1.0
312137113,312136888,0.004215971,-0.0023623486,0.007133858,0.09836449,0.0,0.0,0.0,-1.0
312187050,312186819,0.00559058,0.0025633955,0.011943503,0.10415888,0.0,0.0,0.0,-1.0
312235736,312235503,0.0035524755,0.0028109143,0.01560918,0.10415888,0.0,0.0,0.0,-1.0
312288167,312287934,0.0032899645,-0.0002892506,0.019005867,0.10415888,0.0,0.0,0.0,-1.0
312338100,312337864,0.0021253203,-0.00026868787,0.023229282,0.10488318,0.0,0.0,0.0,-1.0
312385530,312385299,0.00056187814,0.0013586086,0.027406465,0.11067758,0.0,0.0,0.0,-1.0
312437958,312437725,0.00073790643,0.0039144787,0.018880567,0.11067758,0.0,0.0,0.0,-1.0
312487939,312487704,0.0006406101,0.0027678388,0.01850659,0.11067758,0.0,0.0,0.0,-1.0
312536567,312536339,-0.0028878185,0.0025352198,0.018232716,0.10488318,0.0,0.0,0.0,-1.0
312585249,312585022,-0.0042806193,0.003409693,0.010775317,0.10126168,0.0,0.0,0.0,-1.0
312637689,312637450,0.0012912179,0.004120742,0.013899387,0.10053739,0.0,0.0,0.0,-1.0
312686370,312686141,0.005133589,0.003184293,0.014611414,0.10415888,0.0,0.0,0.0,-1.0
312736348,312736120,0.006137501,0.0006274559,0.011545061,0.113574766,0.0,0.0,0.0,-1.0
312788721,312788493,0.003050636,0.0013797646,0.010816381,0.11647196,0.0,0.0,0.0,-1.0
312837410,312837177,0.00017929189,0.00012701095,0.0068657575,0.11647196,0.0,0.0,0.0,-1.0
312886087,312885859,0.0019654518,-0.0026221331,0.0023612734,0.112850465,0.0,0.0,0.0,-1.0
312937287,312937042,0.0016501485,0.0015842784,0.0033887555,0.11140187,0.0,0.0,0.0,-1.0
312988453,312988218,0.0012775499,0.0050815484,-0.0024053103,0.11067758,0.0,0.0,0.0,-1.0
313037136,313036902,0.0024264199,-0.00034501322,-0.0069194483,0.11067758,0.0,0.0,0.0,-1.0
313085810,313085584,0.0026855,0.00071810925,-0.0026812577,0.11212617,0.0,0.0,0.0,-1.0
313138237,313138012,0.0021150224,0.0027973973,-0.01806537,0.11212617,0.0,0.0,0.0,-1.0
313186927,313186695,0.0003353854,0.004634786,-0.031749967,0.11140187,0.0,0.0,0.0,-1.0
313236866,313236628,-0.0010012888,0.0042234785,-0.03664937,0.10560747,0.0,0.0,0.0,-1.0
313285540,313285310,0.000735754,0.0028267468,-0.04051813,0.09981308,0.0,0.0,0.0,-1.0
313337968,313337739,0.0038856075,0.0014994267,-0.043760072,0.09836449,0.0,0.0,0.0,-1.0
313386668,313386427,0.0022629634,0.0014102597,-0.0473245,0.09981308,0.0,0.0,0.0,-1.0
313436587,313436353,-5.4072825e-05,-0.0008921956,-0.046870723,0.09981308,0.0,0.0,0.0,-1.0
313486521,313486285,0.0008382221,0.0026329588,-0.047267735,0.09981308,0.0,0.0,0.0,-1.0
313537693,313537463,-0.0029219126,0.0058920346,-0.04929742,0.09981308,0.0,0.0,0.0,-1.0
313586378,313586147,-0.002762449,0.0021347145,-0.0471865,0.10053739,0.0,0.0,0.0,-1.0
313635057,313634830,0.00027351713,-0.0015119835,-0.044291016,0.10126168,0.0,0.0,0.0,-1.0
313684992,313684761,0.0023316864,-0.0013008184,-0.04078035,0.10198598,0.0,0.0,0.0,-1.0
313737414,313737188,0.0069605852,0.0032588753,-0.037003603,0.10633177,0.0,0.0,0.0,-1.0
313786107,313785873,0.005342127,-0.00019049345,-0.033380244,0.113574766,0.0,0.0,0.0,-1.0
313838532,313838300,-0.002529177,-0.0056495117,-0.029723963,0.11719626,0.0,0.0,0.0,-1.0
313887257,313887029,-0.005346981,-0.00012281738,-0.027176868,0.11936916,0.0,0.0,0.0,-1.0
313935901,313935667,-0.0011302956,0.004494515,-0.024477942,0.12009346,0.0,0.0,0.0,-1.0
313985832,313985599,-0.00012424025,0.0057322653,-0.022897862,0.11936916,0.0,0.0,0.0,-1.0
314038250,314038026,7.721168e-05,0.0012696385,-0.02177898,0.11429907,0.0,0.0,0.0,-1.0
314086939,314086709,-0.00056170434,-0.00013099343,-0.020029932,0.10633177,0.0,0.0,0.0,-1.0
314135638,314135396,-0.001754496,0.004295538,-0.018848043,0.10633177,0.0,0.0,0.0,-1.0
314189300,314189068,-0.00034809293,0.0047193295,-0.016780697,0.11067758,0.0,0.0,0.0,-1.0
314235493,314235256,-0.0015004412,0.0028323804,-0.014542221,0.113574766,0.0,0.0,0.0,-1.0
314286670,314286436,-0.0014968923,0.0033905215,-0.01128342,0.113574766,0.0,0.0,0.0,-1.0
314335346,314335118,0.0022956082,0.0044715567,-0.008700613,0.113574766,0.0,0.0,0.0,-1.0
314387781,314387548,0.005382294,0.0023721156,-0.005878525,0.113574766,0.0,0.0,0.0,-1.0
314436508,314436282,0.0034433717,0.0026348107,-0.0042297603,0.10705608,0.0,0.0,0.0,-1.0
314486384,314486160,0.0016606285,0.004147123,-0.0034693219,0.10560747,0.0,0.0,0.0,-1.0
314538810,314538588,-0.002006498,0.004670122,-0.0032966312,0.10560747,0.0,0.0,0.0,-1.0
314587496,314587271,-0.00052464113,0.0049983747,-0.003937604,0.10560747,0.0,0.0,0.0,-1.0
314636189,314635955,0.0021286153,0.00503326,-0.004325269,0.10560747,0.0,0.0,0.0,-1.0
314684876,314684638,0.000840922,0.002461406,-0.0048348866,0.10560747,0.0,0.0,0.0,-1.0
314738558,314738314,-0.0020622136,-0.0007626723,-0.005718404,0.112850465,0.0,0.0,0.0,-1.0
314787251,314787016,-0.0039282087,-0.00010158184,-0.006256712,0.11140187,0.0,0.0,0.0,-1.0
314835905,314835680,-0.003803068,0.0013145928,-0.006229018,0.107780375,0.0,0.0,0.0,-1.0
314888336,314888108,-2.3256169e-05,0.004946976,-0.0056813224,0.107780375,0.0,0.0,0.0,-1.0
314937021,314936791,0.0030214305,0.0045120358,-0.0053008483,0.107780375,0.0,0.0,0.0,-1.0
314986945,314986723,0.0031881174,0.0027392947,-0.00542999,0.10633177,0.0,0.0,0.0,-1.0
315035631,315035407,0.0015256411,0.003070508,-0.005572478,0.10633177,0.0,0.0,0.0,-1.0
315088065,315087834,-0.0035137783,0.0049931933,-0.006945713,0.10633177,0.0,0.0,0.0,-1.0
315136744,315136517,-0.004122459,0.0026980801,-0.007344989,0.10560747,0.0,0.0,0.0,-1.0
315185433,315185200,-0.00094866526,0.0020583645,-0.00718711,0.091121495,0.0,0.0,0.0,-1.0
315237857,315237628,-4.5289034e-05,0.005057004,-0.006322808,0.091121495,0.0,0.0,0.0,-1.0
315287788,315287561,0.0016984801,0.007477509,-0.0052810567,0.09981308,0.0,0.0,0.0,-1.0
315336471,315336242,0.0022665507,0.0030864724,-0.0035706684,0.10271028,0.0,0.0,0.0,-1.0
315385155,315384926,0.0022617127,0.00036986236,-0.0023403515,0.10271028,0.0,0.0,0.0,-1.0
315437589,315437354,-0.00072940346,0.006420843,-0.0011240495,0.10560747,0.0,0.0,0.0,-1.0
315487525,315487286,0.00021734044,0.007989026,0.00021233557,0.107780375,0.0,0.0,0.0,-1.0
315536196,315535968,-0.0006799796,-0.00019380651,0.00068854337,0.10995327,0.0,0.0,0.0,-1.0
315588626,315588396,0.0028569102,-0.0010543907,-0.0013376521,0.10995327,0.0,0.0,0.0,-1.0
315637318,315637084,0.003917114,0.0026541816,-0.004353395,0.10995327,0.0,0.0,0.0,-1.0
315685992,315685763,0.0009590009,0.003897973,-0.0071381875,0.10922897,0.0,0.0,0.0,-1.0
315735922,315735694,0.0015971333,0.0015231724,-0.010659694,0.08894859,0.0,0.0,0.0,-1.0
315788353,315788122,-0.0014755466,0.0017619382,-0.013038697,0.0838785,0.0,0.0,0.0,-1.0
315837068,315836843,-0.0013598589,0.0034186752,-0.014658216,0.08894859,0.0,0.0,0.0,-1.0
315885715,315885488,0.0019527411,0.0044373646,-0.015931392,0.09257009,0.0,0.0,0.0,-1.0
315938166,315937932,0.006362217,0.004217206,-0.016877754,0.09401869,0.0,0.0,0.0,-1.0
315988081,315987848,0.0021859654,0.0034737883,-0.016488368,0.103434585,0.0,0.0,0.0,-1.0
316036760,316036531,-0.00039318347,0.004024641,-0.014906623,0.10560747,0.0,0.0,0.0,-1.0
316085445,316085215,-0.0009749492,0.006612888,-0.012828564,0.10560747,0.0,0.0,0.0,-1.0
316137882,316137642,0.0006935817,0.0060205935,-0.01134012,0.10560747,0.0,0.0,0.0,-1.0
316186555,316186325,-0.0017394641,0.008293065,-0.010347944,0.10560747,0.0,0.0,0.0,-1.0
316236483,316236256,-0.0035345417,0.008691801,-0.00938552,0.10633177,0.0,0.0,0.0,-1.0
316285176,316284943,-0.0037437286,0.0102709085,-0.00883534,0.10705608,0.0,0.0,0.0,-1.0
316337600,316337368,1.2526277e-05,0.0049113855,-0.009621436,0.10705608,0.0,0.0,0.0,-1.0
316386278,316386050,0.003063602,0.00219935,-0.010112776,0.11429907,0.0,0.0,0.0,-1.0
316434963,316434734,0.004671079,0.0045083226,-0.011559481,0.12154206,0.0,0.0,0.0,-1.0
316487389,316487162,0.0041716406,0.0018766056,-0.014332218,0.12154206,0.0,0.0,0.0,-1.0
316537330,316537093,0.0050875223,-0.00037160717,-0.017043836,0.12081775,0.0,0.0,0.0,-1.0
316586005,316585777,0.001237642,0.0004193389,-0.019823741,0.12081775,0.0,0.0,0.0,-1.0
316638430,316638204,-0.00055868336,0.00097095215,-0.022910938,0.12081775,0.0,0.0,0.0,-1.0
316687129,316686891,-0.0075933617,0.0031208883,-0.024240619,0.12081775,0.0,0.0,0.0,-1.0
316737067,316736822,-0.006994842,0.007504571,-0.025474343,0.12081775,0.0,0.0,0.0,-1.0
316785739,316785505,0.0043628896,0.0063342946,-0.024740528,0.11936916,0.0,0.0,0.0,-1.0
316838157,316837930,0.00426513,0.0040777535,-0.025638945,0.10488318,0.0,0.0,0.0,-1.0
316886846,316886614,0.0010949977,0.006319892,-0.028412888,0.10488318,0.0,0.0,0.0,-1.0
316935551,316935322,0.003783925,0.008366519,-0.030704666,0.103434585,0.0,0.0,0.0,-1.0
316985453,316985228,0.003476672,0.0069113937,-0.032186564,0.0932944,0.0,0.0,0.0,-1.0
317037882,317037657,0.0018817801,0.00096505135,-0.03189401,0.091121495,0.0,0.0,0.0,-1.0
317086570,317086339,0.00504828,0.0019741808,-0.031529143,0.09981308,0.0,0.0,0.0,-1.0
317135262,317135022,0.005921297,0.003925564,-0.031572986,0.10271028,0.0,0.0,0.0,-1.0
317187683,317187450,0.0038289693,0.0056596454,-0.03174804,0.10271028,0.0,0.0,0.0,-1.0
317236366,317236137,0.001735555,0.005188877,-0.032227013,0.09836449,0.0,0.0,0.0,-1.0
317286309,317286068,0.0052985973,0.0018638974,-0.03270776,0.08894859,0.0,0.0,0.0,-1.0
317334977,317334749,0.009232375,0.0044068033,-0.032702394,0.0896729,0.0,0.0,0.0,-1.0
317387409,317387176,0.003778922,0.0044022016,-0.031136446,0.09257009,0.0,0.0,0.0,-1.0
317436142,317435914,-0.00029166383,0.0038553886,-0.029909683,0.09257009,0.0,0.0,0.0,-1.0
317486024,317485790,0.0015304685,0.002745202,-0.028238224,0.10560747,0.0,0.0,0.0,-1.0
317538457,317538221,0.0026494195,0.006063581,-0.026843501,0.10922897,0.0,0.0,0.0,-1.0
317587172,317586948,0.003992463,0.0017596713,-0.026060129,0.10922897,0.0,0.0,0.0,-1.0
317635812,317635584,0.004967891,0.0013012311,-0.025478242,0.10922897,0.0,0.0,0.0,-1.0
317688239,317688013,0.0061258744,0.007890961,-0.024356576,0.10922897,0.0,0.0,0.0,-1.0
317736924,317736696,0.00304453,0.009191646,-0.02365332,0.10922897,0.0,0.0,0.0,-1.0
317786861,317786627,-0.0019528116,0.004416315,-0.023314541,0.10633177,0.0,0.0,0.0,-1.0
317835537,317835310,-0.0024326972,0.004022598,-0.023000617,0.10415888,0.0,0.0,0.0,-1.0
317887969,317887739,-0.0013926496,0.0036308216,-0.022953177,0.10415888,0.0,0.0,0.0,-1.0
317936652,317936421,0.0026364797,0.0035465735,-0.021517389,0.10415888,0.0,0.0,0.0,-1.0
317986579,317986353,0.0023676278,0.0033023478,-0.020423383,0.11140187,0.0,0.0,0.0,-1.0
318039026,318038784,-0.0031781453,0.0036208993,-0.019745287,0.11574766,0.0,0.0,0.0,-1.0
318087693,318087464,-0.0024212769,0.002898895,-0.018723885,0.11574766,0.0,0.0,0.0,-1.0
318136371,318136147,0.0023778758,0.0071345167,-0.017377853,0.11574766,0.0,0.0,0.0,-1.0
318185059,318184830,0.0025679187,0.0052761035,-0.014973381,0.11574766,0.0,0.0,0.0,-1.0
318237485,318237258,-0.0018017243,-0.00042985787,-0.012669757,0.113574766,0.0,0.0,0.0,-1.0
318287420,318287189,-0.0011476512,4.3518336e-05,-0.010444903,0.112850465,0.0,0.0,0.0,-1.0
318336141,318335909,-0.0018484811,0.003518596,-0.008597203,0.11212617,0.0,0.0,0.0,-1.0
318388533,318388305,-0.00019288134,0.008192676,-0.0066007376,0.10053739,0.0,0.0,0.0,-1.0
318437211,318436984,-0.0010377693,0.0047269408,-0.0050062784,0.09691589,0.0,0.0,0.0,-1.0
318485894,318485668,-0.002364849,-0.00016165402,-0.003797031,0.10271028,0.0,0.0,0.0,-1.0
318535827,318535598,0.0022878898,0.0007977538,-0.0024554343,0.10271028,0.0,0.0,0.0,-1.0
318589515,318589276,0.0041190768,0.004291014,-0.0004494784,0.10126168,0.0,0.0,0.0,-1.0
318636939,318636710,0.0015200863,0.0047214143,0.0010946172,0.10053739,0.0,0.0,0.0,-1.0
318685624,318685393,0.00021075708,0.0021235077,0.0012828204,0.0903972,0.0,0.0,0.0,-1.0
318738053,318737823,-0.001441923,0.0003941004,0.0010543449,0.0896729,0.0,0.0,0.0,-1.0
318787980,318787753,-0.00091346796,0.0017971654,0.00030299654,0.0903972,0.0,0.0,0.0,-1.0
318836676,318836438,0.001915724,0.0030061468,-0.00019997374,0.0903972,0.0,0.0,0.0,-1.0
318885344,318885119,0.00085721206,0.0030036499,4.890136e-05,0.0903972,0.0,0.0,0.0,-1.0
318937772,318937547,0.0058247894,0.0037842724,0.00021071977,0.091121495,0.0,0.0,0.0,-1.0
318986474,318986247,0.009584816,0.005392428,-0.00010602249,0.091121495,0.0,0.0,0.0,-1.0
319036391,319036161,0.0059103663,0.007858232,-0.000861592,0.091121495,0.0,0.0,0.0,-1.0
319088820,319088593,0.00090079603,0.0036133516,-0.0013406919,0.103434585,0.0,0.0,0.0,-1.0
319137496,319137272,-0.0018169068,0.0004709392,-0.0022578079,0.10415888,0.0,0.0,0.0,-1.0
319186181,319185956,-0.00070909923,-6.0404367e-05,-0.0031750768,0.103434585,0.0,0.0,0.0,-1.0
319234871,319234640,-3.3713928e-05,0.0009042518,-0.0034854054,0.10271028,0.0,0.0,0.0,-1.0
319288573,319288317,-0.005209983,0.0035206773,-0.0036683783,0.103434585,0.0,0.0,0.0,-1.0
319337236,319336999,-0.005773051,0.003913182,-0.0038565686,0.103434585,0.0,0.0,0.0,-1.0
319385904,319385681,-0.0038252077,0.0022507587,-0.0038599106,0.103434585,0.0,0.0,0.0,-1.0
319438346,319438111,-0.00051680434,0.0034303714,-0.0036529044,0.103434585,0.0,0.0,0.0,-1.0
319487034,319486810,0.003173429,0.0026819517,-0.0036375618,0.10415888,0.0,0.0,0.0,-1.0
319536948,319536724,0.0028992074,-0.0011540243,-0.0034776996,0.10415888,0.0,0.0,0.0,-1.0
319585634,319585407,0.0010394697,-0.0012940648,-0.0031022446,0.103434585,0.0,0.0,0.0,-1.0
319638097,319637868,-0.001923952,0.0005621867,-0.0032548613,0.103434585,0.0,0.0,0.0,-1.0
319686741,319686518,-0.0008488164,0.0022920547,-0.0037651348,0.103434585,0.0,0.0,0.0,-1.0
319735430,319735201,0.0012645981,0.0011648056,-0.004465372,0.103434585,0.0,0.0,0.0,-1.0
319787866,319787630,-0.00037150347,-0.0010118774,-0.005519589,0.107780375,0.0,0.0,0.0,-1.0
319837794,319837562,-0.00019423626,0.00085570314,-0.006266451,0.107780375,0.0,0.0,0.0,-1.0
319886482,319886248,0.00033830665,0.002935287,-0.006747646,0.107780375,0.0,0.0,0.0,-1.0
319935150,319934927,0.002262887,0.0002273221,-0.007685645,0.107780375,0.0,0.0,0.0,-1.0
319987586,319987355,0.0030198118,0.00047325232,-0.009298006,0.107780375,0.0,0.0,0.0,-1.0
320037528,320037288,0.0077406447,0.005545289,-0.01086233,0.107780375,0.0,0.0,0.0,-1.0
320086200,320085970,0.0053994567,0.0052379216,-0.0132742,0.107780375,0.0,0.0,0.0,-1.0
320138640,320138398,0.00022337459,-0.0012233562,-0.015713587,0.11719626,0.0,0.0,0.0,-1.0
320187311,320187082,-0.0015093961,-0.0012767117,-0.016539732,0.11864486,0.0,0.0,0.0,-1.0
320235991,320235764,6.614478e-05,0.0004090667,-0.016329233,0.10633177,0.0,0.0,0.0,-1.0
320285922,320285695,0.0012198265,0.0008199466,-0.016433328,0.10633177,0.0,0.0,0.0,-1.0
320338357,320338124,0.0011507062,0.0015185168,-0.016959691,0.10633177,0.0,0.0,0.0,-1.0
320387043,320386811,-0.00049345294,-0.0009223038,-0.017303083,0.10126168,0.0,0.0,0.0,-1.0
320435716,320435490,-0.0005818044,-0.0019295146,-0.02226454,0.09691589,0.0,0.0,0.0,-1.0
320488144,320487918,0.00011647287,0.001687643,-0.01649129,0.09691589,0.0,0.0,0.0,-1.0
320538082,320537850,-0.00029305732,0.0027249928,-0.016950378,0.09691589,0.0,0.0,0.0,-1.0
320586764,320586533,-0.00019300105,0.0024422812,-0.020031419,0.09691589,0.0,0.0,0.0,-1.0
320635450,320635215,0.0010675548,0.002671396,-0.027731981,0.0932944,0.0,0.0,0.0,-1.0
320687871,320687643,0.0006241629,6.693556e-05,-0.02189612,0.0932944,0.0,0.0,0.0,-1.0
320736610,320736378,0.0017411245,-0.0016259609,-0.030410208,0.0932944,0.0,0.0,0.0,-1.0
320786488,320786258,0.0016148837,0.001677767,-0.039011296,0.0932944,0.0,0.0,0.0,-1.0
320835163,320834941,0.0007668975,0.0016393854,-0.034590434,0.10198598,0.0,0.0,0.0,-1.0
320887606,320887373,0.0039672023,0.0010675131,-0.03430936,0.10560747,0.0,0.0,0.0,-1.0
320936283,320936052,0.0036434792,0.001126035,-0.028607573,0.10560747,0.0,0.0,0.0,-1.0
320984964,320984740,0.001848858,0.0012439664,-0.025189346,0.10560747,0.0,0.0,0.0,-1.0
321037394,321037164,0.001208526,0.0023475192,-0.023747731,0.10560747,0.0,0.0,0.0,-1.0
321087319,321087095,0.0021072458,0.00030961088,-0.02734263,0.10560747,0.0,0.0,0.0,-1.0
321136015,321135782,0.0012443563,0.0014662031,-0.02864902,0.10560747,0.0,0.0,0.0,-1.0
321185960,321185718,-0.00015810457,0.0013478313,-0.017371263,0.11792056,0.0,0.0,0.0,-1.0
321237122,321236890,0.0015404326,-0.00051113154,-0.015271728,0.12154206,0.0,0.0,0.0,-1.0
321287081,321286852,0.0036517167,-0.0018951677,-0.01665404,0.113574766,0.0,0.0,0.0,-1.0
321335736,321335505,0.0025849147,-0.0006225938,-0.011604806,0.113574766,0.0,0.0,0.0,-1.0
321388169,321387936,0.0017224392,0.004347273,-0.010094537,0.113574766,0.0,0.0,0.0,-1.0
321436844,321436615,0.00080219057,0.0042335126,-0.006288228,0.107780375,0.0,0.0,0.0,-1.0
321485537,321485299,0.00078887196,0.0026238526,-0.0018333138,0.10488318,0.0,0.0,0.0,-1.0
321537949,321537726,0.0010726303,0.000702056,0.008754847,0.10271028,0.0,0.0,0.0,-1.0
321587883,321587658,0.001811995,0.0018100275,0.008038705,0.10415888,0.0,0.0,0.0,-1.0
321636575,321636341,0.0019223314,9.122816e-05,-0.0013564496,0.10415888,0.0,0.0,0.0,-1.0
321685269,321685025,0.00065697177,0.0020621044,0.004086646,0.10415888,0.0,0.0,0.0,-1.0
321737681,321737452,-0.0014538137,0.0049599684,0.011902623,0.10560747,0.0,0.0,0.0,-1.0
321786413,321786184,-6.92278e-05,0.00269819,0.010471623,0.10633177,0.0,0.0,0.0,-1.0
321836297,321836066,0.0011586979,0.0010328877,0.0098330695,0.10633177,0.0,0.0,0.0,-1.0
321888727,321888496,0.00045711562,0.0027482393,0.0093552545,0.10633177,0.0,0.0,0.0,-1.0
321937406,321937178,0.00030053785,0.0034747226,0.008485995,0.10415888,0.0,0.0,0.0,-1.0
321987402,321987167,0.0008969535,0.0012221823,0.007453702,0.09836449,0.0,0.0,0.0,-1.0
322036027,322035792,0.0014674811,0.0007025449,0.0067208535,0.09401869,0.0,0.0,0.0,-1.0
322088445,322088220,0.0022327953,0.0027691547,0.0053154374,0.09401869,0.0,0.0,0.0,-1.0
322137132,322136905,0.001386794,0.004754842,0.003792937,0.09401869,0.0,0.0,0.0,-1.0
322185815,322185587,0.00024246007,0.0037434231,0.0023401794,0.09474299,0.0,0.0,0.0,-1.0
322238240,322238015,0.00053152384,0.00046702102,0.0012091768,0.10198598,0.0,0.0,0.0,-1.0
322286922,322286698,0.0013947675,0.0002276788,-0.00038269206,0.10198598,0.0,0.0,0.0,-1.0
322336867,322336633,0.0007118919,6.0590868e-05,-0.0018427607,0.10198598,0.0,0.0,0.0,-1.0
322385538,322385312,-0.00027985725,-0.0001576404,-0.0031516918,0.10271028,0.0,0.0,0.0,-1.0
322437975,322437741,-0.00068011513,0.0024862303,-0.004549591,0.10271028,0.0,0.0,0.0,-1.0
322486655,322486424,-0.0017770678,0.0010257259,-0.0066606994,0.10271028,0.0,0.0,0.0,-1.0
322536580,322536355,-0.00021721973,0.00030535122,-0.007942088,0.10560747,0.0,0.0,0.0,-1.0
322589017,322588783,0.0005986079,0.0015115136,-0.008483589,0.11140187,0.0,0.0,0.0,-1.0
322637701,322637466,-9.542373e-05,0.00064468523,-0.008472006,0.11140187,0.0,0.0,0.0,-1.0
322686385,322686155,-0.0014166094,0.0017764943,-0.007923933,0.10922897,0.0,0.0,0.0,-1.0
322735061,322734833,-0.0020779187,0.004700749,-0.00853292,0.10415888,0.0,0.0,0.0,-1.0
322787495,322787261,0.0002102685,0.0038672013,-0.009227411,0.10415888,0.0,0.0,0.0,-1.0
322837418,322837192,0.0019065128,0.0025771954,-0.01007599,0.10415888,0.0,0.0,0.0,-1.0
322886100,322885875,0.0012682009,0.0018813687,-0.0159774,0.09908878,0.0,0.0,0.0,-1.0
322938534,322938304,0.00061603537,0.0027829525,-0.016886193,0.09908878,0.0,0.0,0.0,-1.0
322987212,322986987,0.00022155508,0.0026397442,-0.019765101,0.09474299,0.0,0.0,0.0,-1.0
323035927,323035699,6.948429e-05,0.0007268219,-0.02877409,0.0875,0.0,0.0,0.0,-1.0
323085849,323085621,0.00028045254,0.000470134,-0.0189096,0.0875,0.0,0.0,0.0,-1.0
323138258,323138029,0.00081309286,0.002971072,-0.014487793,0.08894859,0.0,0.0,0.0,-1.0
323186941,323186713,0.0004893117,0.0048054354,-0.023500418,0.0882243,0.0,0.0,0.0,-1.0
323235626,323235395,0.0006872554,0.0018562692,-0.013888421,0.096191585,0.0,0.0,0.0,-1.0
323285575,323285330,-0.0007856678,-0.0039221053,-0.0128915105,0.10560747,0.0,0.0,0.0,-1.0
323337981,323337755,-0.0015610401,-0.003358412,-0.024842354,0.10560747,0.0,0.0,0.0,-1.0
323386669,323386438,-0.0015530428,0.0016099534,-0.022147413,0.10488318,0.0,0.0,0.0,-1.0
323435354,323435122,-0.0012589629,0.0041973586,-0.015833968,0.10488318,0.0,0.0,0.0,-1.0
323487778,323487550,-0.0022507852,0.0015053925,-0.014940231,0.10488318,0.0,0.0,0.0,-1.0
323536462,323536232,-0.002196984,-0.0016208827,-0.008978703,0.10560747,0.0,0.0,0.0,-1.0
323586392,323586164,5.4599812e-05,0.0005685767,-0.0021822744,0.10995327,0.0,0.0,0.0,-1.0
323638825,323638593,-0.0011128797,0.004511587,-0.0018799086,0.11067758,0.0,0.0,0.0,-1.0
323687507,323687276,-0.0016534465,0.003352256,-0.009392615,0.107780375,0.0,0.0,0.0,-1.0
323736195,323735960,0.0006907157,0.0010434524,-0.004932883,0.10560747,0.0,0.0,0.0,-1.0
323784868,323784641,0.003074124,-0.00015169788,-0.0008797106,0.10560747,0.0,0.0,0.0,-1.0
323838551,323838318,0.0032054672,0.0009169245,-0.0011201898,0.10560747,0.0,0.0,0.0,-1.0
323887235,323887001,0.0015777266,0.0012496676,-0.0010536585,0.10560747,0.0,0.0,0.0,-1.0
323935963,323935734,0.001265944,0.0013397217,-0.001449091,0.10633177,0.0,0.0,0.0,-1.0
323988338,323988112,0.003136059,0.00101712,-0.0016077206,0.11067758,0.0,0.0,0.0,-1.0
324038277,324038044,0.00069682073,0.0010570992,-0.0016676335,0.11429907,0.0,0.0,0.0,-1.0
324086957,324086726,-0.00069708045,0.0004068107,-0.0017538746,0.11502337,0.0,0.0,0.0,-1.0
324135632,324135409,0.0002911758,0.0020271991,-0.0022134804,0.113574766,0.0,0.0,0.0,-1.0
324188071,324187838,0.00036236015,0.0026673635,-0.0025321757,0.10705608,0.0,0.0,0.0,-1.0
324236810,324236579,0.00016821292,0.0012540241,-0.0032019902,0.10415888,0.0,0.0,0.0,-1.0
324286702,324286456,0.0011859527,0.00078153424,-0.003574406,0.10415888,0.0,0.0,0.0,-1.0
324335361,324335136,0.0015817941,0.0017260535,-0.0039695087,0.10415888,0.0,0.0,0.0,-1.0
324387790,324387563,0.0042470866,0.0012873437,-0.004976747,0.10415888,0.0,0.0,0.0,-1.0
324436482,324436247,0.0016288575,0.0010614292,-0.006523409,0.10488318,0.0,0.0,0.0,-1.0
324485155,324484930,-0.0018966682,-0.00066275307,-0.00725796,0.10560747,0.0,0.0,0.0,-1.0
324535088,324534861,0.0016563422,0.0008211931,-0.008085276,0.10560747,0.0,0.0,0.0,-1.0
324587520,324587289,0.0062070247,0.0068900776,-0.008704886,0.10560747,0.0,0.0,0.0,-1.0
324636199,324635972,0.0015918923,0.003237626,-0.009005097,0.09764019,0.0,0.0,0.0,-1.0
324684887,324684658,-5.2642343e-05,-0.00034335806,-0.009208082,0.096191585,0.0,0.0,0.0,-1.0
324737311,324737084,-0.0018626766,0.00015307205,-0.009418769,0.096191585,0.0,0.0,0.0,-1.0
324785995,324785767,0.0018650866,0.0027034644,-0.009095294,0.096191585,0.0,0.0,0.0,-1.0
324835931,324835698,0.004732381,0.0032353709,-0.00815836,0.096191585,0.0,0.0,0.0,-1.0
324888355,324888126,0.0020570306,0.002343045,-0.0073588677,0.096191585,0.0,0.0,0.0,-1.0
324937034,324936810,0.00025830444,-0.001807143,-0.007414715,0.09691589,0.0,0.0,0.0,-1.0
324985731,324985496,-0.0006575512,0.00114518,-0.007195094,0.10271028,0.0,0.0,0.0,-1.0
325038148,325037921,-0.0012896917,0.0032808986,-0.007095185,0.10271028,0.0,0.0,0.0,-1.0
325088083,325087852,-0.0018430131,-0.000638414,-0.0072561903,0.10271028,0.0,0.0,0.0,-1.0
325136761,325136536,-0.0034343982,-0.0012673296,-0.0066187615,0.10271028,0.0,0.0,0.0,-1.0
325185450,325185219,4.627347e-05,0.002124657,-0.0063331323,0.10271028,0.0,0.0,0.0,-1.0
325237882,325237652,0.0031690884,0.004110722,-0.0055533126,0.10271028,0.0,0.0,0.0,-1.0
325286555,325286329,0.0017230241,0.0013796415,-0.0052118967,0.10271028,0.0,0.0,0.0,-1.0
325336515,325336269,-0.0010614222,-0.0014479365,-0.004296906,0.107780375,0.0,0.0,0.0,-1.0
325388914,325388690,0.0009916332,-0.00041206877,-0.0037434378,0.107780375,0.0,0.0,0.0,-1.0
325437596,325437372,0.0015001922,0.0013348281,-0.0037233985,0.107780375,0.0,0.0,0.0,-1.0
325486288,325486055,-0.00042780017,0.001377393,-0.0045333137,0.107780375,0.0,0.0,0.0,-1.0
325534977,325534741,-0.0036697513,-0.0016640633,-0.005157507,0.107780375,0.0,0.0,0.0,-1.0
325588712,325588475,0.0015524442,0.003921367,-0.004796534,0.107780375,0.0,0.0,0.0,-1.0
325637323,325637098,0.0028634942,0.00578178,-0.004930831,0.107780375,0.0,0.0,0.0,-1.0
325686020,325685782,0.00021145793,0.0039114878,-0.005103766,0.107780375,0.0,0.0,0.0,-1.0
325738439,325738209,-0.0030351186,0.0006664902,-0.005655055,0.107780375,0.0,0.0,0.0,-1.0
325787131,325786895,0.00017154266,-0.0007007557,-0.0060230205,0.10271028,0.0,0.0,0.0,-1.0
325837070,325836828,0.0012061045,0.0020883777,-0.006207097,0.10271028,0.0,0.0,0.0,-1.0
325885754,325885525,0.0018832106,0.004630706,-0.0070499824,0.103434585,0.0,0.0,0.0,-1.0
325938158,325937935,0.0024257204,0.0015354613,-0.008237304,0.10271028,0.0,0.0,0.0,-1.0
325986868,325986631,-5.6453246e-05,-0.003036586,-0.009202153,0.10271028,0.0,0.0,0.0,-1.0
326035534,326035305,-0.00019826082,-0.0013259284,-0.010527274,0.10271028,0.0,0.0,0.0,-1.0
326089226,326088982,0.0030746066,0.0029286016,-0.011325377,0.10198598,0.0,0.0,0.0,-1.0
326137889,326137661,0.0050140107,0.003818878,-0.011662819,0.10053739,0.0,0.0,0.0,-1.0
326186574,326186344,0.0020625845,0.0010226489,-0.011258854,0.10271028,0.0,0.0,0.0,-1.0
326235253,326235027,-0.00030737382,-0.0014854432,-0.011048601,0.10560747,0.0,0.0,0.0,-1.0
326287690,326287460,0.00025339538,0.0009886627,-0.010715775,0.10415888,0.0,0.0,0.0,-1.0
326336366,326336138,-0.0012406494,0.002245377,-0.010335226,0.10415888,0.0,0.0,0.0,-1.0
326386300,326386069,0.00047318925,0.0002836174,-0.00995798,0.09401869,0.0,0.0,0.0,-1.0
326438728,326438498,0.0033840744,-0.0017443706,-0.010235149,0.0875,0.0,0.0,0.0,-1.0
326487406,326487181,0.001412102,0.001267262,-0.010429313,0.0875,0.0,0.0,0.0,-1.0
326536089,326535864,-0.0019086009,0.004216738,-0.010219699,0.08894859,0.0,0.0,0.0,-1.0
326586033,326585796,-0.0018260198,0.0024134829,-0.009960398,0.09257009,0.0,0.0,0.0,-1.0
326638453,326638224,-0.0007311772,0.001613254,-0.009044212,0.10198598,0.0,0.0,0.0,-1.0
326687133,326686907,0.003624202,0.002840316,-0.009103244,0.10271028,0.0,0.0,0.0,-1.0
326735817,326735590,0.0060506607,0.0028413455,-0.00973787,0.103434585,0.0,0.0,0.0,-1.0
326788247,326788018,0.004918039,8.658143e-05,-0.01124317,0.10198598,0.0,0.0,0.0,-1.0
326836938,326836701,0.0011867982,-0.0008284078,-0.011858023,0.10198598,0.0,0.0,0.0,-1.0
326886864,326886633,4.5532295e-05,0.0002995923,-0.012651727,0.103434585,0.0,0.0,0.0,-1.0
326935540,326935315,0.0022363125,0.0029278232,-0.012655652,0.10488318,0.0,0.0,0.0,-1.0
326987980,326987745,0.004206676,0.0041184346,-0.011980037,0.108504675,0.0,0.0,0.0,-1.0
327036665,327036427,-0.00054759555,-0.0011594809,-0.012021646,0.11067758,0.0,0.0,0.0,-1.0
327085337,327085111,-0.0022283117,-0.0016500477,-0.011048129,0.113574766,0.0,0.0,0.0,-1.0
327139018,327138787,0.001158251,0.004225826,-0.010725075,0.112850465,0.0,0.0,0.0,-1.0
327187703,327187469,0.003539025,0.0045088846,-0.01137109,0.112850465,0.0,0.0,0.0,-1.0
327236379,327236152,0.0040088524,0.003983787,-0.011682653,0.11212617,0.0,0.0,0.0,-1.0
327285061,327284836,0.0018089669,0.0020025594,-0.012607888,0.10995327,0.0,0.0,0.0,-1.0
327337502,327337271,-0.000121858386,-0.0016487429,-0.013577657,0.10995327,0.0,0.0,0.0,-1.0
327387431,327387196,-0.00059267326,0.0006152122,-0.013910381,0.10922897,0.0,0.0,0.0,-1.0
327437361,327437127,0.0007947778,0.0012061018,-0.014971476,0.10415888,0.0,0.0,0.0,-1.0
327488530,327488307,-0.0022181645,-0.00016314385,-0.01577312,0.10415888,0.0,0.0,0.0,-1.0
327537226,327536993,-0.0039345264,-0.00072700105,-0.015957516,0.10053739,0.0,0.0,0.0,-1.0
327585908,327585677,-0.0013183946,0.0017004417,-0.014827162,0.09981308,0.0,0.0,0.0,-1.0
327635835,327635605,0.00043412807,0.002953294,-0.014199447,0.10053739,0.0,0.0,0.0,-1.0
327688263,327688032,-0.0017479499,9.556658e-06,-0.012750568,0.10415888,0.0,0.0,0.0,-1.0
327736951,327736716,-0.0045731068,-0.0001335844,-0.011297482,0.10271028,0.0,0.0,0.0,-1.0
327785627,327785400,-0.0014557104,0.00267783,-0.011529627,0.09836449,0.0,0.0,0.0,-1.0
327835562,327835330,-0.00022965005,0.0013864686,-0.010946645,0.09981308,0.0,0.0,0.0,-1.0
327887985,327887758,-0.00033141792,-0.0023835879,-0.010824254,0.10126168,0.0,0.0,0.0,-1.0
327936683,327936441,0.0025296211,-0.0036986284,-0.011206234,0.10126168,0.0,0.0,0.0,-1.0
327985350,327985124,0.0022719963,-0.0031260417,-0.011539545,0.10198598,0.0,0.0,0.0,-1.0
328037777,328037552,-0.0023363954,0.0019837325,-0.011427061,0.103434585,0.0,0.0,0.0,-1.0
328086468,328086236,-0.0033853522,0.0068961275,-0.010714136,0.10415888,0.0,0.0,0.0,-1.0
328136413,328136170,-0.0037442131,0.008775398,-0.00945891,0.103434585,0.0,0.0,0.0,-1.0
328185086,328184852,-0.0025420827,0.0035080789,-0.009002384,0.103434585,0.0,0.0,0.0,-1.0
328237571,328237345,-0.00019138979,-0.0011705201,-0.008665347,0.10415888,0.0,0.0,0.0,-1.0
328286193,328285961,0.0018025665,-0.0007288236,-0.008485132,0.10415888,0.0,0.0,0.0,-1.0
328334882,328334645,0.000550882,0.00023409602,-0.007784544,0.11067758,0.0,0.0,0.0,-1.0
328388560,328388322,0.0041137757,0.0013739258,-0.006377614,0.10705608,0.0,0.0,0.0,-1.0
328437230,328437004,0.005451996,0.0009219302,-0.0057424675,0.10488318,0.0,0.0,0.0,-1.0
328485915,328485688,0.00023661042,0.0012712094,-0.00470244,0.10922897,0.0,0.0,0.0,-1.0
328538338,328538115,-0.0014069133,0.00012845366,-0.0043684733,0.11140187,0.0,0.0,0.0,-1.0
328587030,328586798,-0.0012900173,-0.00080920244,-0.0037920633,0.10995327,0.0,0.0,0.0,-1.0
328636960,328636730,-0.0035638327,0.0031465315,-0.0035285393,0.10415888,0.0,0.0,0.0,-1.0
