timestamp,timestamp_sample,x,y,z,r,flaps,aux1,aux2,aux3,aux4,aux5,aux6,data_source
293448214,293447386,-0.0,0.0,0.0,1.0,0.0,0.0,0.0,0.0,0.0,0.0,0.0,1
293729538,293729096,-0.0,0.0,0.0,0.943662,0.0,0.0,0.0,0.0,0.0,0.0,0.0,1
293749794,293749356,-0.0,0.0,0.0,0.80046946,0.0,0.0,0.0,0.0,0.0,0.0,0.0,1
293923760,293923050,-0.0,0.0,0.0,0.0,0.0,0.0,0.0,0.0,0.0,0.0,0.0,1
294055693,294055257,-0.0,0.0,0.0,0.0,0.0,0.0,0.0,0.0,0.0,0.0,0.0,1
294291069,294290640,-0.0,0.0,0.0,0.0,0.0,0.0,0.0,0.0,0.0,0.0,0.0,1
294439645,294439219,-0.0,0.0,0.02686916,0.0,0.0,0.0,0.0,0.0,0.0,0.0,0.0,1
294718141,294717717,-0.0,0.0,0.05724299,0.0,0.0,0.0,0.0,0.0,0.0,0.0,0.0,1
294933409,294932701,-0.0,0.0,0.05724299,0.0,0.0,0.0,0.0,0.0,0.0,0.0,0.0,1
295058714,295058291,-0.0,0.0,0.05724299,0.0,0.0,0.0,0.0,0.0,0.0,0.0,0.0,1
295339547,295339119,-0.0,0.0,0.060747664,0.0,0.0,0.0,0.0,0.0,0.0,0.0,0.0,1
295402508,295402056,-0.0,0.0,0.08411215,0.0,0.0,0.0,0.0,0.0,0.0,0.0,0.0,1
295707791,295707284,-0.0,0.0,0.10280374,0.0,0.0,0.0,0.0,0.0,0.0,0.0,0.0,1
295837853,295837429,-0.0,0.0,0.10864486,0.0,0.0,0.0,0.0,0.0,0.0,0.0,0.0,1
296117311,296116887,0.028436018,0.0,0.10864486,0.0,0.0,0.0,0.0,0.0,0.0,0.0,0.0,1
296336529,296336087,0.073459715,0.0,0.10864486,0.0,0.0,0.0,0.0,0.0,0.0,0.0,0.0,1
296530951,296530517,0.016587678,0.0,0.125,0.0,0.0,0.0,0.0,0.0,0.0,0.0,0.0,1
296726397,296725973,-0.0,0.0,0.13200934,0.0,0.0,0.0,0.0,0.0,0.0,0.0,0.0,1
296921614,296920723,-0.0,0.0,0.13200934,0.0,0.0,0.0,0.0,0.0,0.0,0.0,0.0,1
297095875,297095451,-0.0,0.0,0.13200934,0.0,0.0,0.0,0.0,0.0,0.0,0.0,0.0,1
297315589,297315159,-0.0,0.0,0.14018692,0.0,0.0,0.0,0.0,0.0,0.0,0.0,0.0,1
297530821,297530382,-0.0,0.0,0.15771028,0.0,0.0,0.0,0.0,0.0,0.0,0.0,0.0,1
297725139,297724711,-0.0,0.0,0.16238318,0.0,0.0,0.0,0.0,0.0,0.0,0.0,0.0,1
297901084,297900657,0.0047393367,0.0,0.16238318,0.0,0.0,0.0,0.0,0.0,0.0,0.0,0.0,1
298122839,298122321,-0.0,0.03073286,0.14135514,0.0,0.0,0.0,0.0,0.0,0.0,0.0,0.0,1
298334678,298334224,0.0071090045,0.03073286,0.14719626,0.0,0.0,0.0,0.0,0.0,0.0,0.0,0.0,1
298529007,298528501,0.0521327,0.07328605,0.1495327,0.0,0.0,0.0,0.0,0.0,0.0,0.0,0.0,1
298726377,298725948,0.08530806,0.03782506,0.14018692,0.0,0.0,0.0,0.0,0.0,0.0,0.0,0.0,1
298896468,298896014,0.13033175,0.01891253,0.14018692,0.0,0.0,0.0,0.0,0.0,0.0,0.0,0.0,1
299114290,299113868,0.15165877,0.0,0.12850468,0.0,0.0,0.0,0.0,0.0,0.0,0.0,0.0,1
299329586,299329146,0.17298578,0.0023640662,0.13084112,0.0,0.0,0.0,0.0,0.0,0.0,0.0,0.0,1
299482129,299481623,0.18957347,0.11111111,0.13901868,0.0,0.0,0.0,0.0,0.0,0.0,0.0,0.0,1
299717993,299717467,0.1943128,0.1252955,0.1542056,0.0,0.0,0.0,0.0,0.0,0.0,0.0,0.0,1
299935309,299934787,0.15876777,0.03073286,0.15771028,0.0,0.0,0.0,0.0,0.0,0.0,0.0,0.0,1
300108210,300107544,0.12796208,0.0,0.14602804,0.0,0.0,0.0,0.0,0.0,0.0,0.0,0.0,1
300326438,300326015,0.16587678,0.040189125,0.1495327,0.0,0.0,0.0,0.0,0.0,0.0,0.0,0.0,1
300520524,300520035,0.15165877,0.04255319,0.1495327,0.0,0.0,0.0,0.0,0.0,0.0,0.0,0.0,1
300738558,300738118,0.1421801,0.021276595,0.1542056,0.0,0.0,0.0,0.0,0.0,0.0,0.0,0.0,1
300935426,300934878,0.13033175,0.014184397,0.14836448,0.0,0.0,0.0,0.0,0.0,0.0,0.0,0.0,1
301129425,301128949,0.12796208,0.03309693,0.14602804,0.0,0.0,0.0,0.0,0.0,0.0,0.0,0.0,1
301324580,301324117,0.028436018,0.026004728,0.14836448,0.0,0.0,0.0,0.0,0.0,0.0,0.0,0.0,1
301519045,301518378,0.0047393367,0.04964539,0.14836448,0.0,0.0,0.0,0.0,0.0,0.0,0.0,0.0,1
301714604,301714177,-0.0,0.040189125,0.14836448,0.0,0.0,0.0,0.0,0.0,0.0,0.0,0.0,1
301930973,301930514,-0.0,0.0,0.14836448,0.0,0.0,0.0,0.0,0.0,0.0,0.0,0.0,1
302128184,302127722,-0.0,-0.03773585,0.14836448,0.0,0.0,0.0,0.0,0.0,0.0,0.0,0.0,1
302318204,302317704,-0.0,-0.07783019,0.15070094,0.0,0.0,0.0,0.0,0.0,0.0,0.0,0.0,1
302517428,302517003,-0.0,-0.0495283,0.15070094,0.0,0.0,0.0,0.0,0.0,0.0,0.0,0.0,1
302727816,302727392,-0.0,0.0,0.14369158,0.0,0.0,0.0,0.0,0.0,0.0,0.0,0.0,1
302881295,302880635,-0.0,0.0,0.1448598,0.0,0.0,0.0,0.0,0.0,0.0,0.0,0.0,1
303121696,303121222,-0.0,-0.016509434,0.1448598,0.0,0.0,0.0,0.0,0.0,0.0,0.0,0.0,1
303332547,303332118,0.016587678,0.0,0.1635514,0.0,0.0,0.0,0.0,0.0,0.0,0.0,0.0,1
303528179,303527753,0.028436018,0.0,0.1635514,0.0,0.0,0.0,0.0,0.0,0.0,0.0,0.0,1
303723005,303722575,0.056872036,0.0,0.14836448,0.0,0.0,0.0,0.0,0.0,0.0,0.0,0.0,1
303919187,303918754,0.061611373,0.0,0.14719626,0.0,0.0,0.0,0.0,0.0,0.0,0.0,0.0,1
304112988,304112527,0.09478673,0.0,0.14252336,0.0,0.0,0.0,0.0,0.0,0.0,0.0,0.0,1
304225656,304225222,0.09241706,0.0,0.14369158,0.0,0.0,0.0,0.0,0.0,0.0,0.0,0.0,1
304531968,304531542,0.08293839,0.0,0.14719626,0.0023474179,0.0,0.0,0.0,0.0,0.0,0.0,0.0,1
304719709,304719278,0.08056872,0.0,0.15771028,0.028169014,0.0,0.0,0.0,0.0,0.0,0.0,0.0,1
304936333,304935907,0.06398104,0.0,0.16238318,0.09859155,0.0,0.0,0.0,0.0,0.0,0.0,0.0,1
305130204,305129780,0.07109005,0.0,0.16238318,0.09154929,0.0,0.0,0.0,0.0,0.0,0.0,0.0,1
305329133,305328706,0.07109005,0.0,0.14135514,0.032863848,0.0,0.0,0.0,0.0,0.0,0.0,0.0,1
305524511,305524086,0.06872038,0.0,0.13901868,0.0,0.0,0.0,0.0,0.0,0.0,0.0,0.0,1
305695307,305694879,0.0521327,0.0,0.15537383,0.0,0.0,0.0,0.0,0.0,0.0,0.0,0.0,1
305933756,305933291,0.0521327,0.0,0.17523365,0.0,0.0,0.0,0.0,0.0,0.0,0.0,0.0,1
306128491,306128069,0.049763035,0.0,0.1495327,0.0,0.0,0.0,0.0,0.0,0.0,0.0,0.0,1
306303343,306302920,0.073459715,0.0,0.1635514,0.0,0.0,0.0,0.0,0.0,0.0,0.0,0.0,1
306524066,306523635,0.073459715,0.0,0.1495327,0.0,0.0,0.0,0.0,0.0,0.0,0.0,0.0,1
306678847,306678424,0.073459715,0.0,0.15771028,0.0,0.0,0.0,0.0,0.0,0.0,0.0,0.0,1
306918705,306918110,0.061611373,0.0,0.15654206,0.016431924,0.0,0.0,0.0,0.0,0.0,0.0,0.0,1
307116982,307116421,0.06635071,0.0,0.13901868,0.049295776,0.0,0.0,0.0,0.0,0.0,0.0,0.0,1
307334900,307334472,0.07819905,0.0,0.13317756,0.05399061,0.0,0.0,0.0,0.0,0.0,0.0,0.0,1
307529236,307528808,0.11374407,0.0,0.15303738,0.037558686,0.0,0.0,0.0,0.0,0.0,0.0,0.0,1
307725866,307725284,0.11848341,0.0,0.17406543,0.01173709,0.0,0.0,0.0,0.0,0.0,0.0,0.0,1
307920208,307919751,0.1563981,0.0,0.18341121,0.0023474179,0.0,0.0,0.0,0.0,0.0,0.0,0.0,1
308129728,308129306,0.18246445,0.0,0.15771028,0.0,0.0,0.0,0.0,0.0,0.0,0.0,0.0,1
308325814,308325389,0.18246445,0.0,0.13668224,0.0,0.0,0.0,0.0,0.0,0.0,0.0,0.0,1
308520418,308519988,0.17061612,0.0,0.13317756,0.0,0.0,0.0,0.0,0.0,0.0,0.0,0.0,1
308673928,308673499,0.1943128,0.0,0.1495327,0.0,0.0,0.0,0.0,0.0,0.0,0.0,0.0,1
308935815,308935386,0.18483412,0.0,0.1542056,0.0,0.0,0.0,0.0,0.0,0.0,0.0,0.0,1
309129535,309129111,0.1800948,0.0,0.16121495,0.0,0.0,0.0,0.0,0.0,0.0,0.0,0.0,1
309322790,309322363,0.18957347,0.0,0.1635514,0.0,0.0,0.0,0.0,0.0,0.0,0.0,0.0,1
309513800,309513377,0.1800948,0.0,0.1635514,0.0,0.0,0.0,0.0,0.0,0.0,0.0,0.0,1
309733613,309733186,0.18483412,0.0,0.1635514,0.0,0.0,0.0,0.0,0.0,0.0,0.0,0.0,1
309928004,309927551,0.15165877,0.0,0.15070094,0.0,0.0,0.0,0.0,0.0,0.0,0.0,0.0,1
310124232,310123802,0.1563981,0.0,0.15070094,0.028169014,0.0,0.0,0.0,0.0,0.0,0.0,0.0,1
310319474,310319051,0.13507108,0.0,0.14836448,0.0070422534,0.0,0.0,0.0,0.0,0.0,0.0,0.0,1
310535704,310535151,0.13270143,0.0,0.14836448,0.0093896715,0.0,0.0,0.0,0.0,0.0,0.0,0.0,1
310732195,310731693,0.14691943,0.0,0.14836448,0.02112676,0.0,0.0,0.0,0.0,0.0,0.0,0.0,1
310924948,310924520,0.15165877,0.0,0.1588785,0.056338027,0.0,0.0,0.0,0.0,0.0,0.0,0.0,1
311316050,311315622,0.1563981,0.03782506,0.15303738,0.03521127,0.0,0.0,0.0,0.0,0.0,0.0,0.0,1
312131598,312131075,0.15165877,0.0,0.14836448,0.0,0.0,0.0,0.0,0.0,0.0,0.0,0.0,1
312324993,312324569,0.15165877,0.014184397,0.15303738,0.01173709,0.0,0.0,0.0,0.0,0.0,0.0,0.0,1
312523943,312523520,0.15165877,0.028368793,0.15303738,0.0093896715,0.0,0.0,0.0,0.0,0.0,0.0,0.0,1
312722097,312721669,0.15165877,0.04255319,0.16705607,0.01173709,0.0,0.0,0.0,0.0,0.0,0.0,0.0,1
312920282,312919861,0.12796208,0.014184397,0.1635514,0.028169014,0.0,0.0,0.0,0.0,0.0,0.0,0.0,1
313139150,313138330,0.13981043,0.016548464,0.16471963,0.02347418,0.0,0.0,0.0,0.0,0.0,0.0,0.0,1
313334800,313334378,0.13033175,0.0047281324,0.14252336,0.0093896715,0.0,0.0,0.0,0.0,0.0,0.0,0.0,1
313528181,313527757,0.11137441,0.0,0.1448598,0.0,0.0,0.0,0.0,0.0,0.0,0.0,0.0,1
313726795,313726369,0.09952607,0.04964539,0.15537383,0.0,0.0,0.0,0.0,0.0,0.0,0.0,0.0,1
313920563,313920050,0.10663507,0.026004728,0.17757009,0.0,0.0,0.0,0.0,0.0,0.0,0.0,0.0,1
314117955,314117500,0.09478673,0.0,0.15537383,0.0,0.0,0.0,0.0,0.0,0.0,0.0,0.0,1
314331517,314331091,0.0971564,0.0,0.16705607,0.0,0.0,0.0,0.0,0.0,0.0,0.0,0.0,1
314502687,314502149,0.09952607,0.0,0.1542056,0.0,0.0,0.0,0.0,0.0,0.0,0.0,0.0,1
314730558,314730104,0.11137441,0.0,0.16588785,0.0,0.0,0.0,0.0,0.0,0.0,0.0,0.0,1
314916366,314915943,0.109004736,0.0,0.15771028,0.0,0.0,0.0,0.0,0.0,0.0,0.0,0.0,1
315130040,315129617,0.116113745,0.0,0.14719626,0.0,0.0,0.0,0.0,0.0,0.0,0.0,0.0,1
315327135,315326711,0.09478673,-0.014150944,0.1495327,0.0,0.0,0.0,0.0,0.0,0.0,0.0,0.0,1
315525262,315524835,0.07582939,-0.08018868,0.16121495,0.0,0.0,0.0,0.0,0.0,0.0,0.0,0.0,1
315719785,315719348,0.08056872,-0.068396226,0.12733644,0.0,0.0,0.0,0.0,0.0,0.0,0.0,0.0,1
315916464,315916031,0.059241705,-0.091981135,0.13551402,0.0,0.0,0.0,0.0,0.0,0.0,0.0,0.0,1
316135851,316135429,0.1421801,0.0,0.1542056,0.0,0.0,0.0,0.0,0.0,0.0,0.0,0.0,1
316328940,316328440,0.15402843,0.0,0.15654206,0.0,0.0,0.0,0.0,0.0,0.0,0.0,0.0,1
316523197,316522776,0.14454976,0.0,0.17873831,0.0,0.0,0.0,0.0,0.0,0.0,0.0,0.0,1
316721655,316721226,0.13981043,0.0,0.17873831,0.0,0.0,0.0,0.0,0.0,0.0,0.0,0.0,1
316913928,316913507,0.101895735,0.0070921984,0.15070094,0.0,0.0,0.0,0.0,0.0,0.0,0.0,0.0,1
317132287,317131862,0.123222746,0.0,0.1495327,0.0,0.0,0.0,0.0,0.0,0.0,0.0,0.0,1
317324287,317323864,0.087677725,0.03782506,0.12850468,0.0,0.0,0.0,0.0,0.0,0.0,0.0,0.0,1
317519015,317518590,0.11137441,0.04964539,0.16004673,0.0,0.0,0.0,0.0,0.0,0.0,0.0,0.0,1
317737597,317737171,0.16113745,0.06855792,0.1588785,0.0,0.0,0.0,0.0,0.0,0.0,0.0,0.0,1
317932741,317932289,0.123222746,0.04491726,0.15186916,0.0,0.0,0.0,0.0,0.0,0.0,0.0,0.0,1
318126222,318125772,0.13744076,0.06619386,0.17056075,0.0,0.0,0.0,0.0,0.0,0.0,0.0,0.0,1
318316734,318316309,0.13981043,0.04491726,0.16471963,0.0,0.0,0.0,0.0,0.0,0.0,0.0,0.0,1
318516594,318516011,0.14691943,0.026004728,0.1495327,0.0,0.0,0.0,0.0,0.0,0.0,0.0,0.0,1
318731346,318730923,0.14691943,0.021276595,0.12850468,0.0,0.0,0.0,0.0,0.0,0.0,0.0,0.0,1
318927696,318927261,0.17061612,0.0,0.13084112,0.0,0.0,0.0,0.0,0.0,0.0,0.0,0.0,1
319124569,319124145,0.15876777,0.0070921984,0.15186916,0.0,0.0,0.0,0.0,0.0,0.0,0.0,0.0,1
319336490,319336068,0.17061612,0.0023640662,0.15070094,0.0,0.0,0.0,0.0,0.0,0.0,0.0,0.0,1
319531581,319531153,0.16113745,0.0,0.15186916,0.0,0.0,0.0,0.0,0.0,0.0,0.0,0.0,1
319725271,319724816,0.1635071,0.0,0.15070094,0.0,0.0,0.0,0.0,0.0,0.0,0.0,0.0,1
319919062,319918523,0.16587678,0.0,0.15771028,0.0,0.0,0.0,0.0,0.0,0.0,0.0,0.0,1
320128775,320128279,0.14454976,0.0,0.17289719,0.0,0.0,0.0,0.0,0.0,0.0,0.0,0.0,1
320322926,320322501,0.16113745,0.0,0.15537383,0.0,0.0,0.0,0.0,0.0,0.0,0.0,0.0,1
320537142,320536712,0.1635071,0.0,0.14018692,-0.004750594,0.0,0.0,0.0,0.0,0.0,0.0,0.0,1
320728450,320728027,0.16113745,0.0,0.1343458,-0.038004752,0.0,0.0,0.0,0.0,0.0,0.0,0.0,1
320926214,320925787,0.15876777,0.0,0.1542056,-0.04513064,0.0,0.0,0.0,0.0,0.0,0.0,0.0,1
321120565,321120139,0.13507108,0.0,0.1542056,-0.057007127,0.0,0.0,0.0,0.0,0.0,0.0,0.0,1
321317556,321317130,0.14691943,0.0,0.16705607,-0.038004752,0.0,0.0,0.0,0.0,0.0,0.0,0.0,1
321530020,321529590,0.13270143,0.0,0.1495327,-0.007125891,0.0,0.0,0.0,0.0,0.0,0.0,0.0,1
321725366,321724812,0.116113745,0.0,0.1542056,0.0,0.0,0.0,0.0,0.0,0.0,0.0,0.0,1
321920677,321920246,0.109004736,0.0,0.15186916,0.0,0.0,0.0,0.0,0.0,0.0,0.0,0.0,1
322116710,322116274,0.109004736,0.0,0.13551402,0.0,0.0,0.0,0.0,0.0,0.0,0.0,0.0,1
322332423,322331998,0.11137441,0.0,0.1495327,0.0,0.0,0.0,0.0,0.0,0.0,0.0,0.0,1
322528968,322528542,0.11137441,0.0,0.16238318,0.0,0.0,0.0,0.0,0.0,0.0,0.0,0.0,1
322720641,322720214,0.1421801,0.0,0.15186916,0.0,0.0,0.0,0.0,0.0,0.0,0.0,0.0,1
322938236,322937596,0.116113745,0.0,0.14369158,-0.009501188,0.0,0.0,0.0,0.0,0.0,0.0,0.0,1
323133920,323133493,0.13507108,0.0,0.12616822,-0.009501188,0.0,0.0,0.0,0.0,0.0,0.0,0.0,1
323327545,323327109,0.15165877,0.0,0.1542056,-0.03087886,0.0,0.0,0.0,0.0,0.0,0.0,0.0,1
323518630,323518181,0.1421801,0.0,0.1542056,-0.009501188,0.0,0.0,0.0,0.0,0.0,0.0,0.0,1
323734380,323733885,0.12796208,0.0,0.1542056,0.0,0.0,0.0,0.0,0.0,0.0,0.0,0.0,1
323930643,323930217,0.11848341,0.0,0.15771028,0.0,0.0,0.0,0.0,0.0,0.0,0.0,0.0,1
324125497,324125048,0.101895735,0.0,0.16705607,0.0,0.0,0.0,0.0,0.0,0.0,0.0,0.0,1
324322773,324322348,0.10663507,0.014184397,0.15186916,0.0,0.0,0.0,0.0,0.0,0.0,0.0,0.0,1
324517897,324517468,0.12559241,0.023640662,0.1542056,0.0,0.0,0.0,0.0,0.0,0.0,0.0,0.0,1
324733069,324732641,0.11137441,0.009456265,0.13901868,0.0,0.0,0.0,0.0,0.0,0.0,0.0,0.0,1
324930353,324929858,0.13744076,0.040189125,0.14252336,0.0,0.0,0.0,0.0,0.0,0.0,0.0,0.0,1
325126138,325125681,0.123222746,0.021276595,0.1495327,0.0,0.0,0.0,0.0,0.0,0.0,0.0,0.0,1
325323246,325322818,0.11374407,0.014184397,0.15771028,0.0,0.0,0.0,0.0,0.0,0.0,0.0,0.0,1
325516921,325515952,0.12085308,0.04491726,0.15771028,0.0,0.0,0.0,0.0,0.0,0.0,0.0,0.0,1
325731091,325730549,0.123222746,0.014184397,0.15771028,0.0,0.0,0.0,0.0,0.0,0.0,0.0,0.0,1
325921324,325920899,0.11848341,0.0,0.1495327,0.0,0.0,0.0,0.0,0.0,0.0,0.0,0.0,1
326115547,326115050,0.13507108,0.0023640662,0.14602804,0.0,0.0,0.0,0.0,0.0,0.0,0.0,0.0,1
326333755,326333327,0.12796208,0.0,0.15070094,0.0,0.0,0.0,0.0,0.0,0.0,0.0,0.0,1
326528772,326528332,0.15165877,0.028368793,0.12850468,0.0,0.0,0.0,0.0,0.0,0.0,0.0,0.0,1
326720325,326719772,0.1492891,0.0,0.15070094,0.0,0.0,0.0,0.0,0.0,0.0,0.0,0.0,1
326925606,326925076,0.13270143,0.03073286,0.15303738,0.0,0.0,0.0,0.0,0.0,0.0,0.0,0.0,1
327134710,327134115,0.13270143,0.021276595,0.16588785,0.0,0.0,0.0,0.0,0.0,0.0,0.0,0.0,1
327330085,327329560,0.12796208,0.01891253,0.16121495,0.0,0.0,0.0,0.0,0.0,0.0,0.0,0.0,1
327521776,327521351,0.15402843,0.056737587,0.14602804,0.0,0.0,0.0,0.0,0.0,0.0,0.0,0.0,1
327717147,327716716,0.16113745,0.04964539,0.1495327,0.0,0.0,0.0,0.0,0.0,0.0,0.0,0.0,1
327936523,327936098,0.15402843,0.07565012,0.14719626,0.0,0.0,0.0,0.0,0.0,0.0,0.0,0.0,1
328127775,328127209,0.15165877,0.04255319,0.15070094,0.0,0.0,0.0,0.0,0.0,0.0,0.0,0.0,1
328318214,328317758,0.12796208,0.023640662,0.16238318,0.0,0.0,0.0,0.0,0.0,0.0,0.0,0.0,1
328534132,328533707,0.13033175,0.03073286,0.1635514,0.0,0.0,0.0,0.0,0.0,0.0,0.0,0.0,1
328708720,328708297,0.13270143,0.0,0.15537383,0.0,0.0,0.0,0.0,0.0,0.0,0.0,0.0,1
328925978,328925549,0.101895735,-0.051886793,0.15303738,0.0,0.0,0.0,0.0,0.0,0.0,0.0,0.0,1
329121871,329121446,0.04028436,-0.13207547,0.15186916,0.0,0.0,0.0,0.0,0.0,0.0,0.0,0.0,1
329317816,329317391,0.059241705,-0.0754717,0.12383178,0.0,0.0,0.0,0.0,0.0,0.0,0.0,0.0,1
329530818,329530318,0.109004736,0.0,0.14836448,0.0,0.0,0.0,0.0,0.0,0.0,0.0,0.0,1
329722365,329721938,0.116113745,0.0,0.15186916,0.0,0.0,0.0,0.0,0.0,0.0,0.0,0.0,1
329935840,329935413,0.11374407,0.0,0.18107477,0.0,0.0,0.0,0.0,0.0,0.0,0.0,0.0,1
330135074,330134520,0.101895735,0.0,0.17757009,0.0,0.0,0.0,0.0,0.0,0.0,0.0,0.0,1
330326568,330326098,0.116113745,0.059101656,0.14836448,0.0,0.0,0.0,0.0,0.0,0.0,0.0,0.0,1
330525170,330524733,0.13744076,0.009456265,0.15654206,0.0,0.0,0.0,0.0,0.0,0.0,0.0,0.0,1
330720988,330720564,0.11848341,0.0,0.12383178,0.0,0.0,0.0,0.0,0.0,0.0,0.0,0.0,1
330935632,330935209,0.12559241,0.0,0.125,0.0,0.0,0.0,0.0,0.0,0.0,0.0,0.0,1
331132206,331131780,0.11848341,0.0,0.14602804,0.0,0.0,0.0,0.0,0.0,0.0,0.0,0.0,1
331328879,331328452,0.12085308,0.0,0.16238318,0.0,0.0,0.0,0.0,0.0,0.0,0.0,0.0,1
331519788,331519365,0.12796208,0.04255319,0.1542056,0.0,0.0,0.0,0.0,0.0,0.0,0.0,0.0,1
331737797,331737303,0.11137441,0.0,0.14602804,0.0,0.0,0.0,0.0,0.0,0.0,0.0,0.0,1
331936550,331936103,0.109004736,0.0,0.16238318,0.0,0.0,0.0,0.0,0.0,0.0,0.0,0.0,1
332127956,332127530,0.116113745,0.0,0.17172897,0.0,0.0,0.0,0.0,0.0,0.0,0.0,0.0,1
332325499,332325074,0.13981043,0.028368793,0.15070094,0.0,0.0,0.0,0.0,0.0,0.0,0.0,0.0,1
332523458,332523029,0.15165877,0.03073286,0.15186916,0.0,0.0,0.0,0.0,0.0,0.0,0.0,0.0,1
332735158,332734526,0.13507108,0.0023640662,0.13668224,0.0,0.0,0.0,0.0,0.0,0.0,0.0,0.0,1
332930704,332930273,0.13270143,0.0,0.1542056,0.0,0.0,0.0,0.0,0.0,0.0,0.0,0.0,1
333122596,333122173,0.13033175,0.0,0.17172897,0.0,0.0,0.0,0.0,0.0,0.0,0.0,0.0,1
333337306,333336813,0.12796208,0.014184397,0.1542056,0.0,0.0,0.0,0.0,0.0,0.0,0.0,0.0,1
333529779,333529352,0.13981043,0.0,0.1448598,0.0,0.0,0.0,0.0,0.0,0.0,0.0,0.0,1
333726706,333726279,0.12559241,0.0,0.14369158,-0.023752969,0.0,0.0,0.0,0.0,0.0,0.0,0.0,1
333923608,333923180,0.11848341,0.0,0.14836448,-0.066508316,0.0,0.0,0.0,0.0,0.0,0.0,0.0,1
334119286,334118856,0.101895735,0.0,0.14836448,-0.04513064,0.0,0.0,0.0,0.0,0.0,0.0,0.0,1
334337847,334336951,0.09952607,0.0,0.16705607,-0.049881235,0.0,0.0,0.0,0.0,0.0,0.0,0.0,1
334533674,334533211,0.11374407,0.0,0.16705607,-0.026128266,0.0,0.0,0.0,0.0,0.0,0.0,0.0,1
334725422,334724993,0.08293839,0.05437352,0.14602804,-0.007125891,0.0,0.0,0.0,0.0,0.0,0.0,0.0,1
334915460,334915032,0.09241706,0.040189125,0.1448598,0.0,0.0,0.0,0.0,0.0,0.0,0.0,0.0,1
335133500,335132970,0.09952607,0.047281325,0.13668224,0.0,0.0,0.0,0.0,0.0,0.0,0.0,0.0,1
335327873,335327428,0.09241706,0.04255319,0.16004673,0.0,0.0,0.0,0.0,0.0,0.0,0.0,0.0,1
335519534,335519108,0.061611373,0.0,0.18808411,0.0,0.0,0.0,0.0,0.0,0.0,0.0,0.0,1
335715919,335715492,0.06398104,0.0,0.17172897,0.0,0.0,0.0,0.0,0.0,0.0,0.0,0.0,1
335933682,335933246,0.08293839,0.0,0.14602804,0.0,0.0,0.0,0.0,0.0,0.0,0.0,0.0,1
336131169,336130743,0.09478673,0.0,0.12266355,0.0,0.0,0.0,0.0,0.0,0.0,0.0,0.0,1
336327182,336326758,0.11137441,0.026004728,0.14836448,0.0,0.0,0.0,0.0,0.0,0.0,0.0,0.0,1
336519407,336518950,0.11848341,0.023640662,0.14135514,0.0,0.0,0.0,0.0,0.0,0.0,0.0,0.0,1
336732651,336732206,0.11137441,0.0,0.1495327,0.0,0.0,0.0,0.0,0.0,0.0,0.0,0.0,1
336926445,336926019,0.116113745,0.0,0.14369158,0.0,0.0,0.0,0.0,0.0,0.0,0.0,0.0,1
337125431,337124872,0.123222746,0.0,0.16238318,0.0,0.0,0.0,0.0,0.0,0.0,0.0,0.0,1
337316996,337316388,0.12796208,0.0,0.17757009,0.0,0.0,0.0,0.0,0.0,0.0,0.0,0.0,1
337535617,337535145,0.13033175,0.0,0.18341121,0.0,0.0,0.0,0.0,0.0,0.0,0.0,0.0,1
337733763,337733334,0.12796208,0.0047281324,0.17523365,0.0,0.0,0.0,0.0,0.0,0.0,0.0,0.0,1
337905088,337904664,0.11848341,0.0070921984,0.15771028,0.0,0.0,0.0,0.0,0.0,0.0,0.0,0.0,1
338124448,338124024,0.1042654,0.03309693,0.14135514,0.0,0.0,0.0,0.0,0.0,0.0,0.0,0.0,1
338319764,338319318,0.07582939,0.03782506,0.1495327,0.0,0.0,0.0,0.0,0.0,0.0,0.0,0.0,1
338537918,338537469,0.09952607,0.0070921984,0.15537383,0.0,0.0,0.0,0.0,0.0,0.0,0.0,0.0,1
338733777,338733305,0.09952607,0.0,0.16471963,0.0,0.0,0.0,0.0,0.0,0.0,0.0,0.0,1
338928289,338927864,0.10663507,0.0,0.15303738,0.0,0.0,0.0,0.0,0.0,0.0,0.0,0.0,1
339129279,339128853,0.11137441,-0.025943397,0.1635514,0.0,0.0,0.0,0.0,0.0,0.0,0.0,0.0,1
339319278,339318846,0.109004736,0.0,0.17990655,0.0,0.0,0.0,0.0,0.0,0.0,0.0,0.0,1
339514333,339513877,0.123222746,0.0,0.16939253,0.0,0.0,0.0,0.0,0.0,0.0,0.0,0.0,1
339728880,339728048,0.17061612,0.0,0.12616822,0.0,0.0,0.0,0.0,0.0,0.0,0.0,0.0,1
339921313,339920888,0.17535545,0.0,0.13200934,0.0,0.0,0.0,0.0,0.0,0.0,0.0,0.0,1
340117013,340116578,0.1872038,0.0,0.14135514,0.0,0.0,0.0,0.0,0.0,0.0,0.0,0.0,1
340336465,340336037,0.19194312,0.0,0.17523365,0.0,0.0,0.0,0.0,0.0,0.0,0.0,0.0,1
340509096,340508634,0.2014218,0.0,0.19859813,0.0,0.0,0.0,0.0,0.0,0.0,0.0,0.0,1
340727085,340726661,0.20379147,0.0,0.17523365,0.0,0.0,0.0,0.0,0.0,0.0,0.0,0.0,1
340900855,340900428,0.1872038,0.0,0.16004673,0.0,0.0,0.0,0.0,0.0,0.0,0.0,0.0,1
341119368,341118943,0.1563981,0.016548464,0.13785046,0.0,0.0,0.0,0.0,0.0,0.0,0.0,0.0,1
341336375,341335917,0.11374407,0.0,0.13317756,0.0,0.0,0.0,0.0,0.0,0.0,0.0,0.0,1
341529142,341528641,0.1042654,0.0,0.125,0.0,0.0,0.0,0.0,0.0,0.0,0.0,0.0,1
341724064,341723633,0.13507108,0.0,0.1542056,0.0,0.0,0.0,0.0,0.0,0.0,0.0,0.0,1
341897200,341896772,0.13981043,0.0,0.15303738,0.0,0.0,0.0,0.0,0.0,0.0,0.0,0.0,1
342134104,342133679,0.15402843,0.0,0.16705607,0.0,0.0,0.0,0.0,0.0,0.0,0.0,0.0,1
342325010,342324530,0.1421801,0.0,0.16238318,0.0,0.0,0.0,0.0,0.0,0.0,0.0,0.0,1
342523614,342523151,0.12796208,0.0,0.15303738,0.0,0.0,0.0,0.0,0.0,0.0,0.0,0.0,1
342722916,342722487,0.16587678,0.026004728,0.1542056,0.0,0.0,0.0,0.0,0.0,0.0,0.0,0.0,1
342936232,342935708,0.13744076,0.0,0.1495327,0.0,0.0,0.0,0.0,0.0,0.0,0.0,0.0,1
343129435,343129007,0.14691943,0.0,0.14836448,0.0,0.0,0.0,0.0,0.0,0.0,0.0,0.0,1
343283644,343283210,0.1563981,0.0,0.15654206,0.0,0.0,0.0,0.0,0.0,0.0,0.0,0.0,1
343498674,343498220,0.17061612,0.0,0.16121495,0.0,0.0,0.0,0.0,0.0,0.0,0.0,0.0,1
343718366,343717940,0.17535545,0.0,0.16588785,0.0,0.0,0.0,0.0,0.0,0.0,0.0,0.0,1
343887805,343887382,0.16587678,0.0,0.16939253,0.0,0.0,0.0,0.0,0.0,0.0,0.0,0.0,1
344131202,344130777,0.15402843,0.0,0.12616822,0.0,0.0,0.0,0.0,0.0,0.0,0.0,0.0,1
344327756,344327265,0.1635071,0.0,0.14836448,0.0,0.0,0.0,0.0,0.0,0.0,0.0,0.0,1
344521081,344520640,0.16587678,0.0,0.15303738,0.0,0.0,0.0,0.0,0.0,0.0,0.0,0.0,1
344719718,344719292,0.15402843,0.0,0.17757009,0.0,0.0,0.0,0.0,0.0,0.0,0.0,0.0,1
344935634,344935179,0.14454976,0.0,0.17523365,0.0,0.0,0.0,0.0,0.0,0.0,0.0,0.0,1
345130125,345129701,0.14454976,0.0,0.14369158,0.0,0.0,0.0,0.0,0.0,0.0,0.0,0.0,1
345328873,345328423,0.15402843,0.0,0.14369158,0.0,0.0,0.0,0.0,0.0,0.0,0.0,0.0,1
345524342,345523919,0.17535545,0.0,0.15070094,0.0,0.0,0.0,0.0,0.0,0.0,0.0,0.0,1
345736702,345736274,0.16587678,0.0,0.13084112,0.0,0.0,0.0,0.0,0.0,0.0,0.0,0.0,1
345933499,345933074,0.16113745,0.0,0.1542056,0.0,0.0,0.0,0.0,0.0,0.0,0.0,0.0,1
346131792,346131341,0.17535545,0.0,0.15771028,0.0,0.0,0.0,0.0,0.0,0.0,0.0,0.0,1
346319964,346319513,0.1635071,0.0,0.16121495,0.0,0.0,0.0,0.0,0.0,0.0,0.0,0.0,1
346449379,346448836,0.17535545,0.0,0.18574767,0.0,0.0,0.0,0.0,0.0,0.0,0.0,0.0,1
346732618,346732190,0.14454976,0.08510638,0.15771028,0.0,0.0,0.0,0.0,0.0,0.0,0.0,0.0,1
346927412,346926409,0.13981043,0.035460994,0.15303738,0.0,0.0,0.0,0.0,0.0,0.0,0.0,0.0,1
347118406,347117983,0.15876777,0.0070921984,0.15186916,0.0,0.0,0.0,0.0,0.0,0.0,0.0,0.0,1
347331812,347331389,0.12796208,0.028368793,0.15771028,0.0,0.0,0.0,0.0,0.0,0.0,0.0,0.0,1
347530565,347530130,0.13507108,0.059101656,0.16939253,0.0,0.0,0.0,0.0,0.0,0.0,0.0,0.0,1
347722455,347722032,0.13033175,0.059101656,0.16471963,0.0,0.0,0.0,0.0,0.0,0.0,0.0,0.0,1
347916046,347915624,0.1492891,0.08510638,0.16939253,0.0,0.0,0.0,0.0,0.0,0.0,0.0,0.0,1
348127065,348126639,0.15165877,0.05437352,0.13668224,0.0,0.0,0.0,0.0,0.0,0.0,0.0,0.0,1
348322218,348321768,0.15402843,0.0,0.12266355,0.0,0.0,0.0,0.0,0.0,0.0,0.0,0.0,1
348518063,348517497,0.1872038,0.0,0.15303738,0.0,0.0,0.0,0.0,0.0,0.0,0.0,0.0,1
348735251,348733873,0.18246445,0.0,0.16121495,0.0,0.0,0.0,0.0,0.0,0.0,0.0,0.0,1
348928988,348928561,0.17772512,0.0,0.14602804,0.0,0.0,0.0,0.0,0.0,0.0,0.0,0.0,1
349120144,349119673,0.18483412,0.0,0.14602804,0.0,0.0,0.0,0.0,0.0,0.0,0.0,0.0,1
349335350,349334905,0.19194312,0.0,0.1495327,-0.002375297,0.0,0.0,0.0,0.0,0.0,0.0,0.0,1
349525192,349524762,0.2014218,0.0,0.1682243,0.0,0.0,0.0,0.0,0.0,0.0,0.0,0.0,1
349726848,349726323,0.2014218,0.0,0.16705607,0.0,0.0,0.0,0.0,0.0,0.0,0.0,0.0,1
349919475,349919052,0.18483412,0.0,0.17172897,0.0,0.0,0.0,0.0,0.0,0.0,0.0,0.0,1
350114803,350114378,0.18957347,0.0,0.17757009,0.0,0.0,0.0,0.0,0.0,0.0,0.0,0.0,1
350328940,350328516,0.18957347,0.0,0.125,0.0,0.0,0.0,0.0,0.0,0.0,0.0,0.0,1
350527472,350527048,0.17772512,0.0,0.14836448,0.0,0.0,0.0,0.0,0.0,0.0,0.0,0.0,1
350697453,350697023,0.17535545,-0.0023584906,0.15771028,0.0,0.0,0.0,0.0,0.0,0.0,0.0,0.0,1
350935611,350935174,0.16824645,0.0,0.12733644,0.0,0.0,0.0,0.0,0.0,0.0,0.0,0.0,1
351132844,351132343,0.1800948,0.0,0.17172897,0.0,0.0,0.0,0.0,0.0,0.0,0.0,0.0,1
351305892,351305468,0.18483412,0.0,0.17757009,0.0,0.0,0.0,0.0,0.0,0.0,0.0,0.0,1
351522295,351521870,0.17061612,0.0,0.18107477,0.0,0.0,0.0,0.0,0.0,0.0,0.0,0.0,1
351714869,351714448,0.18246445,0.0,0.17523365,0.028169014,0.0,0.0,0.0,0.0,0.0,0.0,0.0,1
351931815,351931332,0.12085308,0.0,0.125,0.037558686,0.0,0.0,0.0,0.0,0.0,0.0,0.0,1
352130200,352129775,0.12796208,0.0,0.1448598,0.01173709,0.0,0.0,0.0,0.0,0.0,0.0,0.0,1
352320002,352319580,0.04265403,0.0,0.1343458,0.0,0.0,0.0,0.0,0.0,0.0,0.0,0.0,1
352531015,352530566,0.011848342,0.0,0.13785046,0.0,0.0,0.0,0.0,0.0,0.0,0.0,0.0,1
352727768,352727164,0.101895735,0.0,0.15303738,0.0,0.0,0.0,0.0,0.0,0.0,0.0,0.0,1
352924111,352923685,0.09478673,0.0,0.15771028,0.0023474179,0.0,0.0,0.0,0.0,0.0,0.0,0.0,1
353118427,353117914,0.087677725,0.0,0.17172897,0.0,0.0,0.0,0.0,0.0,0.0,0.0,0.0,1
353332615,353332179,0.08056872,0.0,0.19859813,0.0,0.0,0.0,0.0,0.0,0.0,0.0,0.0,1
353529547,353529120,0.073459715,0.0,0.15186916,0.0,0.0,0.0,0.0,0.0,0.0,0.0,0.0,1
353726850,353726427,0.06398104,0.0,0.13785046,0.0046948357,0.0,0.0,0.0,0.0,0.0,0.0,0.0,1
353920558,353920062,0.049763035,0.009456265,0.1542056,0.02347418,0.0,0.0,0.0,0.0,0.0,0.0,0.0,1
354136993,354136565,0.011848342,0.0,0.14018692,0.07042254,0.0,0.0,0.0,0.0,0.0,0.0,0.0,1
354331226,354330799,0.035545025,0.021276595,0.17873831,0.030516433,0.0,0.0,0.0,0.0,0.0,0.0,0.0,1
354528322,354527900,0.073459715,0.011820331,0.16705607,0.04694836,0.0,0.0,0.0,0.0,0.0,0.0,0.0,1
354727434,354726975,0.101895735,0.021276595,0.16121495,0.09389672,0.0,0.0,0.0,0.0,0.0,0.0,0.0,1
354919243,354918815,0.12085308,0.028368793,0.1448598,0.07981221,0.0,0.0,0.0,0.0,0.0,0.0,0.0,1
355131255,355130756,0.07109005,0.08510638,0.14836448,0.0093896715,0.0,0.0,0.0,0.0,0.0,0.0,0.0,1
355325634,355325130,0.0047393367,0.120567374,0.14836448,0.0,0.0,0.0,0.0,0.0,0.0,0.0,0.0,1
355524073,355523643,0.08056872,0.10638298,0.16238318,0.0,0.0,0.0,0.0,0.0,0.0,0.0,0.0,1
355721891,355721462,0.12559241,0.07328605,0.1542056,0.0,0.0,0.0,0.0,0.0,0.0,0.0,0.0,1
355920281,355919788,0.13981043,0.06146572,0.17289719,0.0,0.0,0.0,0.0,0.0,0.0,0.0,0.0,1
356118734,356118300,0.13033175,0.059101656,0.15070094,0.0,0.0,0.0,0.0,0.0,0.0,0.0,0.0,1
356332755,356332247,0.11848341,0.04491726,0.17172897,0.0,0.0,0.0,0.0,0.0,0.0,0.0,0.0,1
356523754,356523274,0.13270143,0.056737587,0.14135514,0.0,0.0,0.0,0.0,0.0,0.0,0.0,0.0,1
356717980,356717553,0.1421801,0.0023640662,0.1495327,0.0,0.0,0.0,0.0,0.0,0.0,0.0,0.0,1
356937568,356937145,0.11848341,0.0,0.14018692,0.0,0.0,0.0,0.0,0.0,0.0,0.0,0.0,1
357131444,357131013,0.13270143,0.0,0.1495327,0.0,0.0,0.0,0.0,0.0,0.0,0.0,0.0,1
357331389,357330877,0.116113745,0.0,0.17289719,0.0,0.0,0.0,0.0,0.0,0.0,0.0,0.0,1
357520558,357520108,0.12796208,0.0,0.17172897,0.0,0.0,0.0,0.0,0.0,0.0,0.0,0.0,1
357714187,357713279,0.12796208,0.0,0.18691589,0.0,0.0,0.0,0.0,0.0,0.0,0.0,0.0,1
357927759,357927301,0.12796208,0.0,0.16705607,0.0,0.0,0.0,0.0,0.0,0.0,0.0,0.0,1
358121311,358120883,0.14454976,0.0,0.1495327,0.0,0.0,0.0,0.0,0.0,0.0,0.0,0.0,1
358337857,358337430,0.17535545,0.0,0.1495327,-0.014251782,0.0,0.0,0.0,0.0,0.0,0.0,0.0,1
358534723,358534212,0.1492891,0.0,0.1495327,0.0,0.0,0.0,0.0,0.0,0.0,0.0,0.0,1
358732501,358732075,0.1563981,0.0,0.14369158,-0.023752969,0.0,0.0,0.0,0.0,0.0,0.0,0.0,1
358927349,358926920,0.17061612,0.0,0.15771028,-0.023752969,0.0,0.0,0.0,0.0,0.0,0.0,0.0,1
359124109,359123383,0.19194312,0.0,0.1542056,0.0,0.0,0.0,0.0,0.0,0.0,0.0,0.0,1
359319384,359318915,0.2014218,0.0,0.15771028,0.0,0.0,0.0,0.0,0.0,0.0,0.0,0.0,1
359536301,359535872,0.1800948,0.0,0.17873831,0.0,0.0,0.0,0.0,0.0,0.0,0.0,0.0,1
359730506,359729982,0.15876777,0.0,0.17873831,0.0,0.0,0.0,0.0,0.0,0.0,0.0,0.0,1
359924561,359924136,0.1800948,0.0,0.17289719,0.0,0.0,0.0,0.0,0.0,0.0,0.0,0.0,1
360120642,360120031,0.1872038,0.0,0.13901868,0.0,0.0,0.0,0.0,0.0,0.0,0.0,0.0,1
360317953,360317532,0.13033175,-0.056603774,0.13901868,0.0,0.0,0.0,0.0,0.0,0.0,0.0,0.0,1
360533404,360532975,0.12796208,-0.08726415,0.14836448,-0.014251782,0.0,0.0,0.0,0.0,0.0,0.0,0.0,1
360707423,360706960,0.123222746,-0.09669811,0.15070094,-0.033254158,0.0,0.0,0.0,0.0,0.0,0.0,0.0,1
360918203,360917748,0.15876777,-0.018867925,0.17523365,-0.07125891,0.0,0.0,0.0,0.0,0.0,0.0,0.0,1
361135906,361135448,0.16824645,-0.009433962,0.17757009,-0.033254158,0.0,0.0,0.0,0.0,0.0,0.0,0.0,1
361330288,361329852,0.16587678,0.0,0.13200934,0.0,0.0,0.0,0.0,0.0,0.0,0.0,0.0,1
361521298,361520876,0.17061612,-0.025943397,0.13668224,0.0,0.0,0.0,0.0,0.0,0.0,0.0,0.0,1
361719781,361719343,0.17535545,-0.023584906,0.1296729,0.0,0.0,0.0,0.0,0.0,0.0,0.0,0.0,1
361933095,361932667,0.15876777,-0.04481132,0.16939253,-0.014251782,0.0,0.0,0.0,0.0,0.0,0.0,0.0,1
362128213,362127759,0.17535545,-0.051886793,0.19742991,-0.038004752,0.0,0.0,0.0,0.0,0.0,0.0,0.0,1
362324907,362324062,0.1872038,-0.04009434,0.19859813,-0.040380046,0.0,0.0,0.0,0.0,0.0,0.0,0.0,1
362525802,362525379,0.15876777,-0.1014151,0.17056075,-0.04513064,0.0,0.0,0.0,0.0,0.0,0.0,0.0,1
362734668,362734235,0.12559241,-0.13443395,0.16705607,-0.09263658,0.0,0.0,0.0,0.0,0.0,0.0,0.0,1
362925581,362925157,0.016587678,-0.20990565,0.15303738,-0.104513064,0.0,0.0,0.0,0.0,0.0,0.0,0.0,1
363121299,363120867,0.09952607,-0.04481132,0.15070094,-0.12351544,0.0,0.0,0.0,0.0,0.0,0.0,0.0,1
363323515,363323088,0.04265403,0.0,0.14135514,-0.10213777,0.0,0.0,0.0,0.0,0.0,0.0,0.0,1
363522976,363522549,0.056872036,0.0,0.1343458,-0.104513064,0.0,0.0,0.0,0.0,0.0,0.0,0.0,1
363737340,363736912,0.10663507,0.0,0.14836448,-0.08788598,0.0,0.0,0.0,0.0,0.0,0.0,0.0,1
363929104,363928554,0.16587678,0.0,0.15070094,-0.04513064,0.0,0.0,0.0,0.0,0.0,0.0,0.0,1
364122165,364121739,0.16824645,0.0,0.16004673,-0.052256532,0.0,0.0,0.0,0.0,0.0,0.0,0.0,1
364334784,364334249,0.1872038,0.0,0.16705607,-0.06888361,0.0,0.0,0.0,0.0,0.0,0.0,0.0,1
364529304,364528880,0.12796208,-0.023584906,0.1542056,-0.059382424,0.0,0.0,0.0,0.0,0.0,0.0,0.0,1
364727674,364724420,0.02606635,-0.1745283,0.15654206,-0.07125891,0.0,0.0,0.0,0.0,0.0,0.0,0.0,1
364937612,364937189,0.009478673,-0.20990565,0.15654206,-0.06175772,0.0,0.0,0.0,0.0,0.0,0.0,0.0,1
365118671,365118238,0.028436018,-0.13207547,0.15654206,-0.09026128,0.0,0.0,0.0,0.0,0.0,0.0,0.0,1
365337552,365337116,0.101895735,0.0,0.16471963,-0.12589073,0.0,0.0,0.0,0.0,0.0,0.0,0.0,1
365513070,365512634,0.09478673,0.0,0.16588785,-0.10213777,0.0,0.0,0.0,0.0,0.0,0.0,0.0,1
365713268,365712811,0.09241706,0.0,0.1635514,-0.11876485,0.0,0.0,0.0,0.0,0.0,0.0,0.0,1
365930212,365929752,0.116113745,0.0,0.14836448,-0.08313539,0.0,0.0,0.0,0.0,0.0,0.0,0.0,1
366126444,366125993,0.08293839,0.0,0.15186916,0.0,0.0,0.0,0.0,0.0,0.0,0.0,0.0,1
366321815,366321278,0.033175357,0.0,0.17289719,-0.08076009,0.0,0.0,0.0,0.0,0.0,0.0,0.0,1
366520434,366519973,0.073459715,0.0,0.18574767,-0.066508316,0.0,0.0,0.0,0.0,0.0,0.0,0.0,1
366736419,366735993,0.06398104,0.0,0.1495327,-0.066508316,0.0,0.0,0.0,0.0,0.0,0.0,0.0,1
366929830,366929408,0.13270143,0.0,0.1495327,-0.10213777,0.0,0.0,0.0,0.0,0.0,0.0,0.0,1
367123575,367123150,0.056872036,-0.08962264,0.15186916,-0.10926366,0.0,0.0,0.0,0.0,0.0,0.0,0.0,1
367321115,367320684,0.07109005,-0.018867925,0.1588785,-0.14489311,0.0,0.0,0.0,0.0,0.0,0.0,0.0,1
367733885,367733459,0.13033175,0.0,0.17523365,-0.11401425,0.0,0.0,0.0,0.0,0.0,0.0,0.0,1
368523158,368522704,0.0450237,0.040189125,0.15186916,-0.066508316,0.0,0.0,0.0,0.0,0.0,0.0,0.0,1
368723604,368723152,0.109004736,0.0,0.14602804,-0.059382424,0.0,0.0,0.0,0.0,0.0,0.0,0.0,1
368917182,368916673,0.13270143,0.0,0.14836448,-0.08076009,0.0,0.0,0.0,0.0,0.0,0.0,0.0,1
369130237,369129807,0.1042654,-0.03773585,0.18925233,-0.09026128,0.0,0.0,0.0,0.0,0.0,0.0,0.0,1
369322828,369322330,0.116113745,-0.04009434,0.19042057,-0.09026128,0.0,0.0,0.0,0.0,0.0,0.0,0.0,1
369536375,369535770,0.08056872,-0.13207547,0.15186916,-0.10213777,0.0,0.0,0.0,0.0,0.0,0.0,0.0,1
369725730,369725212,0.101895735,-0.11084906,0.1495327,-0.085510686,0.0,0.0,0.0,0.0,0.0,0.0,0.0,1
369917266,369916843,0.1635071,-0.009433962,0.1448598,-0.07125891,0.0,0.0,0.0,0.0,0.0,0.0,0.0,1
370134913,370134389,0.15876777,0.0,0.14135514,-0.042755343,0.0,0.0,0.0,0.0,0.0,0.0,0.0,1
370325190,370324764,0.14454976,0.0,0.1542056,-0.052256532,0.0,0.0,0.0,0.0,0.0,0.0,0.0,1
370519402,370518972,0.12796208,0.0,0.16004673,-0.019002376,0.0,0.0,0.0,0.0,0.0,0.0,0.0,1
370732318,370731883,0.09478673,0.0,0.125,0.0,0.0,0.0,0.0,0.0,0.0,0.0,0.0,1
370923378,370922957,0.07109005,0.0,0.14369158,0.01173709,0.0,0.0,0.0,0.0,0.0,0.0,0.0,1
371119441,371119014,0.073459715,0.0,0.1635514,0.044600938,0.0,0.0,0.0,0.0,0.0,0.0,0.0,1
371335019,371334593,0.08056872,0.0,0.18925233,0.025821596,0.0,0.0,0.0,0.0,0.0,0.0,0.0,1
371531294,371530868,0.06635071,0.0,0.18691589,0.0023474179,0.0,0.0,0.0,0.0,0.0,0.0,0.0,1
371726512,371725959,0.07582939,0.01891253,0.14719626,0.0,0.0,0.0,0.0,0.0,0.0,0.0,0.0,1
371922204,371921755,0.0900474,0.016548464,0.17640187,0.0,0.0,0.0,0.0,0.0,0.0,0.0,0.0,1
372137310,372136643,0.10663507,0.040189125,0.17056075,0.0,0.0,0.0,0.0,0.0,0.0,0.0,0.0,1
372331402,372330974,0.09478673,0.056737587,0.16121495,0.0,0.0,0.0,0.0,0.0,0.0,0.0,0.0,1
372522105,372521683,0.101895735,0.06146572,0.15070094,0.0070422534,0.0,0.0,0.0,0.0,0.0,0.0,0.0,1
372721052,372720518,0.09478673,0.06619386,0.1343458,0.016431924,0.0,0.0,0.0,0.0,0.0,0.0,0.0,1
372917768,372917343,0.08530806,0.10401891,0.14135514,0.0023474179,0.0,0.0,0.0,0.0,0.0,0.0,0.0,1
373134964,373134538,0.09478673,0.11347517,0.18107477,0.0,0.0,0.0,0.0,0.0,0.0,0.0,0.0,1
373305968,373305543,0.123222746,0.10401891,0.18341121,0.0,0.0,0.0,0.0,0.0,0.0,0.0,0.0,1
373523735,373523272,0.12085308,0.06146572,0.18107477,0.0,0.0,0.0,0.0,0.0,0.0,0.0,0.0,1
373730435,373730003,0.047393367,0.01891253,0.13200934,0.0,0.0,0.0,0.0,0.0,0.0,0.0,0.0,1
373920154,373919727,0.037914693,0.0,0.12149533,0.0,0.0,0.0,0.0,0.0,0.0,0.0,0.0,1
374116291,374115857,0.059241705,0.03073286,0.14018692,0.0,0.0,0.0,0.0,0.0,0.0,0.0,0.0,1
374316889,374316086,0.07109005,0.11347517,0.1495327,0.0,0.0,0.0,0.0,0.0,0.0,0.0,0.0,1
374515637,374515212,0.0450237,0.035460994,0.16238318,0.0,0.0,0.0,0.0,0.0,0.0,0.0,0.0,1
374712845,374712378,0.009478673,0.0,0.16705607,0.016431924,0.0,0.0,0.0,0.0,0.0,0.0,0.0,1
374927568,374926615,0.009478673,0.0,0.13668224,0.056338027,0.0,0.0,0.0,0.0,0.0,0.0,0.0,1
375099707,375099280,0.009478673,0.0,0.17990655,0.056338027,0.0,0.0,0.0,0.0,0.0,0.0,0.0,1
375318239,375317818,0.021327015,0.0,0.13551402,0.049295776,0.0,0.0,0.0,0.0,0.0,0.0,0.0,1
375517775,375517319,0.028436018,0.0,0.16939253,0.014084507,0.0,0.0,0.0,0.0,0.0,0.0,0.0,1
375732206,375731731,0.06398104,0.016548464,0.20093457,0.0,0.0,0.0,0.0,0.0,0.0,0.0,0.0,1
375925709,375925200,0.0450237,0.01891253,0.17990655,0.0,0.0,0.0,0.0,0.0,0.0,0.0,0.0,1
376118347,376117921,0.033175357,0.056737587,0.15537383,0.0,0.0,0.0,0.0,0.0,0.0,0.0,0.0,1
376336440,376335925,0.009478673,0.07092199,0.1448598,0.0,0.0,0.0,0.0,0.0,0.0,0.0,0.0,1
376527871,376527300,-0.0,0.09219858,0.1635514,0.0,0.0,0.0,0.0,0.0,0.0,0.0,0.0,1
376721352,376720880,0.06398104,0.08510638,0.16004673,0.0070422534,0.0,0.0,0.0,0.0,0.0,0.0,0.0,1
376918745,376918320,0.06635071,0.07092199,0.15654206,0.0046948357,0.0,0.0,0.0,0.0,0.0,0.0,0.0,1
377097511,377097060,0.08293839,0.08510638,0.1682243,0.0,0.0,0.0,0.0,0.0,0.0,0.0,0.0,1
377330758,377330332,0.09478673,0.07092199,0.16238318,0.0,0.0,0.0,0.0,0.0,0.0,0.0,0.0,1
377519555,377519025,0.09241706,0.08510638,0.17523365,0.0,0.0,0.0,0.0,0.0,0.0,0.0,0.0,1
377737601,377737176,0.109004736,0.01891253,0.14018692,0.0,0.0,0.0,0.0,0.0,0.0,0.0,0.0,1
377934141,377933660,0.11137441,0.0,0.13084112,0.0,0.0,0.0,0.0,0.0,0.0,0.0,0.0,1
378125585,378125145,0.1421801,0.021276595,0.15186916,0.0,0.0,0.0,0.0,0.0,0.0,0.0,0.0,1
378318071,378317644,0.12796208,0.026004728,0.15537383,0.0,0.0,0.0,0.0,0.0,0.0,0.0,0.0,1
378533733,378533308,0.1563981,0.06855792,0.17172897,0.0,0.0,0.0,0.0,0.0,0.0,0.0,0.0,1
378728643,378728220,0.13981043,0.10165485,0.18808411,0.0,0.0,0.0,0.0,0.0,0.0,0.0,0.0,1
378926723,378926240,0.09241706,0.016548464,0.17873831,0.0,0.0,0.0,0.0,0.0,0.0,0.0,0.0,1
379124150,379123721,0.11374407,0.014184397,0.1635514,0.0,0.0,0.0,0.0,0.0,0.0,0.0,0.0,1
379318956,379318534,0.12559241,0.0047281324,0.15070094,0.0,0.0,0.0,0.0,0.0,0.0,0.0,0.0,1
379517919,379517468,0.109004736,0.0,0.16004673,0.0046948357,0.0,0.0,0.0,0.0,0.0,0.0,0.0,1
379737029,379736113,0.12085308,0.0,0.17873831,0.0,0.0,0.0,0.0,0.0,0.0,0.0,0.0,1
379929616,379929189,0.10663507,0.0,0.18107477,0.0,0.0,0.0,0.0,0.0,0.0,0.0,0.0,1
380106708,380106278,0.11137441,0.0,0.14018692,0.0,0.0,0.0,0.0,0.0,0.0,0.0,0.0,1
380327962,380327538,0.11137441,0.0,0.14369158,0.0,0.0,0.0,0.0,0.0,0.0,0.0,0.0,1
380521119,380520625,0.08056872,0.04491726,0.13551402,0.0,0.0,0.0,0.0,0.0,0.0,0.0,0.0,1
380735474,380735047,0.109004736,0.07328605,0.15186916,0.0,0.0,0.0,0.0,0.0,0.0,0.0,0.0,1
380933824,380933291,0.109004736,0.07801419,0.18691589,0.0,0.0,0.0,0.0,0.0,0.0,0.0,0.0,1
381123681,381123066,0.1042654,0.03309693,0.18107477,0.0,0.0,0.0,0.0,0.0,0.0,0.0,0.0,1
381316436,381316009,0.09952607,0.06382979,0.15303738,0.0,0.0,0.0,0.0,0.0,0.0,0.0,0.0,1
381535988,381535558,0.059241705,0.03073286,0.1495327,0.0,0.0,0.0,0.0,0.0,0.0,0.0,0.0,1
381729730,381729302,0.09241706,0.04964539,0.1542056,0.0,0.0,0.0,0.0,0.0,0.0,0.0,0.0,1
381928200,381927738,0.09241706,0.03782506,0.15070094,0.0,0.0,0.0,0.0,0.0,0.0,0.0,0.0,1
382126671,382126240,0.08293839,0.021276595,0.13668224,0.0,0.0,0.0,0.0,0.0,0.0,0.0,0.0,1
382322812,382322361,0.09952607,0.03782506,0.1542056,0.0,0.0,0.0,0.0,0.0,0.0,0.0,0.0,1
382520130,382519705,0.09241706,0.0,0.15654206,0.0,0.0,0.0,0.0,0.0,0.0,0.0,0.0,1
382718106,382717683,0.116113745,0.0,0.18925233,0.0,0.0,0.0,0.0,0.0,0.0,0.0,0.0,1
382917471,382917046,0.109004736,-0.004716981,0.16705607,0.0,0.0,0.0,0.0,0.0,0.0,0.0,0.0,1
383131666,383131207,0.109004736,0.0,0.18107477,0.0,0.0,0.0,0.0,0.0,0.0,0.0,0.0,1
383322447,383322024,0.11374407,0.0,0.18224299,0.0,0.0,0.0,0.0,0.0,0.0,0.0,0.0,1
383516957,383516534,0.087677725,-0.021226415,0.1343458,0.0,0.0,0.0,0.0,0.0,0.0,0.0,0.0,1
383737101,383736652,0.033175357,-0.11084906,0.14719626,0.0,0.0,0.0,0.0,0.0,0.0,0.0,0.0,1
383930851,383930232,0.0450237,-0.025943397,0.15771028,0.0023474179,0.0,0.0,0.0,0.0,0.0,0.0,0.0,1
384127636,384126861,0.04028436,0.0,0.1588785,0.0023474179,0.0,0.0,0.0,0.0,0.0,0.0,0.0,1
384324076,384323572,0.061611373,0.05437352,0.17757009,0.0,0.0,0.0,0.0,0.0,0.0,0.0,0.0,1
384516701,384516275,0.073459715,0.0,0.14719626,0.0023474179,0.0,0.0,0.0,0.0,0.0,0.0,0.0,1
384733572,384733144,0.056872036,0.026004728,0.14836448,0.0046948357,0.0,0.0,0.0,0.0,0.0,0.0,0.0,1
384930156,384929729,0.0900474,0.08510638,0.16238318,0.039906103,0.0,0.0,0.0,0.0,0.0,0.0,0.0,1
385124852,385124405,0.07109005,0.04964539,0.17056075,0.07042254,0.0,0.0,0.0,0.0,0.0,0.0,0.0,1
385323340,385322912,0.09952607,0.08747045,0.16939253,0.051643193,0.0,0.0,0.0,0.0,0.0,0.0,0.0,1
385519083,385518659,0.11137441,0.07092199,0.13084112,0.016431924,0.0,0.0,0.0,0.0,0.0,0.0,0.0,1
385729581,385729038,0.11848341,0.0,0.1343458,0.0,0.0,0.0,0.0,0.0,0.0,0.0,0.0,1
385933507,385933082,0.123222746,0.0,0.15186916,0.0,0.0,0.0,0.0,0.0,0.0,0.0,0.0,1
386121152,386120724,0.10663507,0.0,0.17873831,0.0,0.0,0.0,0.0,0.0,0.0,0.0,0.0,1
386318348,386317921,0.123222746,0.0,0.18107477,0.0,0.0,0.0,0.0,0.0,0.0,0.0,0.0,1
386531735,386531313,0.15165877,0.023640662,0.1495327,0.0,0.0,0.0,0.0,0.0,0.0,0.0,0.0,1
386725491,386725065,0.15165877,0.03073286,0.1343458,0.0,0.0,0.0,0.0,0.0,0.0,0.0,0.0,1
386918431,386918005,0.18246445,0.040189125,0.1495327,0.0,0.0,0.0,0.0,0.0,0.0,0.0,0.0,1
387115463,387114841,0.1872038,0.03073286,0.17172897,0.0,0.0,0.0,0.0,0.0,0.0,0.0,0.0,1
387329349,387328919,0.1943128,0.06619386,0.19626169,0.0,0.0,0.0,0.0,0.0,0.0,0.0,0.0,1
387522772,387522343,0.2014218,0.03309693,0.1682243,0.0,0.0,0.0,0.0,0.0,0.0,0.0,0.0,1
387718744,387718312,0.18957347,0.0,0.13901868,0.0,0.0,0.0,0.0,0.0,0.0,0.0,0.0,1
387934125,387933507,0.2014218,0.0,0.15654206,0.0,0.0,0.0,0.0,0.0,0.0,0.0,0.0,1
388129554,388129112,0.21090047,0.0,0.16705607,0.0,0.0,0.0,0.0,0.0,0.0,0.0,0.0,1
388304785,388304294,0.20616114,0.0,0.18457943,0.0,0.0,0.0,0.0,0.0,0.0,0.0,0.0,1
388524424,388523893,0.22748815,0.0047281324,0.15654206,0.0,0.0,0.0,0.0,0.0,0.0,0.0,0.0,1
388738970,388738544,0.18246445,0.0,0.1542056,0.0,0.0,0.0,0.0,0.0,0.0,0.0,0.0,1
388929615,388929192,0.1800948,0.0,0.14018692,0.0,0.0,0.0,0.0,0.0,0.0,0.0,0.0,1
389124369,389123941,0.1872038,0.0,0.15303738,0.0,0.0,0.0,0.0,0.0,0.0,0.0,0.0,1
389322606,389322183,0.1635071,0.0,0.16705607,0.0,0.0,0.0,0.0,0.0,0.0,0.0,0.0,1
389536436,389536009,0.1943128,0.026004728,0.17873831,0.0,0.0,0.0,0.0,0.0,0.0,0.0,0.0,1
389733300,389732875,0.17061612,0.0,0.17523365,0.0,0.0,0.0,0.0,0.0,0.0,0.0,0.0,1
389926088,389925660,0.17535545,0.0,0.16705607,0.0,0.0,0.0,0.0,0.0,0.0,0.0,0.0,1
390123918,390123495,0.18483412,0.0,0.1682243,0.0,0.0,0.0,0.0,0.0,0.0,0.0,0.0,1
390336958,390336514,0.09478673,0.0,0.1588785,0.0,0.0,0.0,0.0,0.0,0.0,0.0,0.0,1
390531167,390530738,0.11848341,0.0,0.13668224,0.0,0.0,0.0,0.0,0.0,0.0,0.0,0.0,1
390728103,390727677,0.109004736,0.0,0.15654206,0.0,0.0,0.0,0.0,0.0,0.0,0.0,0.0,1
390924930,390924408,0.10663507,0.0,0.17757009,0.0,0.0,0.0,0.0,0.0,0.0,0.0,0.0,1
391120334,391119902,0.101895735,0.0,0.17289719,0.0,0.0,0.0,0.0,0.0,0.0,0.0,0.0,1
391335686,391335232,0.09241706,0.0,0.16238318,0.0,0.0,0.0,0.0,0.0,0.0,0.0,0.0,1
391525357,391524932,0.047393367,0.0,0.16004673,0.0,0.0,0.0,0.0,0.0,0.0,0.0,0.0,1
391719538,391719101,0.056872036,0.0,0.16121495,0.0,0.0,0.0,0.0,0.0,0.0,0.0,0.0,1
391916683,391916254,0.101895735,0.0,0.14018692,0.0,0.0,0.0,0.0,0.0,0.0,0.0,0.0,1
392134982,392134518,0.09952607,0.0,0.1542056,0.0,0.0,0.0,0.0,0.0,0.0,0.0,0.0,1
392331302,392330876,0.10663507,0.0,0.16004673,0.0,0.0,0.0,0.0,0.0,0.0,0.0,0.0,1
392505610,392505180,0.09478673,0.0,0.1588785,0.0,0.0,0.0,0.0,0.0,0.0,0.0,0.0,1
392718665,392718152,0.11374407,0.0,0.15303738,0.0,0.0,0.0,0.0,0.0,0.0,0.0,0.0,1
392932796,392932338,0.116113745,0.0,0.17172897,0.0,0.0,0.0,0.0,0.0,0.0,0.0,0.0,1
393128271,393127710,0.12559241,0.0,0.17172897,0.0093896715,0.0,0.0,0.0,0.0,0.0,0.0,0.0,1
393319664,393319203,0.087677725,-0.070754714,0.17990655,0.061032865,0.0,0.0,0.0,0.0,0.0,0.0,0.0,1
393517744,393517317,0.1042654,-0.07311321,0.15070094,0.056338027,0.0,0.0,0.0,0.0,0.0,0.0,0.0,1
393733228,393732774,0.11374407,-0.056603774,0.16471963,0.014084507,0.0,0.0,0.0,0.0,0.0,0.0,0.0,1
393927493,393927043,0.13507108,-0.03301887,0.16238318,0.0,0.0,0.0,0.0,0.0,0.0,0.0,0.0,1
394122193,394121768,0.11848341,-0.0495283,0.1588785,0.0,0.0,0.0,0.0,0.0,0.0,0.0,0.0,1
394298158,394297734,0.17535545,0.0,0.13200934,0.0,0.0,0.0,0.0,0.0,0.0,0.0,0.0,1
394537120,394536670,0.073459715,-0.1014151,0.17757009,0.0,0.0,0.0,0.0,0.0,0.0,0.0,0.0,1
394730666,394730238,0.04028436,-0.125,0.18925233,0.0,0.0,0.0,0.0,0.0,0.0,0.0,0.0,1
394927311,394926877,0.04028436,-0.0990566,0.18925233,0.0,0.0,0.0,0.0,0.0,0.0,0.0,0.0,1
395127059,395126634,0.11848341,0.0,0.1542056,0.0,0.0,0.0,0.0,0.0,0.0,0.0,0.0,1
395325520,395325067,0.11374407,0.0,0.14602804,0.0,0.0,0.0,0.0,0.0,0.0,0.0,0.0,1
395516815,395516391,0.11848341,0.0,0.1635514,0.0,0.0,0.0,0.0,0.0,0.0,0.0,0.0,1
395733258,395732742,0.13744076,0.0,0.15070094,0.0,0.0,0.0,0.0,0.0,0.0,0.0,0.0,1
395928707,395928229,0.123222746,0.0,0.17056075,0.0,0.0,0.0,0.0,0.0,0.0,0.0,0.0,1
396124413,396123983,0.13744076,-0.0023584906,0.14719626,0.0,0.0,0.0,0.0,0.0,0.0,0.0,0.0,1
396322230,396321748,0.14691943,0.0,0.14602804,0.0,0.0,0.0,0.0,0.0,0.0,0.0,0.0,1
396533834,396533394,0.16587678,0.0,0.16238318,0.0,0.0,0.0,0.0,0.0,0.0,0.0,0.0,1
396708122,396707698,0.17061612,0.0,0.16588785,0.0,0.0,0.0,0.0,0.0,0.0,0.0,0.0,1
396924630,396924203,0.17061612,-0.009433962,0.18691589,0.0,0.0,0.0,0.0,0.0,0.0,0.0,0.0,1
397096463,397095873,0.18957347,-0.0023584906,0.19392523,0.0,0.0,0.0,0.0,0.0,0.0,0.0,0.0,1
397313563,397313021,0.22037914,0.0,0.15186916,0.0,0.0,0.0,0.0,0.0,0.0,0.0,0.0,1
397532948,397532493,0.21327014,0.0,0.1682243,0.0,0.0,0.0,0.0,0.0,0.0,0.0,0.0,1
397731187,397730725,0.21800947,0.0,0.1542056,-0.014251782,0.0,0.0,0.0,0.0,0.0,0.0,0.0,1
397927070,397926578,0.22274882,0.0,0.16939253,0.0,0.0,0.0,0.0,0.0,0.0,0.0,0.0,1
398123426,398122378,0.22985782,0.0,0.13668224,-0.004750594,0.0,0.0,0.0,0.0,0.0,0.0,0.0,1
398296602,398296128,0.24170616,0.0,0.1495327,-0.009501188,0.0,0.0,0.0,0.0,0.0,0.0,0.0,1
398534849,398534425,0.23459716,0.0,0.1635514,-0.007125891,0.0,0.0,0.0,0.0,0.0,0.0,0.0,1
398708557,398708128,0.21327014,0.0,0.17640187,-0.007125891,0.0,0.0,0.0,0.0,0.0,0.0,0.0,1
398927293,398926849,0.2014218,0.0,0.18808411,-0.007125891,0.0,0.0,0.0,0.0,0.0,0.0,0.0,1
399096916,399096444,0.21327014,0.0,0.17289719,0.0,0.0,0.0,0.0,0.0,0.0,0.0,0.0,1
399336104,399335682,0.21327014,0.0,0.15771028,-0.014251782,0.0,0.0,0.0,0.0,0.0,0.0,0.0,1
399445549,399445015,0.21327014,0.0,0.1448598,0.0,0.0,0.0,0.0,0.0,0.0,0.0,0.0,1
399723141,399722203,0.20379147,0.0,0.14836448,0.0,0.0,0.0,0.0,0.0,0.0,0.0,0.0,1
399936825,399936398,0.1872038,-0.009433962,0.1682243,-0.007125891,0.0,0.0,0.0,0.0,0.0,0.0,0.0,1
400124105,400123470,0.15402843,-0.025943397,0.1542056,-0.007125891,0.0,0.0,0.0,0.0,0.0,0.0,0.0,1
400319853,400319431,0.1635071,-0.016509434,0.18691589,0.0,0.0,0.0,0.0,0.0,0.0,0.0,0.0,1
400518320,400517896,0.1635071,-0.068396226,0.17757009,0.0,0.0,0.0,0.0,0.0,0.0,0.0,0.0,1
400733231,400732804,0.11137441,-0.20518868,0.15654206,0.0,0.0,0.0,0.0,0.0,0.0,0.0,0.0,1
400928240,400927766,0.109004736,-0.2004717,0.15070094,0.0,0.0,0.0,0.0,0.0,0.0,0.0,0.0,1
401122017,401121480,0.101895735,-0.20990565,0.14836448,0.0,0.0,0.0,0.0,0.0,0.0,0.0,0.0,1
401318477,401318038,0.15876777,-0.10377359,0.13785046,0.0,0.0,0.0,0.0,0.0,0.0,0.0,0.0,1
401533071,401532644,0.1563981,-0.021226415,0.14602804,0.0,0.0,0.0,0.0,0.0,0.0,0.0,0.0,1
401729620,401729121,0.17772512,0.0,0.1635514,0.0,0.0,0.0,0.0,0.0,0.0,0.0,0.0,1
401922779,401922091,0.19668247,0.0,0.1588785,0.0,0.0,0.0,0.0,0.0,0.0,0.0,0.0,1
402122597,402122111,0.1943128,0.0,0.17289719,0.0,0.0,0.0,0.0,0.0,0.0,0.0,0.0,1
402320420,402319987,0.1943128,0.03073286,0.17523365,0.0,0.0,0.0,0.0,0.0,0.0,0.0,0.0,1
402515282,402514856,0.19905214,0.03782506,0.19509345,0.0,0.0,0.0,0.0,0.0,0.0,0.0,0.0,1
402727960,402727533,0.19194312,0.04964539,0.15771028,0.0,0.0,0.0,0.0,0.0,0.0,0.0,0.0,1
402926179,402925755,0.2014218,0.035460994,0.14602804,0.0,0.0,0.0,0.0,0.0,0.0,0.0,0.0,1
403119203,403118708,0.1872038,0.0,0.15654206,0.0,0.0,0.0,0.0,0.0,0.0,0.0,0.0,1
403315753,403315326,0.17772512,0.0,0.1343458,0.0,0.0,0.0,0.0,0.0,0.0,0.0,0.0,1
403534079,403533653,0.17772512,0.0,0.16121495,0.0,0.0,0.0,0.0,0.0,0.0,0.0,0.0,1
403728842,403728372,0.16824645,0.0,0.14602804,0.0,0.0,0.0,0.0,0.0,0.0,0.0,0.0,1
403839906,403839482,0.15876777,0.0,0.15537383,0.0,0.0,0.0,0.0,0.0,0.0,0.0,0.0,1
404122316,404121892,0.12559241,0.0,0.17757009,0.0,0.0,0.0,0.0,0.0,0.0,0.0,0.0,1
404318026,404317595,0.11848341,0.0070921984,0.18691589,0.0,0.0,0.0,0.0,0.0,0.0,0.0,0.0,1
404534194,404533709,0.13270143,0.0,0.19275701,0.0,0.0,0.0,0.0,0.0,0.0,0.0,0.0,1
404727711,404727280,0.1492891,0.0,0.1495327,0.0,0.0,0.0,0.0,0.0,0.0,0.0,0.0,1
404858756,404858332,0.20379147,0.0,0.15186916,0.0,0.0,0.0,0.0,0.0,0.0,0.0,0.0,1
405119623,405119192,0.18246445,0.0,0.1495327,0.0,0.0,0.0,0.0,0.0,0.0,0.0,0.0,1
405315929,405315505,0.1421801,-0.07783019,0.1495327,0.0,0.0,0.0,0.0,0.0,0.0,0.0,0.0,1
405530687,405530252,0.14691943,-0.0023584906,0.1542056,-0.026128266,0.0,0.0,0.0,0.0,0.0,0.0,0.0,1
405722396,405721969,0.11848341,0.0,0.1542056,-0.038004752,0.0,0.0,0.0,0.0,0.0,0.0,0.0,1
405936018,405935595,0.11848341,-0.021226415,0.17757009,-0.038004752,0.0,0.0,0.0,0.0,0.0,0.0,0.0,1
406133883,406133360,0.087677725,-0.08018868,0.19275701,-0.038004752,0.0,0.0,0.0,0.0,0.0,0.0,0.0,1
406328569,406328107,0.12559241,-0.04245283,0.16004673,-0.04513064,0.0,0.0,0.0,0.0,0.0,0.0,0.0,1
406525085,406524660,0.15402843,-0.021226415,0.15303738,-0.066508316,0.0,0.0,0.0,0.0,0.0,0.0,0.0,1
406718699,406718266,0.11848341,-0.04009434,0.16004673,-0.095011875,0.0,0.0,0.0,0.0,0.0,0.0,0.0,1
406935561,406935127,0.1042654,-0.068396226,0.18107477,-0.09026128,0.0,0.0,0.0,0.0,0.0,0.0,0.0,1
407130386,407129959,0.061611373,-0.12971698,0.18107477,-0.08313539,0.0,0.0,0.0,0.0,0.0,0.0,0.0,1
407329089,407328665,0.023696683,-0.11792453,0.17873831,-0.08076009,0.0,0.0,0.0,0.0,0.0,0.0,0.0,1
407517900,407517476,0.09478673,-0.054245282,0.1682243,-0.09976247,0.0,0.0,0.0,0.0,0.0,0.0,0.0,1
407718293,407717869,0.13033175,-0.011792453,0.1495327,-0.06888361,0.0,0.0,0.0,0.0,0.0,0.0,0.0,1
407934447,407933901,0.13507108,-0.018867925,0.13084112,-0.06175772,0.0,0.0,0.0,0.0,0.0,0.0,0.0,1
408128979,408128484,0.11137441,-0.08726415,0.1495327,-0.0783848,0.0,0.0,0.0,0.0,0.0,0.0,0.0,1
408318623,408318180,0.08056872,-0.106132075,0.16121495,-0.09026128,0.0,0.0,0.0,0.0,0.0,0.0,0.0,1
408530444,408529451,0.12559241,-0.025943397,0.1635514,-0.10213777,0.0,0.0,0.0,0.0,0.0,0.0,0.0,1
408723086,408722664,0.1492891,0.0,0.16588785,-0.09263658,0.0,0.0,0.0,0.0,0.0,0.0,0.0,1
408935870,408935415,0.116113745,-0.068396226,0.17523365,-0.10213777,0.0,0.0,0.0,0.0,0.0,0.0,0.0,1
409126855,409126418,0.116113745,-0.08254717,0.17172897,-0.11401425,0.0,0.0,0.0,0.0,0.0,0.0,0.0,1
409312362,409311937,0.073459715,-0.1509434,0.17757009,-0.13064133,0.0,0.0,0.0,0.0,0.0,0.0,0.0,1
409532536,409532078,0.06872038,-0.14150943,0.17873831,-0.15201901,0.0,0.0,0.0,0.0,0.0,0.0,0.0,1
409731421,409730992,0.023696683,-0.15801887,0.17757009,-0.14014252,0.0,0.0,0.0,0.0,0.0,0.0,0.0,1
409918941,409918363,-0.0,-0.21226415,0.14836448,-0.12826604,0.0,0.0,0.0,0.0,0.0,0.0,0.0,1
410129697,410129267,-0.0,-0.18632075,0.1542056,-0.1543943,0.0,0.0,0.0,0.0,0.0,0.0,0.0,1
410324202,410323478,0.009478673,-0.13915095,0.18107477,-0.13064133,0.0,0.0,0.0,0.0,0.0,0.0,0.0,1
410515662,410515233,0.116113745,0.0,0.16705607,-0.13776723,0.0,0.0,0.0,0.0,0.0,0.0,0.0,1
410728075,410727629,0.17061612,0.0,0.16705607,-0.08076009,0.0,0.0,0.0,0.0,0.0,0.0,0.0,1
410921882,410921452,0.13981043,0.0,0.18224299,-0.057007127,0.0,0.0,0.0,0.0,0.0,0.0,0.0,1
411108747,411108286,0.16113745,0.0,0.18691589,-0.06175772,0.0,0.0,0.0,0.0,0.0,0.0,0.0,1
411329580,411329155,0.1635071,0.0,0.18457943,-0.05463183,0.0,0.0,0.0,0.0,0.0,0.0,0.0,1
411530280,411529712,0.1872038,0.0,0.13084112,-0.059382424,0.0,0.0,0.0,0.0,0.0,0.0,0.0,1
411730692,411729975,0.18957347,0.0,0.14018692,-0.06413302,0.0,0.0,0.0,0.0,0.0,0.0,0.0,1
411921714,411921263,0.17061612,0.0,0.16121495,-0.08313539,0.0,0.0,0.0,0.0,0.0,0.0,0.0,1
412133350,412132924,0.18246445,0.0,0.18107477,-0.08076009,0.0,0.0,0.0,0.0,0.0,0.0,0.0,1
412331133,412330677,0.1943128,0.0,0.19158879,-0.08076009,0.0,0.0,0.0,0.0,0.0,0.0,0.0,1
412522808,412522384,0.17535545,0.0,0.16939253,-0.057007127,0.0,0.0,0.0,0.0,0.0,0.0,0.0,1
412737608,412737183,0.15402843,0.0,0.13901868,-0.014251782,0.0,0.0,0.0,0.0,0.0,0.0,0.0,1
412931742,412931213,0.15165877,0.0,0.14018692,0.0,0.0,0.0,0.0,0.0,0.0,0.0,0.0,1
413122018,413121552,0.16587678,0.0,0.16121495,0.0,0.0,0.0,0.0,0.0,0.0,0.0,0.0,1
413335505,413335007,0.15876777,0.0023640662,0.17873831,0.0,0.0,0.0,0.0,0.0,0.0,0.0,0.0,1
413535191,413534769,0.2014218,0.0023640662,0.20443925,0.0,0.0,0.0,0.0,0.0,0.0,0.0,0.0,1
413729197,413728770,0.1800948,0.0,0.19275701,0.0,0.0,0.0,0.0,0.0,0.0,0.0,0.0,1
413919162,413918666,0.18957347,0.07328605,0.1542056,0.0,0.0,0.0,0.0,0.0,0.0,0.0,0.0,1
414138343,414137920,0.1943128,0.09692671,0.125,0.0093896715,0.0,0.0,0.0,0.0,0.0,0.0,0.0,1
414332589,414332162,0.18483412,0.120567374,0.15537383,0.0,0.0,0.0,0.0,0.0,0.0,0.0,0.0,1
414528770,414528346,0.1872038,0.1252955,0.19042057,0.0,0.0,0.0,0.0,0.0,0.0,0.0,0.0,1
414724740,414724315,0.20379147,0.1394799,0.17172897,0.0,0.0,0.0,0.0,0.0,0.0,0.0,0.0,1
414917343,414916887,0.2014218,0.1252955,0.15654206,0.0,0.0,0.0,0.0,0.0,0.0,0.0,0.0,1
415114228,415113803,0.20616114,0.13002364,0.13668224,0.0,0.0,0.0,0.0,0.0,0.0,0.0,0.0,1
415333912,415333438,0.2085308,0.13238771,0.15771028,0.0,0.0,0.0,0.0,0.0,0.0,0.0,0.0,1
415530101,415529674,0.18957347,0.11111111,0.18107477,0.0,0.0,0.0,0.0,0.0,0.0,0.0,0.0,1
416118355,416117914,0.16587678,0.0,0.1495327,0.0,0.0,0.0,0.0,0.0,0.0,0.0,0.0,1
416316581,416316135,0.15402843,0.0,0.17289719,0.0,0.0,0.0,0.0,0.0,0.0,0.0,0.0,1
416532462,416532037,0.15165877,0.0,0.16004673,0.0,0.0,0.0,0.0,0.0,0.0,0.0,0.0,1
416722503,416722047,0.15876777,0.0,0.13551402,0.0,0.0,0.0,0.0,0.0,0.0,0.0,0.0,1
416918927,416917755,0.123222746,0.0,0.16121495,0.0,0.0,0.0,0.0,0.0,0.0,0.0,0.0,1
417135460,417134706,0.12796208,0.0,0.17172897,0.0,0.0,0.0,0.0,0.0,0.0,0.0,0.0,1
417329992,417329569,0.14454976,0.0,0.1635514,0.0,0.0,0.0,0.0,0.0,0.0,0.0,0.0,1
417535874,417535214,0.123222746,0.009456265,0.16471963,0.0,0.0,0.0,0.0,0.0,0.0,0.0,0.0,1
417718904,417718378,0.12796208,0.04491726,0.1635514,0.0,0.0,0.0,0.0,0.0,0.0,0.0,0.0,1
417933834,417933383,0.11848341,0.0047281324,0.1635514,0.0,0.0,0.0,0.0,0.0,0.0,0.0,0.0,1
418129936,418129514,0.123222746,0.03073286,0.16705607,0.0,0.0,0.0,0.0,0.0,0.0,0.0,0.0,1
418323629,418323109,0.12796208,0.05437352,0.15537383,0.0,0.0,0.0,0.0,0.0,0.0,0.0,0.0,1
418522260,418521824,0.13981043,0.07328605,0.16121495,0.0,0.0,0.0,0.0,0.0,0.0,0.0,0.0,1
418718267,418717842,0.13033175,0.08983452,0.14018692,0.0,0.0,0.0,0.0,0.0,0.0,0.0,0.0,1
418933986,418933492,0.13744076,0.10401891,0.15186916,0.0,0.0,0.0,0.0,0.0,0.0,0.0,0.0,1
419127447,419126421,0.1042654,0.08983452,0.13084112,0.0023474179,0.0,0.0,0.0,0.0,0.0,0.0,0.0,1
419318385,419317964,0.11848341,0.06855792,0.17172897,0.0,0.0,0.0,0.0,0.0,0.0,0.0,0.0,1
419517998,419517573,0.13981043,0.07092199,0.18341121,0.0,0.0,0.0,0.0,0.0,0.0,0.0,0.0,1
419737844,419737411,0.16113745,0.08510638,0.17523365,0.0,0.0,0.0,0.0,0.0,0.0,0.0,0.0,1
419912516,419912093,0.14691943,0.08510638,0.1495327,0.0,0.0,0.0,0.0,0.0,0.0,0.0,0.0,1
420126001,420125539,0.13270143,0.08274232,0.15303738,0.0,0.0,0.0,0.0,0.0,0.0,0.0,0.0,1
420322241,420321816,0.123222746,0.07092199,0.18107477,0.0,0.0,0.0,0.0,0.0,0.0,0.0,0.0,1
420516955,420516505,0.13270143,0.07801419,0.18107477,0.0,0.0,0.0,0.0,0.0,0.0,0.0,0.0,1
420729457,420729029,0.11137441,0.056737587,0.17990655,0.0,0.0,0.0,0.0,0.0,0.0,0.0,0.0,1
420927598,420927174,0.109004736,0.04255319,0.1682243,0.0,0.0,0.0,0.0,0.0,0.0,0.0,0.0,1
421119724,421119296,0.07582939,0.0,0.13200934,0.0,0.0,0.0,0.0,0.0,0.0,0.0,0.0,1
421318196,421317082,0.09241706,0.0,0.1635514,0.0,0.0,0.0,0.0,0.0,0.0,0.0,0.0,1
421515259,421514809,0.123222746,0.05437352,0.14836448,0.0,0.0,0.0,0.0,0.0,0.0,0.0,0.0,1
421729961,421729534,0.10663507,0.10165485,0.16705607,0.0,0.0,0.0,0.0,0.0,0.0,0.0,0.0,1
421923618,421923197,0.08530806,0.06382979,0.1542056,0.0,0.0,0.0,0.0,0.0,0.0,0.0,0.0,1
422122178,422121749,0.09952607,0.040189125,0.17289719,0.0,0.0,0.0,0.0,0.0,0.0,0.0,0.0,1
422320628,422320176,0.11137441,0.040189125,0.17406543,0.0,0.0,0.0,0.0,0.0,0.0,0.0,0.0,1
422536074,422535641,0.116113745,0.08510638,0.17523365,0.0,0.0,0.0,0.0,0.0,0.0,0.0,0.0,1
422728559,422728131,0.11137441,0.06146572,0.1682243,0.0,0.0,0.0,0.0,0.0,0.0,0.0,0.0,1
422927587,422927129,0.09952607,0.04964539,0.1448598,0.0,0.0,0.0,0.0,0.0,0.0,0.0,0.0,1
423126718,423126294,0.10663507,0.04964539,0.13785046,0.0,0.0,0.0,0.0,0.0,0.0,0.0,0.0,1
423301732,423301304,0.123222746,0.03782506,0.1448598,0.0,0.0,0.0,0.0,0.0,0.0,0.0,0.0,1
423518991,423518560,0.116113745,0.05437352,0.17640187,0.0,0.0,0.0,0.0,0.0,0.0,0.0,0.0,1
423737095,423736673,0.13507108,0.03309693,0.16705607,0.0,0.0,0.0,0.0,0.0,0.0,0.0,0.0,1
423935198,423934626,0.12796208,0.0,0.17172897,0.0,0.0,0.0,0.0,0.0,0.0,0.0,0.0,1
424129356,424128930,0.06872038,-0.18396227,0.17056075,0.0,0.0,0.0,0.0,0.0,0.0,0.0,0.0,1
424325634,424325161,0.07819905,-0.08490566,0.1682243,0.0,0.0,0.0,0.0,0.0,0.0,0.0,0.0,1
424520379,424519906,0.09241706,-0.021226415,0.17056075,0.0,0.0,0.0,0.0,0.0,0.0,0.0,0.0,1
424736286,424735834,0.073459715,0.0,0.1635514,0.030516433,0.0,0.0,0.0,0.0,0.0,0.0,0.0,1
424934751,424934302,0.087677725,0.021276595,0.16121495,0.051643193,0.0,0.0,0.0,0.0,0.0,0.0,0.0,1
425128523,425128040,0.06635071,0.016548464,0.15186916,0.08685446,0.0,0.0,0.0,0.0,0.0,0.0,0.0,1
425323722,425323267,0.101895735,0.07801419,0.1296729,0.061032865,0.0,0.0,0.0,0.0,0.0,0.0,0.0,1
425519706,425519249,0.11137441,0.10874704,0.16588785,0.039906103,0.0,0.0,0.0,0.0,0.0,0.0,0.0,1
425737045,425736621,0.116113745,0.11583924,0.18574767,0.0046948357,0.0,0.0,0.0,0.0,0.0,0.0,0.0,1
425929472,425929046,0.1042654,0.11111111,0.20327103,0.0,0.0,0.0,0.0,0.0,0.0,0.0,0.0,1
426122640,426122212,0.08293839,0.05437352,0.19626169,0.0,0.0,0.0,0.0,0.0,0.0,0.0,0.0,1
426321344,426320922,0.13981043,0.03073286,0.13668224,0.0,0.0,0.0,0.0,0.0,0.0,0.0,0.0,1
426535081,426534646,0.13033175,0.03073286,0.17056075,0.0,0.0,0.0,0.0,0.0,0.0,0.0,0.0,1
426729493,426729065,0.14691943,0.10165485,0.15186916,0.0,0.0,0.0,0.0,0.0,0.0,0.0,0.0,1
426925340,426924284,0.15165877,0.10401891,0.18107477,0.0,0.0,0.0,0.0,0.0,0.0,0.0,0.0,1
427137622,427137149,0.16113745,0.08510638,0.18107477,0.0070422534,0.0,0.0,0.0,0.0,0.0,0.0,0.0,1
427331488,427331060,0.19905214,0.08983452,0.17757009,0.016431924,0.0,0.0,0.0,0.0,0.0,0.0,0.0,1
427524003,427523430,0.20616114,0.021276595,0.1542056,0.044600938,0.0,0.0,0.0,0.0,0.0,0.0,0.0,1
427693723,427693220,0.16587678,0.0,0.14252336,0.032863848,0.0,0.0,0.0,0.0,0.0,0.0,0.0,1
427935126,427934702,0.2014218,0.0,0.16939253,0.056338027,0.0,0.0,0.0,0.0,0.0,0.0,0.0,1
428131126,428130663,0.22274882,0.0,0.17172897,0.02112676,0.0,0.0,0.0,0.0,0.0,0.0,0.0,1
428304854,428304426,0.24644549,0.0,0.1635514,0.0,0.0,0.0,0.0,0.0,0.0,0.0,0.0,1
428524304,428523875,0.19905214,0.0,0.18224299,0.0070422534,0.0,0.0,0.0,0.0,0.0,0.0,0.0,1
428718989,428718526,0.2085308,0.0,0.1542056,0.0,0.0,0.0,0.0,0.0,0.0,0.0,0.0,1
428935445,428934472,0.1563981,0.0,0.15303738,0.0,0.0,0.0,0.0,0.0,0.0,0.0,0.0,1
429131707,429131272,0.1872038,0.0,0.14135514,0.0,0.0,0.0,0.0,0.0,0.0,0.0,0.0,1
429323540,429323115,0.15876777,0.0,0.15537383,0.0,0.0,0.0,0.0,0.0,0.0,0.0,0.0,1
429537873,429537451,0.17061612,0.0,0.17873831,0.0,0.0,0.0,0.0,0.0,0.0,0.0,0.0,1
429737883,429737193,0.15165877,0.0,0.19042057,0.0,0.0,0.0,0.0,0.0,0.0,0.0,0.0,1
429932330,429931908,0.16113745,0.0,0.20443925,0.0,0.0,0.0,0.0,0.0,0.0,0.0,0.0,1
430127224,430126800,0.1563981,0.0,0.17172897,0.0,0.0,0.0,0.0,0.0,0.0,0.0,0.0,1
430321245,430320785,0.15165877,0.03073286,0.14369158,0.0,0.0,0.0,0.0,0.0,0.0,0.0,0.0,1
430518067,430517638,0.13981043,0.06146572,0.15654206,0.0,0.0,0.0,0.0,0.0,0.0,0.0,0.0,1
430717378,430716927,0.1421801,0.05437352,0.13785046,0.0,0.0,0.0,0.0,0.0,0.0,0.0,0.0,1
430935434,430935000,0.14691943,0.08510638,0.15654206,0.0,0.0,0.0,0.0,0.0,0.0,0.0,0.0,1
431129654,431129142,0.15165877,0.035460994,0.1495327,0.0,0.0,0.0,0.0,0.0,0.0,0.0,0.0,1
431325454,431324999,0.13981043,0.0,0.18341121,0.0,0.0,0.0,0.0,0.0,0.0,0.0,0.0,1
431521267,431520837,0.14691943,-0.06603774,0.19275701,0.0,0.0,0.0,0.0,0.0,0.0,0.0,0.0,1
431736150,431735729,0.12796208,-0.03773585,0.2067757,0.0,0.0,0.0,0.0,0.0,0.0,0.0,0.0,1
431934699,431934270,0.16113745,0.047281325,0.1542056,0.0,0.0,0.0,0.0,0.0,0.0,0.0,0.0,1
432132501,432131941,0.15165877,0.056737587,0.17523365,0.0,0.0,0.0,0.0,0.0,0.0,0.0,0.0,1
432327257,432326829,0.16587678,0.0,0.17640187,0.025821596,0.0,0.0,0.0,0.0,0.0,0.0,0.0,1
432525114,432524689,0.15876777,0.0,0.16705607,0.0023474179,0.0,0.0,0.0,0.0,0.0,0.0,0.0,1
432723371,432722948,0.1800948,0.0,0.1542056,0.0070422534,0.0,0.0,0.0,0.0,0.0,0.0,0.0,1
432918218,432917792,0.21090047,0.0,0.12850468,0.0093896715,0.0,0.0,0.0,0.0,0.0,0.0,0.0,1
433114204,433113775,0.18957347,0.0,0.1542056,0.044600938,0.0,0.0,0.0,0.0,0.0,0.0,0.0,1
433327490,433327064,0.1800948,0.0,0.1682243,0.0046948357,0.0,0.0,0.0,0.0,0.0,0.0,0.0,1
433501429,433501003,0.1943128,0.0,0.1682243,0.03521127,0.0,0.0,0.0,0.0,0.0,0.0,0.0,1
433698214,433697791,0.2014218,0.0,0.16939253,0.037558686,0.0,0.0,0.0,0.0,0.0,0.0,0.0,1
433935142,433934691,0.21800947,0.0,0.15070094,0.0046948357,0.0,0.0,0.0,0.0,0.0,0.0,0.0,1
434132987,434132560,0.20379147,0.0,0.19042057,0.0,0.0,0.0,0.0,0.0,0.0,0.0,0.0,1
434330088,434329664,0.19905214,0.0,0.18574767,0.0,0.0,0.0,0.0,0.0,0.0,0.0,0.0,1
434525396,434524971,0.1943128,0.0,0.19509345,0.0,0.0,0.0,0.0,0.0,0.0,0.0,0.0,1
434724328,434723865,0.2085308,0.0,0.13084112,0.0,0.0,0.0,0.0,0.0,0.0,0.0,0.0,1
434921501,434921075,0.19905214,0.0,0.17172897,0.0,0.0,0.0,0.0,0.0,0.0,0.0,0.0,1
435135204,435134777,0.1872038,0.03309693,0.14719626,0.0,0.0,0.0,0.0,0.0,0.0,0.0,0.0,1
435327792,435327363,0.1635071,0.0,0.15654206,0.028169014,0.0,0.0,0.0,0.0,0.0,0.0,0.0,1
435522800,435522235,0.23696682,0.0,0.1343458,0.037558686,0.0,0.0,0.0,0.0,0.0,0.0,0.0,1
