timestamp,timestamp_sample,gps_hvel[0],gps_hvel[1],gps_vvel,gps_hpos[0],gps_hpos[1],gps_vpos,ev_hvel[0],ev_hvel[1],ev_vvel,ev_hpos[0],ev_hpos[1],ev_vpos,rng_vpos,baro_vpos,aux_hvel[0],aux_hvel[1],aux_vvel,flow[0],flow[1],heading,mag_field[0],mag_field[1],mag_field[2],drag[0],drag[1],airspeed,beta,hagl
293533581,293532518,0.0,0.0,0.0,0.054655407,0.0058183437,0.0,0.0,0.0,0.0,0.0,0.0,0.0,0.0,-0.11426449,0.0,0.0,nan,0.0,0.0,-0.13968182,-0.01134333,0.007897098,-0.00068606436,0.0,0.0,0.0,0.0,0.0
294032779,294031828,0.0,0.0,0.0,0.054937385,0.006063562,0.0,0.0,0.0,0.0,0.0,0.0,0.0,0.0,0.42124748,0.0,0.0,nan,0.0,0.0,-0.11322105,-0.01134333,0.007897098,-0.00068606436,0.0,0.0,0.0,0.0,0.0
294532199,294531133,0.0,0.0,0.0,0.055761334,0.005822572,0.0,0.0,0.0,0.0,0.0,0.0,0.0,0.0,0.40647793,0.0,0.0,nan,0.0,0.0,-0.0984143,-0.01134333,0.007897098,-0.00068606436,0.0,0.0,0.0,0.0,0.0
295031499,295030442,0.0,0.0,0.0,0.067068756,0.0073179137,0.0,0.0,0.0,0.0,0.0,0.0,0.0,0.0,0.3164606,0.0,0.0,nan,0.0,0.0,-0.07652962,-0.01134333,0.007897098,-0.00068606436,0.0,0.0,0.0,0.0,0.0
295535869,295534746,0.0,0.0,0.0,0.10649068,0.015430474,0.0,0.0,0.0,0.0,0.0,0.0,0.0,0.0,0.041552544,0.0,0.0,nan,0.0,0.0,-0.046619892,-0.01134333,0.007897098,-0.00068606436,0.0,0.0,0.0,0.0,0.0
296034990,296034057,0.0,0.0,0.0,0.13922937,0.03041986,0.0,0.0,0.0,0.0,0.0,0.0,0.0,0.0,0.23527718,0.0,0.0,nan,0.0,0.0,-0.024971962,-0.01134333,0.007897098,-0.00068606436,0.0,0.0,0.0,0.0,0.0
296534203,296533370,0.0,0.0,0.0,0.16228016,0.08207405,0.0,0.0,0.0,0.0,0.0,0.0,0.0,0.0,0.30204964,0.0,0.0,nan,0.0,0.0,-0.026301146,-0.01134333,0.007897098,-0.00068606436,0.0,0.0,0.0,0.0,0.0
297033697,297032680,0.0,0.0,0.0,0.190194,0.10997601,0.0,0.0,0.0,0.0,0.0,0.0,0.0,0.0,0.08280945,0.0,0.0,nan,0.0,0.0,-0.074242115,-0.01134333,0.007897098,-0.00068606436,0.0,0.0,0.0,0.0,0.0
297532922,297531990,0.0,0.0,0.0,0.2194328,0.09798057,0.0,0.0,0.0,0.0,0.0,0.0,0.0,0.0,0.20252228,0.0,0.0,nan,0.0,0.0,-0.10559559,-0.01134333,0.007897098,-0.00068606436,0.0,0.0,0.0,0.0,0.0
298032474,298031301,0.0,0.0,0.0,0.21941502,0.16831739,0.0,0.0,0.0,0.0,0.0,0.0,0.0,0.0,0.31548405,0.0,0.0,nan,0.0,0.0,-0.14069879,-0.01134333,0.007897098,-0.00068606436,0.0,0.0,0.0,0.0,0.0
298531438,298530613,0.0,0.0,0.0,0.19318426,0.24076767,0.0,0.0,0.0,0.0,0.0,0.0,0.0,0.0,0.30270195,0.0,0.0,nan,0.0,0.0,-0.28373718,-0.01134333,0.007897098,-0.00068606436,0.0,0.0,0.0,0.0,0.0
299035981,299034921,0.0,0.0,0.0,0.16761287,0.32833862,0.0,0.0,0.0,0.0,0.0,0.0,0.0,0.0,0.41335678,0.0,0.0,nan,0.0,0.0,-0.3736307,-0.01134333,0.007897098,-0.00068606436,0.0,0.0,0.0,0.0,0.0
299535072,299534229,0.0,0.0,0.0,0.17508392,0.42344528,0.0,0.0,0.0,0.0,0.0,0.0,0.0,0.0,0.30739498,0.0,0.0,nan,0.0,0.0,-0.3977031,-0.01134333,0.007897098,-0.00068606436,0.0,0.0,0.0,0.0,0.0
300034644,300033541,0.0,0.0,0.0,0.22043416,0.4034222,0.0,0.0,0.0,0.0,0.0,0.0,0.0,0.0,0.43543816,0.0,0.0,nan,0.0,0.0,-0.39843917,-0.01134333,0.007897098,-0.00068606436,0.0,0.0,0.0,0.0,0.0
300533723,300532895,0.0,0.0,0.0,0.3533205,0.3160256,0.0,0.0,0.0,0.0,0.0,0.0,0.0,0.0,0.272933,0.0,0.0,nan,0.0,0.0,-0.4319036,-0.01134333,0.007897098,-0.00068606436,0.0,0.0,0.0,0.0,0.0
301033075,301032169,0.0,0.0,0.0,0.58983,0.16094258,0.0,0.0,0.0,0.0,0.0,0.0,0.0,0.0,0.30381107,0.0,0.0,nan,0.0,0.0,-0.4652291,-0.01134333,0.007897098,-0.00068606436,0.0,0.0,0.0,0.0,0.0
301532549,301531477,0.0,0.0,0.0,0.77264977,0.036490805,0.0,0.0,0.0,0.0,0.0,0.0,0.0,0.0,0.40056133,0.0,0.0,nan,0.0,0.0,-0.5099185,-0.01134333,0.007897098,-0.00068606436,0.0,0.0,0.0,0.0,0.0
302031638,302030790,0.0,0.0,0.0,1.0400077,-0.11429955,0.0,0.0,0.0,0.0,0.0,0.0,0.0,0.0,0.40150738,0.0,0.0,nan,0.0,0.0,-0.5584547,-0.01134333,0.007897098,-0.00068606436,0.0,0.0,0.0,0.0,0.0
302531097,302530101,0.0,0.0,0.0,1.1831028,-0.13487458,0.0,0.0,0.0,0.0,0.0,0.0,0.0,0.0,0.26257992,0.0,0.0,nan,0.0,0.0,-0.56015944,-0.01134333,0.007897098,-0.00068606436,0.0,0.0,0.0,0.0,0.0
303035280,303034408,0.0,0.0,0.0,1.2545645,-0.12392812,0.0,0.0,0.0,0.0,0.0,0.0,0.0,0.0,0.2307148,0.0,0.0,nan,0.0,0.0,-0.5644009,-0.01134333,0.007897098,-0.00068606436,0.0,0.0,0.0,0.0,0.0
303534688,303533723,0.0,0.0,0.0,1.278573,-0.05031006,0.0,0.0,0.0,0.0,0.0,0.0,0.0,0.0,0.27538967,0.0,0.0,nan,0.0,0.0,-0.54182947,-0.01134333,0.007897098,-0.00068606436,0.0,0.0,0.0,0.0,0.0
304033985,304033033,0.0,0.0,0.0,1.2547637,0.0356646,0.0,0.0,0.0,0.0,0.0,0.0,0.0,0.0,-0.09435177,0.0,0.0,nan,0.0,0.0,-0.52988714,-0.01134333,0.007897098,-0.00068606436,0.0,0.0,0.0,0.0,0.0
305032561,305031658,0.0,0.0,0.0,1.1454271,0.19730617,0.0,0.0,0.0,0.0,0.0,0.0,0.0,0.0,0.08787441,0.0,0.0,nan,0.0,0.0,-0.45447105,-0.01134333,0.007897098,-0.00068606436,0.0,0.0,0.0,0.0,0.0
305531864,305530971,0.0,0.0,0.0,1.0983118,0.2353323,0.0,0.0,0.0,0.0,0.0,0.0,0.0,0.0,-0.013261795,0.0,0.0,nan,0.0,0.0,-0.45499796,-0.01134333,0.007897098,-0.00068606436,0.0,0.0,0.0,0.0,0.0
306031287,306030283,0.0,0.0,0.0,1.0274899,0.28333727,0.0,0.0,0.0,0.0,0.0,0.0,0.0,0.0,-0.11760044,0.0,0.0,nan,0.0,0.0,-0.41713578,-0.01134333,0.007897098,-0.00068606436,0.0,0.0,0.0,0.0,0.0
306535492,306534591,0.0,0.0,0.0,0.9791289,0.31318295,0.0,0.0,0.0,0.0,0.0,0.0,0.0,0.0,0.10455418,0.0,0.0,nan,0.0,0.0,-0.3997749,-0.01134333,0.007897098,-0.00068606436,0.0,0.0,0.0,0.0,0.0
307035094,307033903,0.0,0.0,0.0,0.9049618,0.35340202,0.0,0.0,0.0,0.0,0.0,0.0,0.0,0.0,-0.10290241,0.0,0.0,nan,0.0,0.0,-0.39537406,-0.01134333,0.007897098,-0.00068606436,0.0,0.0,0.0,0.0,0.0
307534087,307533216,0.0,0.0,0.0,0.85712886,0.37246707,0.0,0.0,0.0,0.0,0.0,0.0,0.0,0.0,0.11444855,0.0,0.0,nan,0.0,0.0,-0.36825764,-0.01134333,0.007897098,-0.00068606436,0.0,0.0,0.0,0.0,0.0
308033588,308032530,0.0,0.0,0.0,0.8119429,0.38659608,0.0,0.0,0.0,0.0,0.0,0.0,0.0,0.0,0.20840168,0.0,0.0,nan,0.0,0.0,-0.36803,-0.01134333,0.007897098,-0.00068606436,0.0,0.0,0.0,0.0,0.0
308532795,308531843,0.0,0.0,0.0,0.79199415,0.3564952,0.0,0.0,0.0,0.0,0.0,0.0,0.0,0.0,0.188838,0.0,0.0,nan,0.0,0.0,-0.36981606,-0.01134333,0.007897098,-0.00068606436,0.0,0.0,0.0,0.0,0.0
309032204,309031156,0.0,0.0,0.0,0.81988144,0.2895084,0.0,0.0,0.0,0.0,0.0,0.0,0.0,0.0,0.08194351,0.0,0.0,nan,0.0,0.0,-0.36799324,-0.01134333,0.007897098,-0.00068606436,0.0,0.0,0.0,0.0,0.0
309531477,309530472,0.0,0.0,0.0,0.8813313,0.1967337,0.0,0.0,0.0,0.0,0.0,0.0,0.0,0.0,0.091934204,0.0,0.0,nan,0.0,0.0,-0.39197987,-0.01134333,0.007897098,-0.00068606436,0.0,0.0,0.0,0.0,0.0
310035898,310034777,0.0,0.0,0.0,1.0136504,0.034879062,0.0,0.0,0.0,0.0,0.0,0.0,0.0,0.0,0.13662243,0.0,0.0,nan,0.0,0.0,-0.43618172,-0.01134333,0.007897098,-0.00068606436,0.0,0.0,0.0,0.0,0.0
310535122,310534091,0.0,0.0,0.0,1.1415664,-0.0964827,0.0,0.0,0.0,0.0,0.0,0.0,0.0,0.0,0.26862907,0.0,0.0,nan,0.0,0.0,-0.46750745,-0.01134333,0.007897098,-0.00068606436,0.0,0.0,0.0,0.0,0.0
311034300,311033407,0.0,0.0,0.0,1.3330265,-0.26523364,0.0,0.0,0.0,0.0,0.0,0.0,0.0,0.0,0.17847633,0.0,0.0,nan,0.0,0.0,-0.48050278,-0.01134333,0.007897098,-0.00068606436,0.0,0.0,0.0,0.0,0.0
312032929,312032032,0.0,0.0,0.0,1.584899,-0.45643568,0.0,0.0,0.0,0.0,0.0,0.0,0.0,0.0,0.34922504,0.0,0.0,nan,0.0,0.0,0.028792754,-0.01134333,0.007897098,-0.00068606436,0.0,0.0,0.0,0.0,0.0
312537357,312536339,0.0,0.0,0.0,1.7467325,-0.56756544,0.0,0.0,0.0,0.0,0.0,0.0,0.0,0.0,0.46046257,0.0,0.0,nan,0.0,0.0,0.002470374,-0.01134333,0.007897098,-0.00068606436,0.0,0.0,0.0,0.0,0.0
313036548,313035658,0.0,0.0,0.0,1.8398827,-0.6334171,0.0,0.0,0.0,0.0,0.0,0.0,0.0,0.0,0.57672596,0.0,0.0,nan,0.0,0.0,-0.0367686,-0.01134333,0.007897098,-0.00068606436,0.0,0.0,0.0,0.0,0.0
313536096,313534967,0.0,0.0,0.0,1.9615688,-0.6932014,0.0,0.0,0.0,0.0,0.0,0.0,0.0,0.0,0.9645996,0.0,0.0,nan,0.0,0.0,-0.04460766,-0.01134333,0.007897098,-0.00068606436,0.0,0.0,0.0,0.0,0.0
314035200,314034312,0.0,0.0,0.0,2.0127926,-0.7126898,0.0,0.0,0.0,0.0,0.0,0.0,0.0,0.0,1.0480828,0.0,0.0,nan,0.0,0.0,-0.053800926,-0.01134333,0.007897098,-0.00068606436,0.0,0.0,0.0,0.0,0.0
315033909,315032909,0.0,0.0,0.0,1.9989563,-0.6730333,0.0,0.0,0.0,0.0,0.0,0.0,0.0,0.0,1.2674584,0.0,0.0,nan,0.0,0.0,0.0011853874,-0.01134333,0.007897098,-0.00068606436,0.0,0.0,0.0,0.0,0.0
315533104,315532260,0.0,0.0,0.0,1.9563466,-0.6452151,0.0,0.0,0.0,0.0,0.0,0.0,0.0,0.0,1.3500347,0.0,0.0,nan,0.0,0.0,0.027817503,-0.01134333,0.007897098,-0.00068606436,0.0,0.0,0.0,0.0,0.0
316032494,316031537,0.0,0.0,0.0,1.9056903,-0.62716866,0.0,0.0,0.0,0.0,0.0,0.0,0.0,0.0,1.5209751,0.0,0.0,nan,0.0,0.0,0.09419949,-0.01134333,0.007897098,-0.00068606436,0.0,0.0,0.0,0.0,0.0
316536843,316535845,0.0,0.0,0.0,1.7756264,-0.6728925,0.0,0.0,0.0,0.0,0.0,0.0,0.0,0.0,1.389247,0.0,0.0,nan,0.0,0.0,0.15226053,-0.01134333,0.007897098,-0.00068606436,0.0,0.0,0.0,0.0,0.0
317036165,317035159,0.0,0.0,0.0,1.6877251,-0.7335257,0.0,0.0,0.0,0.0,0.0,0.0,0.0,0.0,1.6335812,0.0,0.0,nan,0.0,0.0,0.19329289,-0.01134333,0.007897098,-0.00068606436,0.0,0.0,0.0,0.0,0.0
317530364,317529481,0.0,0.0,0.0,1.5658423,-0.8366138,0.0,0.0,0.0,0.0,0.0,0.0,0.0,0.0,1.4315376,0.0,0.0,nan,0.0,0.0,0.22346601,-0.01134333,0.007897098,-0.00068606436,0.0,0.0,0.0,0.0,0.0
318039939,318038784,0.0,0.0,0.0,1.4783978,-0.89562964,0.0,0.0,0.0,0.0,0.0,0.0,0.0,0.0,1.3118029,0.0,0.0,nan,0.0,0.0,0.24878323,-0.01134333,0.007897098,-0.00068606436,0.0,0.0,0.0,0.0,0.0
318539005,318538095,0.0,0.0,0.0,1.4007143,-0.9071897,0.0,0.0,0.0,0.0,0.0,0.0,0.0,0.0,1.5702586,0.0,0.0,nan,0.0,0.0,0.2893479,-0.01134333,0.007897098,-0.00068606436,0.0,0.0,0.0,0.0,0.0
319038410,319037410,0.0,0.0,0.0,1.3162175,-0.8395329,0.0,0.0,0.0,0.0,0.0,0.0,0.0,0.0,1.3449116,0.0,0.0,nan,0.0,0.0,0.2932297,-0.01134333,0.007897098,-0.00068606436,0.0,0.0,0.0,0.0,0.0
319537635,319536724,0.0,0.0,0.0,1.2824017,-0.78226507,0.0,0.0,0.0,0.0,0.0,0.0,0.0,0.0,1.4836311,0.0,0.0,nan,0.0,0.0,0.29201305,-0.01134333,0.007897098,-0.00068606436,0.0,0.0,0.0,0.0,0.0
320037122,320036038,0.0,0.0,0.0,1.2440771,-0.6903235,0.0,0.0,0.0,0.0,0.0,0.0,0.0,0.0,1.3691621,0.0,0.0,nan,0.0,0.0,0.260015,-0.01134333,0.007897098,-0.00068606436,0.0,0.0,0.0,0.0,0.0
320536303,320535354,0.0,0.0,0.0,1.2287651,-0.6364928,0.0,0.0,0.0,0.0,0.0,0.0,0.0,0.0,1.1081209,0.0,0.0,nan,0.0,0.0,0.24034274,-0.01134333,0.007897098,-0.00068606436,0.0,0.0,0.0,0.0,0.0
321035580,321034668,0.0,0.0,0.0,1.2073224,-0.5904477,0.0,0.0,0.0,0.0,0.0,0.0,0.0,0.0,0.81002474,0.0,0.0,nan,0.0,0.0,0.20765336,-0.01134333,0.007897098,-0.00068606436,0.0,0.0,0.0,0.0,0.0
322034243,322033299,0.0,0.0,0.0,1.132068,-0.49364483,0.0,0.0,0.0,0.0,0.0,0.0,0.0,0.0,1.0095234,0.0,0.0,nan,0.0,0.0,0.14475435,-0.01134333,0.007897098,-0.00068606436,0.0,0.0,0.0,0.0,0.0
323032817,323031925,0.0,0.0,0.0,0.97666943,-0.37715948,0.0,0.0,0.0,0.0,0.0,0.0,0.0,0.0,0.7949257,0.0,0.0,nan,0.0,0.0,0.030096322,-0.01134333,0.007897098,-0.00068606436,0.0,0.0,0.0,0.0,0.0
323532337,323531240,0.0,0.0,0.0,0.89304626,-0.3228639,0.0,0.0,0.0,0.0,0.0,0.0,0.0,0.0,0.9920416,0.0,0.0,nan,0.0,0.0,-0.018784538,-0.01134333,0.007897098,-0.00068606436,0.0,0.0,0.0,0.0,0.0
324036496,324035547,0.0,0.0,0.0,0.75806934,-0.24500221,0.0,0.0,0.0,0.0,0.0,0.0,0.0,0.0,1.035326,0.0,0.0,nan,0.0,0.0,-0.026788265,-0.01134333,0.007897098,-0.00068606436,0.0,0.0,0.0,0.0,0.0
325035003,325034177,0.0,0.0,0.0,0.5582653,-0.16353501,0.0,0.0,0.0,0.0,0.0,0.0,0.0,0.0,1.0629015,0.0,0.0,nan,0.0,0.0,0.010834545,-0.01134333,0.007897098,-0.00068606436,0.0,0.0,0.0,0.0,0.0
326033861,326032806,0.0,0.0,0.0,0.29408666,-0.05657131,0.0,0.0,0.0,0.0,0.0,0.0,0.0,0.0,0.8064637,0.0,0.0,nan,0.0,0.0,0.058840483,-0.01134333,0.007897098,-0.00068606436,0.0,0.0,0.0,0.0,0.0
326533003,326532119,0.0,0.0,0.0,0.15279731,0.021534689,0.0,0.0,0.0,0.0,0.0,0.0,0.0,0.0,1.1482325,0.0,0.0,nan,0.0,0.0,0.10310969,-0.01134333,0.007897098,-0.00068606436,0.0,0.0,0.0,0.0,0.0
327037574,327036427,0.0,0.0,0.0,0.06280037,0.059294086,0.0,0.0,0.0,0.0,0.0,0.0,0.0,0.0,1.1290002,0.0,0.0,nan,0.0,0.0,0.11498472,-0.01134333,0.007897098,-0.00068606436,0.0,0.0,0.0,0.0,0.0
328036133,328035056,0.0,0.0,0.0,-0.11080761,0.15015765,0.0,0.0,0.0,0.0,0.0,0.0,0.0,0.0,1.161736,0.0,0.0,nan,0.0,0.0,0.1490004,-0.01134333,0.007897098,-0.00068606436,0.0,0.0,0.0,0.0,0.0
328535332,328534370,0.0,0.0,0.0,-0.15245308,0.21996737,0.0,0.0,0.0,0.0,0.0,0.0,0.0,0.0,1.3883696,0.0,0.0,nan,0.0,0.0,0.13692617,-0.01134333,0.007897098,-0.00068606436,0.0,0.0,0.0,0.0,0.0
329034668,329033695,0.0,0.0,0.0,-0.17782035,0.3326058,0.0,0.0,0.0,0.0,0.0,0.0,0.0,0.0,1.1663675,0.0,0.0,nan,0.0,0.0,0.12701729,-0.01134333,0.007897098,-0.00068606436,0.0,0.0,0.0,0.0,0.0
329533860,329533017,0.0,0.0,0.0,-0.20518218,0.3844844,0.0,0.0,0.0,0.0,0.0,0.0,0.0,0.0,1.0542021,0.0,0.0,nan,0.0,0.0,0.14961198,-0.01134333,0.007897098,-0.00068606436,0.0,0.0,0.0,0.0,0.0
330033442,330032314,0.0,0.0,0.0,-0.28906357,0.38621387,0.0,0.0,0.0,0.0,0.0,0.0,0.0,0.0,1.491333,0.0,0.0,nan,0.0,0.0,0.16370204,-0.01134333,0.007897098,-0.00068606436,0.0,0.0,0.0,0.0,0.0
331031763,331030942,0.0,0.0,0.0,-0.5215175,0.40342993,0.0,0.0,0.0,0.0,0.0,0.0,0.0,0.0,1.3926959,0.0,0.0,nan,0.0,0.0,0.3359861,-0.01134333,0.007897098,-0.00068606436,0.0,0.0,0.0,0.0,0.0
331536350,331535279,0.0,0.0,0.0,-0.6344988,0.4237783,0.0,0.0,0.0,0.0,0.0,0.0,0.0,0.0,1.2262297,0.0,0.0,nan,0.0,0.0,0.41287106,-0.01134333,0.007897098,-0.00068606436,0.0,0.0,0.0,0.0,0.0
332035575,332034565,0.0,0.0,0.0,-0.72127134,0.43910676,0.0,0.0,0.0,0.0,0.0,0.0,0.0,0.0,1.2453151,0.0,0.0,nan,0.0,0.0,0.43605942,-0.01134333,0.007897098,-0.00068606436,0.0,0.0,0.0,0.0,0.0
333034169,333033193,0.0,0.0,0.0,-0.8906858,0.48593113,0.0,0.0,0.0,0.0,0.0,0.0,0.0,0.0,1.0217948,0.0,0.0,nan,0.0,0.0,0.20898515,-0.01134333,0.007897098,-0.00068606436,0.0,0.0,0.0,0.0,0.0
333533526,333532506,0.0,0.0,0.0,-0.9285641,0.5034672,0.0,0.0,0.0,0.0,0.0,0.0,0.0,0.0,1.1715813,0.0,0.0,nan,0.0,0.0,0.1141794,-0.01134333,0.007897098,-0.00068606436,0.0,0.0,0.0,0.0,0.0
334032760,334031821,0.0,0.0,0.0,-0.95782346,0.5177494,0.0,0.0,0.0,0.0,0.0,0.0,0.0,0.0,1.2443924,0.0,0.0,nan,0.0,0.0,0.07787728,-0.01134333,0.007897098,-0.00068606436,0.0,0.0,0.0,0.0,0.0
335031388,335030448,0.0,0.0,0.0,-1.0009294,0.511871,0.0,0.0,0.0,0.0,0.0,0.0,0.0,0.0,1.376543,0.0,0.0,nan,0.0,0.0,0.08851874,-0.01134333,0.007897098,-0.00068606436,0.0,0.0,0.0,0.0,0.0
336035055,336034072,0.0,0.0,0.0,-1.0338085,0.5636582,0.0,0.0,0.0,0.0,0.0,0.0,0.0,0.0,1.4805284,0.0,0.0,nan,0.0,0.0,0.10791707,-0.01134333,0.007897098,-0.00068606436,0.0,0.0,0.0,0.0,0.0
337033763,337032698,0.0,0.0,0.0,-1.0780425,0.66718096,0.0,0.0,0.0,0.0,0.0,0.0,0.0,0.0,1.3701758,0.0,0.0,nan,0.0,0.0,0.10950521,-0.01134333,0.007897098,-0.00068606436,0.0,0.0,0.0,0.0,0.0
337532960,337532012,0.0,0.0,0.0,-1.0844241,0.6987184,0.0,0.0,0.0,0.0,0.0,0.0,0.0,0.0,1.762186,0.0,0.0,nan,0.0,0.0,0.09997228,-0.01134333,0.007897098,-0.00068606436,0.0,0.0,0.0,0.0,0.0
338032542,338031326,0.0,0.0,0.0,-1.0928674,0.7235615,0.0,0.0,0.0,0.0,0.0,0.0,0.0,0.0,1.5538845,0.0,0.0,nan,0.0,0.0,0.08599427,-0.01134333,0.007897098,-0.00068606436,0.0,0.0,0.0,0.0,0.0
338531516,338530639,0.0,0.0,0.0,-1.0750185,0.72737104,0.0,0.0,0.0,0.0,0.0,0.0,0.0,0.0,1.630837,0.0,0.0,nan,0.0,0.0,0.059212327,-0.01134333,0.007897098,-0.00068606436,0.0,0.0,0.0,0.0,0.0
339036170,339034950,0.0,0.0,0.0,-1.0608277,0.7314774,0.0,0.0,0.0,0.0,0.0,0.0,0.0,0.0,1.7802744,0.0,0.0,nan,0.0,0.0,0.054965883,-0.01134333,0.007897098,-0.00068606436,0.0,0.0,0.0,0.0,0.0
340034635,340033574,0.0,0.0,0.0,-1.0489899,0.707594,0.0,0.0,0.0,0.0,0.0,0.0,0.0,0.0,1.596139,0.0,0.0,nan,0.0,0.0,0.03161663,-0.01134333,0.007897098,-0.00068606436,0.0,0.0,0.0,0.0,0.0
341033085,341032201,0.0,0.0,0.0,-0.94515324,0.5480405,0.0,0.0,0.0,0.0,0.0,0.0,0.0,0.0,1.7075672,0.0,0.0,nan,0.0,0.0,0.041856617,-0.01134333,0.007897098,-0.00068606436,0.0,0.0,0.0,0.0,0.0
341532480,341531515,0.0,0.0,0.0,-0.8426704,0.4530936,0.0,0.0,0.0,0.0,0.0,0.0,0.0,0.0,1.702146,0.0,0.0,nan,0.0,0.0,0.06471118,-0.01134333,0.007897098,-0.00068606436,0.0,0.0,0.0,0.0,0.0
342031869,342030829,0.0,0.0,0.0,-0.6846206,0.3243655,0.0,0.0,0.0,0.0,0.0,0.0,0.0,0.0,1.844821,0.0,0.0,nan,0.0,0.0,0.017805219,-0.01134333,0.007897098,-0.00068606436,0.0,0.0,0.0,0.0,0.0
342536097,342535135,0.0,0.0,0.0,-0.59818053,0.25592083,0.0,0.0,0.0,0.0,0.0,0.0,0.0,0.0,1.7747307,0.0,0.0,nan,0.0,0.0,-0.011457115,-0.01134333,0.007897098,-0.00068606436,0.0,0.0,0.0,0.0,0.0
343035381,343034448,0.0,0.0,0.0,-0.5137549,0.19017293,0.0,0.0,0.0,0.0,0.0,0.0,0.0,0.0,2.0535555,0.0,0.0,nan,0.0,0.0,-0.0450269,-0.01134333,0.007897098,-0.00068606436,0.0,0.0,0.0,0.0,0.0
343534970,343533763,0.0,0.0,0.0,-0.39599705,0.08674587,0.0,0.0,0.0,0.0,0.0,0.0,0.0,0.0,1.9753575,0.0,0.0,nan,0.0,0.0,-0.051089317,-0.01134333,0.007897098,-0.00068606436,0.0,0.0,0.0,0.0,0.0
344033991,344033077,0.0,0.0,0.0,-0.31842592,0.019927979,0.0,0.0,0.0,0.0,0.0,0.0,0.0,0.0,1.9687319,0.0,0.0,nan,0.0,0.0,-0.059142083,-0.01134333,0.007897098,-0.00068606436,0.0,0.0,0.0,0.0,0.0
344533523,344532389,0.0,0.0,0.0,-0.20363629,-0.07796285,0.0,0.0,0.0,0.0,0.0,0.0,0.0,0.0,2.0263443,0.0,0.0,nan,0.0,0.0,-0.05413553,-0.01134333,0.007897098,-0.00068606436,0.0,0.0,0.0,0.0,0.0
345032804,345031703,0.0,0.0,0.0,-0.1228254,-0.14249972,0.0,0.0,0.0,0.0,0.0,0.0,0.0,0.0,2.3199067,0.0,0.0,nan,0.0,0.0,-0.022551,-0.01134333,0.007897098,-0.00068606436,0.0,0.0,0.0,0.0,0.0
345531896,345531015,0.0,0.0,0.0,-0.052897796,-0.20981534,0.0,0.0,0.0,0.0,0.0,0.0,0.0,0.0,2.0909815,0.0,0.0,nan,0.0,0.0,0.008549988,-0.01134333,0.007897098,-0.00068606436,0.0,0.0,0.0,0.0,0.0
346031375,346030329,0.0,0.0,0.0,0.0077489116,-0.31571528,0.0,0.0,0.0,0.0,0.0,0.0,0.0,0.0,2.0621371,0.0,0.0,nan,0.0,0.0,0.052140355,-0.01134333,0.007897098,-0.00068606436,0.0,0.0,0.0,0.0,0.0
346535580,346534634,0.0,0.0,0.0,0.043954622,-0.38953578,0.0,0.0,0.0,0.0,0.0,0.0,0.0,0.0,2.155301,0.0,0.0,nan,0.0,0.0,0.05953288,-0.01134333,0.007897098,-0.00068606436,0.0,0.0,0.0,0.0,0.0
347035135,347033948,0.0,0.0,0.0,0.10464284,-0.49755028,0.0,0.0,0.0,0.0,0.0,0.0,0.0,0.0,2.1140966,0.0,0.0,nan,0.0,0.0,0.025505066,-0.01134333,0.007897098,-0.00068606436,0.0,0.0,0.0,0.0,0.0
347534221,347533266,0.0,0.0,0.0,0.15240985,-0.5432492,0.0,0.0,0.0,0.0,0.0,0.0,0.0,0.0,2.2747173,0.0,0.0,nan,0.0,0.0,-0.002588421,-0.01134333,0.007897098,-0.00068606436,0.0,0.0,0.0,0.0,0.0
348033687,348032596,0.0,0.0,0.0,0.19958346,-0.55900407,0.0,0.0,0.0,0.0,0.0,0.0,0.0,0.0,2.2722793,0.0,0.0,nan,0.0,0.0,-0.052473962,-0.01134333,0.007897098,-0.00068606436,0.0,0.0,0.0,0.0,0.0
348532781,348531887,0.0,0.0,0.0,0.26636207,-0.5113646,0.0,0.0,0.0,0.0,0.0,0.0,0.0,0.0,2.0046954,0.0,0.0,nan,0.0,0.0,-0.055668086,-0.01134333,0.007897098,-0.00068606436,0.0,0.0,0.0,0.0,0.0
349032289,349031248,0.0,0.0,0.0,0.30482712,-0.46656895,0.0,0.0,0.0,0.0,0.0,0.0,0.0,0.0,2.1975112,0.0,0.0,nan,0.0,0.0,-0.07678181,-0.01134333,0.007897098,-0.00068606436,0.0,0.0,0.0,0.0,0.0
349536474,349535515,0.0,0.0,0.0,0.34567317,-0.43605998,0.0,0.0,0.0,0.0,0.0,0.0,0.0,0.0,2.1650739,0.0,0.0,nan,0.0,0.0,-0.09092024,-0.01134333,0.007897098,-0.00068606436,0.0,0.0,0.0,0.0,0.0
350035961,350034819,0.0,0.0,0.0,0.41907823,-0.41001326,0.0,0.0,0.0,0.0,0.0,0.0,0.0,0.0,2.2560391,0.0,0.0,nan,0.0,0.0,-0.113725364,-0.01134333,0.007897098,-0.00068606436,0.0,0.0,0.0,0.0,0.0
350535046,350534179,0.0,0.0,0.0,0.4910966,-0.40989864,0.0,0.0,0.0,0.0,0.0,0.0,0.0,0.0,2.265327,0.0,0.0,nan,0.0,0.0,-0.15865497,-0.01134333,0.007897098,-0.00068606436,0.0,0.0,0.0,0.0,0.0
351034416,351033447,0.0,0.0,0.0,0.6068113,-0.41853437,0.0,0.0,0.0,0.0,0.0,0.0,0.0,0.0,2.273602,0.0,0.0,nan,0.0,0.0,-0.17463496,-0.01134333,0.007897098,-0.00068606436,0.0,0.0,0.0,0.0,0.0
351533837,351532756,0.0,0.0,0.0,0.66860765,-0.4275871,0.0,0.0,0.0,0.0,0.0,0.0,0.0,0.0,2.4216619,0.0,0.0,nan,0.0,0.0,-0.18076895,-0.01134333,0.007897098,-0.00068606436,0.0,0.0,0.0,0.0,0.0
352038017,352037062,0.0,0.0,0.0,0.727254,-0.44927347,0.0,0.0,0.0,0.0,0.0,0.0,0.0,0.0,2.2736583,0.0,0.0,nan,0.0,0.0,-0.058195442,-0.01134333,0.007897098,-0.00068606436,0.0,0.0,0.0,0.0,0.0
352537462,352536375,0.0,0.0,0.0,0.79995567,-0.49931157,0.0,0.0,0.0,0.0,0.0,0.0,0.0,0.0,2.360201,0.0,0.0,nan,0.0,0.0,0.0029292107,-0.01134333,0.007897098,-0.00068606436,0.0,0.0,0.0,0.0,0.0
353036582,353035688,0.0,0.0,0.0,0.7897829,-0.5223,0.0,0.0,0.0,0.0,0.0,0.0,0.0,0.0,2.4378653,0.0,0.0,nan,0.0,0.0,0.047602803,-0.01134333,0.007897098,-0.00068606436,0.0,0.0,0.0,0.0,0.0
353536023,353535000,0.0,0.0,0.0,0.6820724,-0.49956414,0.0,0.0,0.0,0.0,0.0,0.0,0.0,0.0,2.2614055,0.0,0.0,nan,0.0,0.0,0.045416683,-0.01134333,0.007897098,-0.00068606436,0.0,0.0,0.0,0.0,0.0
354035317,354034312,0.0,0.0,0.0,0.59420353,-0.4761896,0.0,0.0,0.0,0.0,0.0,0.0,0.0,0.0,2.2549906,0.0,0.0,nan,0.0,0.0,0.05368653,-0.01134333,0.007897098,-0.00068606436,0.0,0.0,0.0,0.0,0.0
354534747,354533630,0.0,0.0,0.0,0.48122743,-0.44640565,0.0,0.0,0.0,0.0,0.0,0.0,0.0,0.0,2.4157295,0.0,0.0,nan,0.0,0.0,0.03645724,-0.01134333,0.007897098,-0.00068606436,0.0,0.0,0.0,0.0,0.0
355033765,355032936,0.0,0.0,0.0,0.26581144,-0.36702594,0.0,0.0,0.0,0.0,0.0,0.0,0.0,0.0,2.290227,0.0,0.0,nan,0.0,0.0,0.062155068,-0.01134333,0.007897098,-0.00068606436,0.0,0.0,0.0,0.0,0.0
355533256,355532249,0.0,0.0,0.0,0.1302956,-0.30034992,0.0,0.0,0.0,0.0,0.0,0.0,0.0,0.0,2.3876839,0.0,0.0,nan,0.0,0.0,0.02276519,-0.01134333,0.007897098,-0.00068606436,0.0,0.0,0.0,0.0,0.0
356032653,356031561,0.0,0.0,0.0,0.001374146,-0.19855912,0.0,0.0,0.0,0.0,0.0,0.0,0.0,0.0,2.2865944,0.0,0.0,nan,0.0,0.0,0.03320715,-0.01134333,0.007897098,-0.00068606436,0.0,0.0,0.0,0.0,0.0
356531694,356530872,0.0,0.0,0.0,-0.160779,0.01425704,0.0,0.0,0.0,0.0,0.0,0.0,0.0,0.0,2.389822,0.0,0.0,nan,0.0,0.0,0.054485217,-0.01134333,0.007897098,-0.00068606436,0.0,0.0,0.0,0.0,0.0
357031355,357030184,0.0,0.0,0.0,-0.21897395,0.14518552,0.0,0.0,0.0,0.0,0.0,0.0,0.0,0.0,2.332613,0.0,0.0,nan,0.0,0.0,0.08239624,-0.01134333,0.007897098,-0.00068606436,0.0,0.0,0.0,0.0,0.0
357535332,357534489,0.0,0.0,0.0,-0.25405648,0.30139956,0.0,0.0,0.0,0.0,0.0,0.0,0.0,0.0,2.460598,0.0,0.0,nan,0.0,0.0,0.090888366,-0.01134333,0.007897098,-0.00068606436,0.0,0.0,0.0,0.0,0.0
358034826,358033802,0.0,0.0,0.0,-0.25722227,0.3688784,0.0,0.0,0.0,0.0,0.0,0.0,0.0,0.0,2.3902955,0.0,0.0,nan,0.0,0.0,0.0838425,-0.01134333,0.007897098,-0.00068606436,0.0,0.0,0.0,0.0,0.0
358534076,358533113,0.0,0.0,0.0,-0.24134651,0.41372648,0.0,0.0,0.0,0.0,0.0,0.0,0.0,0.0,2.3103695,0.0,0.0,nan,0.0,0.0,0.10553862,-0.01134333,0.007897098,-0.00068606436,0.0,0.0,0.0,0.0,0.0
359033602,359032425,0.0,0.0,0.0,-0.18311638,0.44535923,0.0,0.0,0.0,0.0,0.0,0.0,0.0,0.0,2.3555403,0.0,0.0,nan,0.0,0.0,0.09722744,-0.01134333,0.007897098,-0.00068606436,0.0,0.0,0.0,0.0,0.0
359532673,359531736,0.0,0.0,0.0,-0.120167784,0.44156888,0.0,0.0,0.0,0.0,0.0,0.0,0.0,0.0,2.4550428,0.0,0.0,nan,0.0,0.0,0.13054802,-0.01134333,0.007897098,-0.00068606436,0.0,0.0,0.0,0.0,0.0
360032069,360031047,0.0,0.0,0.0,0.016666949,0.40139148,0.0,0.0,0.0,0.0,0.0,0.0,0.0,0.0,2.3632274,0.0,0.0,nan,0.0,0.0,0.1255849,-0.01134333,0.007897098,-0.00068606436,0.0,0.0,0.0,0.0,0.0
360531312,360530361,0.0,0.0,0.0,0.13038598,0.3609125,0.0,0.0,0.0,0.0,0.0,0.0,0.0,0.0,2.344933,0.0,0.0,nan,0.0,0.0,0.13222069,-0.01134333,0.007897098,-0.00068606436,0.0,0.0,0.0,0.0,0.0
361035734,361034663,0.0,0.0,0.0,0.24034965,0.30185482,0.0,0.0,0.0,0.0,0.0,0.0,0.0,0.0,2.3723464,0.0,0.0,nan,0.0,0.0,0.11257538,-0.01134333,0.007897098,-0.00068606436,0.0,0.0,0.0,0.0,0.0
361534992,361533975,0.0,0.0,0.0,0.3416051,0.14628352,0.0,0.0,0.0,0.0,0.0,0.0,0.0,0.0,2.1762028,0.0,0.0,nan,0.0,0.0,0.1252634,-0.01134333,0.007897098,-0.00068606436,0.0,0.0,0.0,0.0,0.0
362034169,362033286,0.0,0.0,0.0,0.40035722,0.030940237,0.0,0.0,0.0,0.0,0.0,0.0,0.0,0.0,2.5028605,0.0,0.0,nan,0.0,0.0,0.105440676,-0.01134333,0.007897098,-0.00068606436,0.0,0.0,0.0,0.0,0.0
362533797,362532599,0.0,0.0,0.0,0.47409675,-0.14794362,0.0,0.0,0.0,0.0,0.0,0.0,0.0,0.0,2.2621026,0.0,0.0,nan,0.0,0.0,0.07589492,-0.01134333,0.007897098,-0.00068606436,0.0,0.0,0.0,0.0,0.0
363037806,363036905,0.0,0.0,0.0,0.52635163,-0.28722364,0.0,0.0,0.0,0.0,0.0,0.0,0.0,0.0,2.310635,0.0,0.0,nan,0.0,0.0,0.090807974,-0.01134333,0.007897098,-0.00068606436,0.0,0.0,0.0,0.0,0.0
363538852,363536213,0.0,0.0,0.0,0.46833393,-0.424676,0.0,0.0,0.0,0.0,0.0,0.0,0.0,0.0,2.0687156,0.0,0.0,nan,0.0,0.0,0.0909048,0.0041784644,-0.004904732,-0.003895387,0.0,0.0,0.0,0.0,0.0
364036473,364035570,0.0,0.0,0.0,0.35452312,-0.63879424,0.0,0.0,0.0,0.0,0.0,0.0,0.0,0.0,2.3762503,0.0,0.0,nan,0.0,0.0,0.0909048,0.017384201,0.0061875433,0.0002092421,0.0,0.0,0.0,0.0,0.0
364537365,364534834,0.0,0.0,0.0,0.29362008,-0.666224,0.0,0.0,0.0,0.0,0.0,0.0,0.0,0.0,2.4124665,0.0,0.0,nan,0.0,0.0,0.0909048,0.026704818,0.02152194,-0.0022546947,0.0,0.0,0.0,0.0,0.0
365035097,365034146,0.0,0.0,0.0,0.2631753,-0.6793166,0.0,0.0,0.0,0.0,0.0,0.0,0.0,0.0,2.3472924,0.0,0.0,nan,0.0,0.0,0.0909048,0.026859611,0.022832558,0.007288322,0.0,0.0,0.0,0.0,0.0
365534393,365533457,0.0,0.0,0.0,-0.003614061,-0.6812112,0.0,0.0,0.0,0.0,0.0,0.0,0.0,0.0,2.296279,0.0,0.0,nan,0.0,0.0,0.0909048,0.02623079,0.037852913,0.005589828,0.0,0.0,0.0,0.0,0.0
366035369,366032767,0.0,0.0,0.0,-0.30168352,-0.5795351,0.0,0.0,0.0,0.0,0.0,0.0,0.0,0.0,2.2960248,0.0,0.0,nan,0.0,0.0,0.0909048,0.020340532,0.035467833,0.009809837,0.0,0.0,0.0,0.0,0.0
366532987,366532078,0.0,0.0,0.0,-0.5982106,-0.29457998,0.0,0.0,0.0,0.0,0.0,0.0,0.0,0.0,2.4698577,0.0,0.0,nan,0.0,0.0,0.0909048,0.023227304,0.045539156,0.023413181,0.0,0.0,0.0,0.0,0.0
367038916,367036382,0.0,0.0,0.0,-0.79200655,-0.012637955,0.0,0.0,0.0,0.0,0.0,0.0,0.0,0.0,2.0413017,0.0,0.0,nan,0.0,0.0,0.0909048,0.013454864,0.044493273,-0.0016286224,0.0,0.0,0.0,0.0,0.0
368535166,368534328,0.0,0.0,0.0,-1.4053035,0.8743959,0.0,0.0,0.0,0.0,0.0,0.0,0.0,0.0,2.1020842,0.0,0.0,nan,0.0,0.0,0.0909048,0.011176966,0.01703544,-0.006291881,0.0,0.0,0.0,0.0,0.0
369036392,369033625,0.0,0.0,0.0,-1.5562042,1.0540454,0.0,0.0,0.0,0.0,0.0,0.0,0.0,0.0,1.9698,0.0,0.0,nan,0.0,0.0,0.0909048,0.005484611,0.0103826225,0.004744634,0.0,0.0,0.0,0.0,0.0
369533875,369532936,0.0,0.0,0.0,-1.620636,1.2490083,0.0,0.0,0.0,0.0,0.0,0.0,0.0,0.0,1.984364,0.0,0.0,nan,0.0,0.0,0.0909048,0.020316109,0.010984167,0.01677841,0.0,0.0,0.0,0.0,0.0
370033132,370032249,0.0,0.0,0.0,-1.6532841,1.3841072,0.0,0.0,0.0,0.0,0.0,0.0,0.0,0.0,2.052731,0.0,0.0,nan,0.0,0.0,0.0909048,-0.0040115863,-0.028474227,0.031987503,0.0,0.0,0.0,0.0,0.0
370537493,370536548,0.0,0.0,0.0,-1.669288,1.4389055,0.0,0.0,0.0,0.0,0.0,0.0,0.0,0.0,2.2366524,0.0,0.0,nan,0.0,0.0,0.0909048,0.0041356236,-0.050070688,0.048644528,0.0,0.0,0.0,0.0,0.0
371036949,371035858,0.0,0.0,0.0,-1.6554023,1.4256382,0.0,0.0,0.0,0.0,0.0,0.0,0.0,0.0,2.0173578,0.0,0.0,nan,0.0,0.0,-0.10140538,0.000840649,-0.055157498,0.017677277,0.0,0.0,0.0,0.0,0.0
371536269,371535169,0.0,0.0,0.0,-1.6290729,1.5363117,0.0,0.0,0.0,0.0,0.0,0.0,0.0,0.0,2.158483,0.0,0.0,nan,0.0,0.0,-0.112740755,0.000840649,-0.055157498,0.017677277,0.0,0.0,0.0,0.0,0.0
372035408,372034479,0.0,0.0,0.0,-1.574327,1.6241976,0.0,0.0,0.0,0.0,0.0,0.0,0.0,0.0,2.1658769,0.0,0.0,nan,0.0,0.0,-0.18865371,0.000840649,-0.055157498,0.017677277,0.0,0.0,0.0,0.0,0.0
372534814,372533791,0.0,0.0,0.0,-1.4976147,1.7209116,0.0,0.0,0.0,0.0,0.0,0.0,0.0,0.0,2.3093367,0.0,0.0,nan,0.0,0.0,-0.24074852,0.000840649,-0.055157498,0.017677277,0.0,0.0,0.0,0.0,0.0
373034033,373033099,0.0,0.0,0.0,-1.3334317,1.8443174,0.0,0.0,0.0,0.0,0.0,0.0,0.0,0.0,2.3714867,0.0,0.0,nan,0.0,0.0,-0.29088032,0.000840649,-0.055157498,0.017677277,0.0,0.0,0.0,0.0,0.0
373533571,373532409,0.0,0.0,0.0,-1.190826,1.914358,0.0,0.0,0.0,0.0,0.0,0.0,0.0,0.0,2.1849737,0.0,0.0,nan,0.0,0.0,-0.18814313,0.000840649,-0.055157498,0.017677277,0.0,0.0,0.0,0.0,0.0
374032567,374031719,0.0,0.0,0.0,-1.0061661,1.9481081,0.0,0.0,0.0,0.0,0.0,0.0,0.0,0.0,2.3716502,0.0,0.0,nan,0.0,0.0,-0.27182686,0.000840649,-0.055157498,0.017677277,0.0,0.0,0.0,0.0,0.0
374532093,374531029,0.0,0.0,0.0,-0.70227134,1.9966682,0.0,0.0,0.0,0.0,0.0,0.0,0.0,0.0,2.5248294,0.0,0.0,nan,0.0,0.0,-0.17186034,0.000840649,-0.055157498,0.017677277,0.0,0.0,0.0,0.0,0.0
375036179,375035333,0.0,0.0,0.0,-0.5038594,2.0223591,0.0,0.0,0.0,0.0,0.0,0.0,0.0,0.0,2.508359,0.0,0.0,nan,0.0,0.0,-0.14898431,0.000840649,-0.055157498,0.017677277,0.0,0.0,0.0,0.0,0.0
375535802,375534706,0.0,0.0,0.0,-0.18875694,2.1177351,0.0,0.0,0.0,0.0,0.0,0.0,0.0,0.0,2.6108556,0.0,0.0,nan,0.0,0.0,-0.10730398,0.000840649,-0.055157498,0.017677277,0.0,0.0,0.0,0.0,0.0
376034898,376033950,0.0,0.0,0.0,0.006959154,2.2043834,0.0,0.0,0.0,0.0,0.0,0.0,0.0,0.0,2.641819,0.0,0.0,nan,0.0,0.0,0.015619516,0.000840649,-0.055157498,0.017677277,0.0,0.0,0.0,0.0,0.0
376534208,376533260,0.0,0.0,0.0,0.19124876,2.2970169,0.0,0.0,0.0,0.0,0.0,0.0,0.0,0.0,2.6325917,0.0,0.0,nan,0.0,0.0,-0.086575866,0.000840649,-0.055157498,0.017677277,0.0,0.0,0.0,0.0,0.0
377033628,377032569,0.0,0.0,0.0,0.47640723,2.4349964,0.0,0.0,0.0,0.0,0.0,0.0,0.0,0.0,2.445211,0.0,0.0,nan,0.0,0.0,-0.10391939,0.000840649,-0.055157498,0.017677277,0.0,0.0,0.0,0.0,0.0
378032408,378031186,0.0,0.0,0.0,1.0075456,2.5894039,0.0,0.0,0.0,0.0,0.0,0.0,0.0,0.0,2.562871,0.0,0.0,nan,0.0,0.0,-0.17101693,0.000840649,-0.055157498,0.017677277,0.0,0.0,0.0,0.0,0.0
378531368,378530497,0.0,0.0,0.0,1.1824393,2.600115,0.0,0.0,0.0,0.0,0.0,0.0,0.0,0.0,2.5721064,0.0,0.0,nan,0.0,0.0,-0.111934066,0.000840649,-0.055157498,0.017677277,0.0,0.0,0.0,0.0,0.0
379035868,379034844,0.0,0.0,0.0,1.3124135,2.5714958,0.0,0.0,0.0,0.0,0.0,0.0,0.0,0.0,2.4548354,0.0,0.0,nan,0.0,0.0,-0.06956446,0.000840649,-0.055157498,0.017677277,0.0,0.0,0.0,0.0,0.0
380034513,380033417,0.0,0.0,0.0,1.6014026,2.3445594,0.0,0.0,0.0,0.0,0.0,0.0,0.0,0.0,2.4776287,0.0,0.0,nan,0.0,0.0,-0.007850766,0.000840649,-0.055157498,0.017677277,0.0,0.0,0.0,0.0,0.0
380533766,380532726,0.0,0.0,0.0,1.6543701,2.2452865,0.0,0.0,0.0,0.0,0.0,0.0,0.0,0.0,2.5835896,0.0,0.0,nan,0.0,0.0,-0.06764674,0.000840649,-0.055157498,0.017677277,0.0,0.0,0.0,0.0,0.0
381032926,381032035,0.0,0.0,0.0,1.6824443,2.1193707,0.0,0.0,0.0,0.0,0.0,0.0,0.0,0.0,2.5374541,0.0,0.0,nan,0.0,0.0,-0.084569216,0.000840649,-0.055157498,0.017677277,0.0,0.0,0.0,0.0,0.0
381532420,381531344,0.0,0.0,0.0,1.7070936,2.0316741,0.0,0.0,0.0,0.0,0.0,0.0,0.0,0.0,2.3721275,0.0,0.0,nan,0.0,0.0,-0.10717654,0.000840649,-0.055157498,0.017677277,0.0,0.0,0.0,0.0,0.0
382031514,382030657,0.0,0.0,0.0,1.7471774,1.9046366,0.0,0.0,0.0,0.0,0.0,0.0,0.0,0.0,2.5265975,0.0,0.0,nan,0.0,0.0,-0.12472403,0.000840649,-0.055157498,0.017677277,0.0,0.0,0.0,0.0,0.0
382536014,382534954,0.0,0.0,0.0,1.7620932,1.8312147,0.0,0.0,0.0,0.0,0.0,0.0,0.0,0.0,2.4668183,0.0,0.0,nan,0.0,0.0,-0.14795947,0.000840649,-0.055157498,0.017677277,0.0,0.0,0.0,0.0,0.0
383035185,383034263,0.0,0.0,0.0,1.781838,1.7723439,0.0,0.0,0.0,0.0,0.0,0.0,0.0,0.0,2.435811,0.0,0.0,nan,0.0,0.0,-0.117476106,0.000840649,-0.055157498,0.017677277,0.0,0.0,0.0,0.0,0.0
383534534,383533571,0.0,0.0,0.0,1.7891423,1.6949672,0.0,0.0,0.0,0.0,0.0,0.0,0.0,0.0,2.4866858,0.0,0.0,nan,0.0,0.0,-0.17825603,0.000840649,-0.055157498,0.017677277,0.0,0.0,0.0,0.0,0.0
384033802,384032880,0.0,0.0,0.0,1.731152,1.6406949,0.0,0.0,0.0,0.0,0.0,0.0,0.0,0.0,2.3546,0.0,0.0,nan,0.0,0.0,-0.14183986,0.000840649,-0.055157498,0.017677277,0.0,0.0,0.0,0.0,0.0
384533280,384532188,0.0,0.0,0.0,1.5715307,1.6149485,0.0,0.0,0.0,0.0,0.0,0.0,0.0,0.0,2.3225641,0.0,0.0,nan,0.0,0.0,-0.060311913,0.000840649,-0.055157498,0.017677277,0.0,0.0,0.0,0.0,0.0
385032448,385031496,0.0,0.0,0.0,1.465281,1.6065193,0.0,0.0,0.0,0.0,0.0,0.0,0.0,0.0,2.4575052,0.0,0.0,nan,0.0,0.0,-0.025745988,0.000840649,-0.055157498,0.017677277,0.0,0.0,0.0,0.0,0.0
385531739,385530805,0.0,0.0,0.0,1.3681102,1.5876794,0.0,0.0,0.0,0.0,0.0,0.0,0.0,0.0,2.3938227,0.0,0.0,nan,0.0,0.0,0.054389477,0.000840649,-0.055157498,0.017677277,0.0,0.0,0.0,0.0,0.0
386035935,386035106,0.0,0.0,0.0,1.3001375,1.5435599,0.0,0.0,0.0,0.0,0.0,0.0,0.0,0.0,2.4662933,0.0,0.0,nan,0.0,0.0,0.020567894,0.000840649,-0.055157498,0.017677277,0.0,0.0,0.0,0.0,0.0
386535361,386534414,0.0,0.0,0.0,1.2729839,1.4991546,0.0,0.0,0.0,0.0,0.0,0.0,0.0,0.0,2.2573833,0.0,0.0,nan,0.0,0.0,0.05844021,0.000840649,-0.055157498,0.017677277,0.0,0.0,0.0,0.0,0.0
387034928,387033722,0.0,0.0,0.0,1.1898142,1.4108557,0.0,0.0,0.0,0.0,0.0,0.0,0.0,0.0,2.422204,0.0,0.0,nan,0.0,0.0,-0.039904356,0.000840649,-0.055157498,0.017677277,0.0,0.0,0.0,0.0,0.0
387533865,387533030,0.0,0.0,0.0,1.108978,1.3096671,0.0,0.0,0.0,0.0,0.0,0.0,0.0,0.0,2.3624558,0.0,0.0,nan,0.0,0.0,0.022701502,0.000840649,-0.055157498,0.017677277,0.0,0.0,0.0,0.0,0.0
388033474,388032338,0.0,0.0,0.0,1.049264,1.1721187,0.0,0.0,0.0,0.0,0.0,0.0,0.0,0.0,2.2169824,0.0,0.0,nan,0.0,0.0,-0.10509312,0.000840649,-0.055157498,0.017677277,0.0,0.0,0.0,0.0,0.0
388532590,388531651,0.0,0.0,0.0,0.9533732,0.91591287,0.0,0.0,0.0,0.0,0.0,0.0,0.0,0.0,2.1458025,0.0,0.0,nan,0.0,0.0,-0.14653969,0.000840649,-0.055157498,0.017677277,0.0,0.0,0.0,0.0,0.0
389031937,389030955,0.0,0.0,0.0,0.8700929,0.71669763,0.0,0.0,0.0,0.0,0.0,0.0,0.0,0.0,2.1627092,0.0,0.0,nan,0.0,0.0,-0.21496916,0.000840649,-0.055157498,0.017677277,0.0,0.0,0.0,0.0,0.0
389531274,389530267,0.0,0.0,0.0,0.79022294,0.5038629,0.0,0.0,0.0,0.0,0.0,0.0,0.0,0.0,2.409615,0.0,0.0,nan,0.0,0.0,-0.14310503,0.000840649,-0.055157498,0.017677277,0.0,0.0,0.0,0.0,0.0
390035610,390034562,0.0,0.0,0.0,0.6786217,0.21242145,0.0,0.0,0.0,0.0,0.0,0.0,0.0,0.0,2.208466,0.0,0.0,nan,0.0,0.0,-0.07514167,0.000840649,-0.055157498,0.017677277,0.0,0.0,0.0,0.0,0.0
390534710,390533871,0.0,0.0,0.0,0.5996047,0.021661796,0.0,0.0,0.0,0.0,0.0,0.0,0.0,0.0,2.350441,0.0,0.0,nan,0.0,0.0,-0.019025087,0.000840649,-0.055157498,0.017677277,0.0,0.0,0.0,0.0,0.0
391034130,391033177,0.0,0.0,0.0,0.47604784,-0.22271219,0.0,0.0,0.0,0.0,0.0,0.0,0.0,0.0,2.2153988,0.0,0.0,nan,0.0,0.0,-0.0009710789,0.000840649,-0.055157498,0.017677277,0.0,0.0,0.0,0.0,0.0
391533516,391532498,0.0,0.0,0.0,0.41109422,-0.33658114,0.0,0.0,0.0,0.0,0.0,0.0,0.0,0.0,2.1876736,0.0,0.0,nan,0.0,0.0,0.003004074,0.000840649,-0.055157498,0.017677277,0.0,0.0,0.0,0.0,0.0
392032632,392031791,0.0,0.0,0.0,0.349499,-0.41127938,0.0,0.0,0.0,0.0,0.0,0.0,0.0,0.0,2.1673336,0.0,0.0,nan,0.0,0.0,0.04023254,0.000840649,-0.055157498,0.017677277,0.0,0.0,0.0,0.0,0.0
392532221,392531098,0.0,0.0,0.0,0.2733047,-0.42748085,0.0,0.0,0.0,0.0,0.0,0.0,0.0,0.0,2.0008144,0.0,0.0,nan,0.0,0.0,0.040830374,0.000840649,-0.055157498,0.017677277,0.0,0.0,0.0,0.0,0.0
393036225,393035400,0.0,0.0,0.0,0.2218167,-0.40759403,0.0,0.0,0.0,0.0,0.0,0.0,0.0,0.0,2.1498075,0.0,0.0,nan,0.0,0.0,0.10350132,0.000840649,-0.055157498,0.017677277,0.0,0.0,0.0,0.0,0.0
393535787,393534706,0.0,0.0,0.0,0.14081329,-0.3661394,0.0,0.0,0.0,0.0,0.0,0.0,0.0,0.0,2.2188015,0.0,0.0,nan,0.0,0.0,0.17462361,0.000840649,-0.055157498,0.017677277,0.0,0.0,0.0,0.0,0.0
394034898,394034013,0.0,0.0,0.0,0.0705426,-0.34047642,0.0,0.0,0.0,0.0,0.0,0.0,0.0,0.0,2.4114995,0.0,0.0,nan,0.0,0.0,0.1838386,0.000840649,-0.055157498,0.017677277,0.0,0.0,0.0,0.0,0.0
394534539,394533320,0.0,0.0,0.0,-0.025697134,-0.30806118,0.0,0.0,0.0,0.0,0.0,0.0,0.0,0.0,2.2871475,0.0,0.0,nan,0.0,0.0,0.24251819,0.000840649,-0.055157498,0.017677277,0.0,0.0,0.0,0.0,0.0
395033566,395032633,0.0,0.0,0.0,-0.18399048,-0.26325834,0.0,0.0,0.0,0.0,0.0,0.0,0.0,0.0,2.3282413,0.0,0.0,nan,0.0,0.0,0.34107876,0.000840649,-0.055157498,0.017677277,0.0,0.0,0.0,0.0,0.0
395532813,395531933,0.0,0.0,0.0,-0.31164846,-0.20137398,0.0,0.0,0.0,0.0,0.0,0.0,0.0,0.0,2.5614533,0.0,0.0,nan,0.0,0.0,0.3038255,0.000840649,-0.055157498,0.017677277,0.0,0.0,0.0,0.0,0.0
396032261,396031244,0.0,0.0,0.0,-0.44123337,-0.12663776,0.0,0.0,0.0,0.0,0.0,0.0,0.0,0.0,2.4244337,0.0,0.0,nan,0.0,0.0,0.34999216,0.000840649,-0.055157498,0.017677277,0.0,0.0,0.0,0.0,0.0
396536412,396535539,0.0,0.0,0.0,-0.5937687,-0.03921563,0.0,0.0,0.0,0.0,0.0,0.0,0.0,0.0,2.50483,0.0,0.0,nan,0.0,0.0,0.27186942,0.000840649,-0.055157498,0.017677277,0.0,0.0,0.0,0.0,0.0
397035930,397034847,0.0,0.0,0.0,-0.66337997,-0.0040517417,0.0,0.0,0.0,0.0,0.0,0.0,0.0,0.0,2.690804,0.0,0.0,nan,0.0,0.0,0.3352884,0.000840649,-0.055157498,0.017677277,0.0,0.0,0.0,0.0,0.0
397535099,397534153,0.0,0.0,0.0,-0.74548805,-0.04174562,0.0,0.0,0.0,0.0,0.0,0.0,0.0,0.0,2.7833014,0.0,0.0,nan,0.0,0.0,0.22930944,0.000840649,-0.055157498,0.017677277,0.0,0.0,0.0,0.0,0.0
398034478,398033465,0.0,0.0,0.0,-0.7904459,-0.13001144,0.0,0.0,0.0,0.0,0.0,0.0,0.0,0.0,2.5731382,0.0,0.0,nan,0.0,0.0,0.20263398,0.000840649,-0.055157498,0.017677277,0.0,0.0,0.0,0.0,0.0
398533661,398532769,0.0,0.0,0.0,-0.8297232,-0.25542971,0.0,0.0,0.0,0.0,0.0,0.0,0.0,0.0,2.8525448,0.0,0.0,nan,0.0,0.0,0.09951937,0.000840649,-0.055157498,0.017677277,0.0,0.0,0.0,0.0,0.0
399033201,399032071,0.0,0.0,0.0,-0.86885303,-0.494434,0.0,0.0,0.0,0.0,0.0,0.0,0.0,0.0,2.7388582,0.0,0.0,nan,0.0,0.0,0.058335304,0.000840649,-0.055157498,0.017677277,0.0,0.0,0.0,0.0,0.0
399532259,399531377,0.0,0.0,0.0,-0.8850316,-0.6818602,0.0,0.0,0.0,0.0,0.0,0.0,0.0,0.0,2.69668,0.0,0.0,nan,0.0,0.0,-0.061844826,0.000840649,-0.055157498,0.017677277,0.0,0.0,0.0,0.0,0.0
400031560,400030684,0.0,0.0,0.0,-0.8896434,-0.96494395,0.0,0.0,0.0,0.0,0.0,0.0,0.0,0.0,2.7296052,0.0,0.0,nan,0.0,0.0,-0.16223788,0.000840649,-0.055157498,0.017677277,0.0,0.0,0.0,0.0,0.0
400536003,400535037,0.0,0.0,0.0,-0.8838282,-1.1236771,0.0,0.0,0.0,0.0,0.0,0.0,0.0,0.0,2.4787393,0.0,0.0,nan,0.0,0.0,-0.12050009,0.000840649,-0.055157498,0.017677277,0.0,0.0,0.0,0.0,0.0
401035140,401034291,0.0,0.0,0.0,-0.8883868,-1.2435025,0.0,0.0,0.0,0.0,0.0,0.0,0.0,0.0,2.6212053,0.0,0.0,nan,0.0,0.0,-0.12867558,0.000840649,-0.055157498,0.017677277,0.0,0.0,0.0,0.0,0.0
401534672,401533602,0.0,0.0,0.0,-0.9928641,-1.3335227,0.0,0.0,0.0,0.0,0.0,0.0,0.0,0.0,2.6428003,0.0,0.0,nan,0.0,0.0,0.0020984411,0.000840649,-0.055157498,0.017677277,0.0,0.0,0.0,0.0,0.0
402033836,402032900,0.0,0.0,0.0,-1.1354865,-1.3274552,0.0,0.0,0.0,0.0,0.0,0.0,0.0,0.0,2.3960524,0.0,0.0,nan,0.0,0.0,0.083902,0.000840649,-0.055157498,0.017677277,0.0,0.0,0.0,0.0,0.0
402533304,402532205,0.0,0.0,0.0,-1.3115292,-1.2988914,0.0,0.0,0.0,0.0,0.0,0.0,0.0,0.0,2.4857569,0.0,0.0,nan,0.0,0.0,0.16781735,0.000840649,-0.055157498,0.017677277,0.0,0.0,0.0,0.0,0.0
403032437,403031516,0.0,0.0,0.0,-1.3829638,-1.2915881,0.0,0.0,0.0,0.0,0.0,0.0,0.0,0.0,2.5605826,0.0,0.0,nan,0.0,0.0,0.18163383,0.000840649,-0.055157498,0.017677277,0.0,0.0,0.0,0.0,0.0
403531961,403530820,0.0,0.0,0.0,-1.4087698,-1.292831,0.0,0.0,0.0,0.0,0.0,0.0,0.0,0.0,2.4325266,0.0,0.0,nan,0.0,0.0,0.18694866,0.000840649,-0.055157498,0.017677277,0.0,0.0,0.0,0.0,0.0
404036051,404035115,0.0,0.0,0.0,-1.3918464,-1.312921,0.0,0.0,0.0,0.0,0.0,0.0,0.0,0.0,2.3997927,0.0,0.0,nan,0.0,0.0,0.12789929,0.000840649,-0.055157498,0.017677277,0.0,0.0,0.0,0.0,0.0
404535501,404534421,0.0,0.0,0.0,-1.3593241,-1.3142362,0.0,0.0,0.0,0.0,0.0,0.0,0.0,0.0,2.44455,0.0,0.0,nan,0.0,0.0,0.09839487,0.000840649,-0.055157498,0.017677277,0.0,0.0,0.0,0.0,0.0
405034560,405033726,0.0,0.0,0.0,-1.3049088,-1.2914913,0.0,0.0,0.0,0.0,0.0,0.0,0.0,0.0,2.303835,0.0,0.0,nan,0.0,0.0,-0.028192401,0.000840649,-0.055157498,0.017677277,0.0,0.0,0.0,0.0,0.0
405534095,405533032,0.0,0.0,0.0,-1.200172,-1.2430992,0.0,0.0,0.0,0.0,0.0,0.0,0.0,0.0,2.3814535,0.0,0.0,nan,0.0,0.0,-0.03934121,0.000840649,-0.055157498,0.017677277,0.0,0.0,0.0,0.0,0.0
406033418,406032336,0.0,0.0,0.0,-1.1290265,-1.2108706,0.0,0.0,0.0,0.0,0.0,0.0,0.0,0.0,2.2708898,0.0,0.0,nan,0.0,0.0,0.06732285,0.000840649,-0.055157498,0.017677277,0.0,0.0,0.0,0.0,0.0
406532474,406531641,0.0,0.0,0.0,-1.0455096,-1.1243767,0.0,0.0,0.0,0.0,0.0,0.0,0.0,0.0,2.314371,0.0,0.0,nan,0.0,0.0,0.07873213,0.000840649,-0.055157498,0.017677277,0.0,0.0,0.0,0.0,0.0
407033599,407030949,0.0,0.0,0.0,-1.0073152,-1.0293556,0.0,0.0,0.0,0.0,0.0,0.0,0.0,0.0,2.1354733,0.0,0.0,nan,0.0,0.0,0.15226865,0.027303934,0.035303026,0.029683009,0.0,0.0,0.0,0.0,0.0
407531202,407530260,0.0,0.0,0.0,-1.0985991,-0.44129375,0.0,0.0,0.0,0.0,0.0,0.0,0.0,0.0,2.4335442,0.0,0.0,nan,0.0,0.0,0.15226865,0.011545464,0.022148564,-0.00049100816,0.0,0.0,0.0,0.0,0.0
408037094,408034550,0.0,0.0,0.0,-1.235679,0.100701354,0.0,0.0,0.0,0.0,0.0,0.0,0.0,0.0,2.1810126,0.0,0.0,nan,0.0,0.0,0.15226865,-0.009579673,0.004534915,-0.017661408,0.0,0.0,0.0,0.0,0.0
408534819,408533853,0.0,0.0,0.0,-1.3294017,0.26678416,0.0,0.0,0.0,0.0,0.0,0.0,0.0,0.0,2.379703,0.0,0.0,nan,0.0,0.0,0.15226865,0.0005352497,0.013828233,-0.01443015,0.0,0.0,0.0,0.0,0.0
409035941,409033158,0.0,0.0,0.0,-1.5195662,0.49426866,0.0,0.0,0.0,0.0,0.0,0.0,0.0,0.0,2.113628,0.0,0.0,nan,0.0,0.0,0.15226865,-0.014028668,-0.0038792863,-0.0288724,0.0,0.0,0.0,0.0,0.0
410032699,410031767,0.0,0.0,0.0,-1.7851778,0.46914884,0.0,0.0,0.0,0.0,0.0,0.0,0.0,0.0,2.2701774,0.0,0.0,nan,0.0,0.0,0.15226865,-0.01939094,-0.044047605,-0.043470517,0.0,0.0,0.0,0.0,0.0
410533617,410531074,0.0,0.0,0.0,-1.9475112,0.3744947,0.0,0.0,0.0,0.0,0.0,0.0,0.0,0.0,2.1955328,0.0,0.0,nan,0.0,0.0,0.15226865,0.0060608983,-0.052389868,-0.04954791,0.0,0.0,0.0,0.0,0.0
411031240,411030375,0.0,0.0,0.0,-1.9910495,0.34989524,0.0,0.0,0.0,0.0,0.0,0.0,0.0,0.0,2.248612,0.0,0.0,nan,0.0,0.0,0.15226865,0.02802667,-0.06390329,-0.036831766,0.0,0.0,0.0,0.0,0.0
411537519,411534673,0.0,0.0,0.0,-1.8906798,0.20357285,0.0,0.0,0.0,0.0,0.0,0.0,0.0,0.0,2.1047578,0.0,0.0,nan,0.0,0.0,0.15226865,0.041170657,-0.05101334,-0.040054545,0.0,0.0,0.0,0.0,0.0
412034976,412033976,0.0,0.0,0.0,-1.8283248,0.11000886,0.0,0.0,0.0,0.0,0.0,0.0,0.0,0.0,2.5230174,0.0,0.0,nan,0.0,0.0,0.15226865,0.05009547,-0.033797957,-0.040531725,0.0,0.0,0.0,0.0,0.0
413033528,413032585,0.0,0.0,0.0,-1.402635,-0.05654944,0.0,0.0,0.0,0.0,0.0,0.0,0.0,0.0,2.374443,0.0,0.0,nan,0.0,0.0,0.15226865,0.0562644,-0.007305175,-0.019200414,0.0,0.0,0.0,0.0,0.0
413532994,413531889,0.0,0.0,0.0,-1.3236908,-0.017200364,0.0,0.0,0.0,0.0,0.0,0.0,0.0,0.0,2.3185353,0.0,0.0,nan,0.0,0.0,0.013474226,0.05225584,0.005250588,-0.011018217,0.0,0.0,0.0,0.0,0.0
414032138,414031192,0.0,0.0,0.0,-1.3008139,0.05278458,0.0,0.0,0.0,0.0,0.0,0.0,0.0,0.0,2.3474474,0.0,0.0,nan,0.0,0.0,0.102236986,0.05225584,0.005250588,-0.011018217,0.0,0.0,0.0,0.0,0.0
414531395,414530537,0.0,0.0,0.0,-1.240055,0.06476567,0.0,0.0,0.0,0.0,0.0,0.0,0.0,0.0,2.5248246,0.0,0.0,nan,0.0,0.0,0.21633005,0.05225584,0.005250588,-0.011018217,0.0,0.0,0.0,0.0,0.0
415035890,415034799,0.0,0.0,0.0,-1.183946,-0.0369783,0.0,0.0,0.0,0.0,0.0,0.0,0.0,0.0,2.073512,0.0,0.0,nan,0.0,0.0,0.2428925,0.05225584,0.005250588,-0.011018217,0.0,0.0,0.0,0.0,0.0
415535160,415534096,0.0,0.0,0.0,-1.1677027,-0.29785404,0.0,0.0,0.0,0.0,0.0,0.0,0.0,0.0,2.382173,0.0,0.0,nan,0.0,0.0,0.15817523,0.05225584,0.005250588,-0.011018217,0.0,0.0,0.0,0.0,0.0
416533760,416532703,0.0,0.0,0.0,-1.2283269,-0.68622404,0.0,0.0,0.0,0.0,0.0,0.0,0.0,0.0,2.2746058,0.0,0.0,nan,0.0,0.0,0.10399079,0.05225584,0.005250588,-0.011018217,0.0,0.0,0.0,0.0,0.0
417033077,417032006,0.0,0.0,0.0,-1.247216,-0.9453791,0.0,0.0,0.0,0.0,0.0,0.0,0.0,0.0,2.2164192,0.0,0.0,nan,0.0,0.0,0.051806927,0.05225584,0.005250588,-0.011018217,0.0,0.0,0.0,0.0,0.0
417532206,417531310,0.0,0.0,0.0,-1.2262946,-1.060534,0.0,0.0,0.0,0.0,0.0,0.0,0.0,0.0,2.144433,0.0,0.0,nan,0.0,0.0,-0.112908125,0.05225584,0.005250588,-0.011018217,0.0,0.0,0.0,0.0,0.0
418031825,418030628,0.0,0.0,0.0,-1.1592258,-1.1397918,0.0,0.0,0.0,0.0,0.0,0.0,0.0,0.0,2.0726156,0.0,0.0,nan,0.0,0.0,-0.21268058,0.05225584,0.005250588,-0.011018217,0.0,0.0,0.0,0.0,0.0
418535742,418534908,0.0,0.0,0.0,-1.0836701,-1.1860113,0.0,0.0,0.0,0.0,0.0,0.0,0.0,0.0,2.194354,0.0,0.0,nan,0.0,0.0,-0.15386558,0.05225584,0.005250588,-0.011018217,0.0,0.0,0.0,0.0,0.0
419035297,419034214,0.0,0.0,0.0,-0.98336166,-1.2412729,0.0,0.0,0.0,0.0,0.0,0.0,0.0,0.0,2.3208632,0.0,0.0,nan,0.0,0.0,-0.08263087,0.05225584,0.005250588,-0.011018217,0.0,0.0,0.0,0.0,0.0
419534531,419533515,0.0,0.0,0.0,-0.8226512,-1.3801538,0.0,0.0,0.0,0.0,0.0,0.0,0.0,0.0,2.2414184,0.0,0.0,nan,0.0,0.0,-0.041651964,0.05225584,0.005250588,-0.011018217,0.0,0.0,0.0,0.0,0.0
420033695,420032815,0.0,0.0,0.0,-0.68972635,-1.4993423,0.0,0.0,0.0,0.0,0.0,0.0,0.0,0.0,2.1574044,0.0,0.0,nan,0.0,0.0,-0.061959505,0.05225584,0.005250588,-0.011018217,0.0,0.0,0.0,0.0,0.0
420533194,420532120,0.0,0.0,0.0,-0.567874,-1.6097841,0.0,0.0,0.0,0.0,0.0,0.0,0.0,0.0,2.2671542,0.0,0.0,nan,0.0,0.0,-0.106405735,0.05225584,0.005250588,-0.011018217,0.0,0.0,0.0,0.0,0.0
421032441,421031423,0.0,0.0,0.0,-0.39795047,-1.7745712,0.0,0.0,0.0,0.0,0.0,0.0,0.0,0.0,2.3016386,0.0,0.0,nan,0.0,0.0,-0.22318506,0.05225584,0.005250588,-0.011018217,0.0,0.0,0.0,0.0,0.0
421536741,421535719,0.0,0.0,0.0,-0.27531603,-1.8461864,0.0,0.0,0.0,0.0,0.0,0.0,0.0,0.0,2.1174512,0.0,0.0,nan,0.0,0.0,-0.26015997,0.05225584,0.005250588,-0.011018217,0.0,0.0,0.0,0.0,0.0
422035923,422035022,0.0,0.0,0.0,-0.06196564,-1.9257761,0.0,0.0,0.0,0.0,0.0,0.0,0.0,0.0,2.114861,0.0,0.0,nan,0.0,0.0,-0.24626732,0.05225584,0.005250588,-0.011018217,0.0,0.0,0.0,0.0,0.0
422535463,422534324,0.0,0.0,0.0,0.086105265,-1.9791073,0.0,0.0,0.0,0.0,0.0,0.0,0.0,0.0,1.9821353,0.0,0.0,nan,0.0,0.0,-0.17032647,0.05225584,0.005250588,-0.011018217,0.0,0.0,0.0,0.0,0.0
423034471,423033626,0.0,0.0,0.0,0.25056455,-2.0317283,0.0,0.0,0.0,0.0,0.0,0.0,0.0,0.0,2.160356,0.0,0.0,nan,0.0,0.0,-0.33175325,0.05225584,0.005250588,-0.011018217,0.0,0.0,0.0,0.0,0.0
423534096,423532929,0.0,0.0,0.0,0.49192372,-2.0430903,0.0,0.0,0.0,0.0,0.0,0.0,0.0,0.0,2.1124887,0.0,0.0,nan,0.0,0.0,-0.58703566,0.05225584,0.005250588,-0.011018217,0.0,0.0,0.0,0.0,0.0
424033241,424032231,0.0,0.0,0.0,0.65144455,-2.0057867,0.0,0.0,0.0,0.0,0.0,0.0,0.0,0.0,2.2744598,0.0,0.0,nan,0.0,0.0,-0.65582514,0.05225584,0.005250588,-0.011018217,0.0,0.0,0.0,0.0,0.0
424532403,424531533,0.0,0.0,0.0,0.92182744,-1.8794689,0.0,0.0,0.0,0.0,0.0,0.0,0.0,0.0,2.2039385,0.0,0.0,nan,0.0,0.0,-0.5885639,0.05225584,0.005250588,-0.011018217,0.0,0.0,0.0,0.0,0.0
425036845,425035828,0.0,0.0,0.0,1.1282859,-1.7104353,0.0,0.0,0.0,0.0,0.0,0.0,0.0,0.0,2.130683,0.0,0.0,nan,0.0,0.0,-0.509006,0.05225584,0.005250588,-0.011018217,0.0,0.0,0.0,0.0,0.0
425536267,425535129,0.0,0.0,0.0,1.3047783,-1.5587325,0.0,0.0,0.0,0.0,0.0,0.0,0.0,0.0,2.0569243,0.0,0.0,nan,0.0,0.0,-0.43486118,0.05225584,0.005250588,-0.011018217,0.0,0.0,0.0,0.0,0.0
426035523,426034432,0.0,0.0,0.0,1.5226494,-1.3661463,0.0,0.0,0.0,0.0,0.0,0.0,0.0,0.0,2.0789738,0.0,0.0,nan,0.0,0.0,-0.3410344,0.05225584,0.005250588,-0.011018217,0.0,0.0,0.0,0.0,0.0
426534617,426533735,0.0,0.0,0.0,1.6270355,-1.3164835,0.0,0.0,0.0,0.0,0.0,0.0,0.0,0.0,1.9507518,0.0,0.0,nan,0.0,0.0,-0.34077692,0.05225584,0.005250588,-0.011018217,0.0,0.0,0.0,0.0,0.0
427034338,427033035,0.0,0.0,0.0,1.7817234,-1.2912558,0.0,0.0,0.0,0.0,0.0,0.0,0.0,0.0,2.0420923,0.0,0.0,nan,0.0,0.0,-0.23274517,0.05225584,0.005250588,-0.011018217,0.0,0.0,0.0,0.0,0.0
427533262,427532344,0.0,0.0,0.0,1.8296552,-1.3012167,0.0,0.0,0.0,0.0,0.0,0.0,0.0,0.0,1.6771059,0.0,0.0,nan,0.0,0.0,-0.14172268,0.05225584,0.005250588,-0.011018217,0.0,0.0,0.0,0.0,0.0
428032791,428031638,0.0,0.0,0.0,1.8292834,-1.3403662,0.0,0.0,0.0,0.0,0.0,0.0,0.0,0.0,1.840548,0.0,0.0,nan,0.0,0.0,-0.029761791,0.05225584,0.005250588,-0.011018217,0.0,0.0,0.0,0.0,0.0
428531856,428530940,0.0,0.0,0.0,1.7566594,-1.3652555,0.0,0.0,0.0,0.0,0.0,0.0,0.0,0.0,1.7886095,0.0,0.0,nan,0.0,0.0,0.07334232,0.05225584,0.005250588,-0.011018217,0.0,0.0,0.0,0.0,0.0
429031166,429030241,0.0,0.0,0.0,1.6480803,-1.3452202,0.0,0.0,0.0,0.0,0.0,0.0,0.0,0.0,1.8722649,0.0,0.0,nan,0.0,0.0,0.043322086,0.05225584,0.005250588,-0.011018217,0.0,0.0,0.0,0.0,0.0
429535462,429534537,0.0,0.0,0.0,1.5098029,-1.3011868,0.0,0.0,0.0,0.0,0.0,0.0,0.0,0.0,1.6995687,0.0,0.0,nan,0.0,0.0,-0.056044817,0.05225584,0.005250588,-0.011018217,0.0,0.0,0.0,0.0,0.0
430035059,430033837,0.0,0.0,0.0,1.3045894,-1.2036353,0.0,0.0,0.0,0.0,0.0,0.0,0.0,0.0,1.752511,0.0,0.0,nan,0.0,0.0,-0.12936759,0.05225584,0.005250588,-0.011018217,0.0,0.0,0.0,0.0,0.0
430534073,430533137,0.0,0.0,0.0,1.1754123,-1.1203287,0.0,0.0,0.0,0.0,0.0,0.0,0.0,0.0,1.5187254,0.0,0.0,nan,0.0,0.0,-0.18981671,0.05225584,0.005250588,-0.011018217,0.0,0.0,0.0,0.0,0.0
431033328,431032437,0.0,0.0,0.0,0.99134994,-0.9940791,0.0,0.0,0.0,0.0,0.0,0.0,0.0,0.0,1.6142559,0.0,0.0,nan,0.0,0.0,-0.18898106,0.05225584,0.005250588,-0.011018217,0.0,0.0,0.0,0.0,0.0
431532877,431531739,0.0,0.0,0.0,0.88601613,-0.9509996,0.0,0.0,0.0,0.0,0.0,0.0,0.0,0.0,1.4870214,0.0,0.0,nan,0.0,0.0,-0.19507957,0.05225584,0.005250588,-0.011018217,0.0,0.0,0.0,0.0,0.0
432031995,432031039,0.0,0.0,0.0,0.8103261,-0.9156333,0.0,0.0,0.0,0.0,0.0,0.0,0.0,0.0,1.3445902,0.0,0.0,nan,0.0,0.0,-0.23281574,0.05225584,0.005250588,-0.011018217,0.0,0.0,0.0,0.0,0.0
432531417,432530339,0.0,0.0,0.0,0.69255763,-0.78014034,0.0,0.0,0.0,0.0,0.0,0.0,0.0,0.0,1.2847166,0.0,0.0,nan,0.0,0.0,-0.2009368,0.05225584,0.005250588,-0.011018217,0.0,0.0,0.0,0.0,0.0
433035589,433034633,0.0,0.0,0.0,0.599668,-0.69952404,0.0,0.0,0.0,0.0,0.0,0.0,0.0,0.0,1.0831847,0.0,0.0,nan,0.0,0.0,-0.17946076,0.05225584,0.005250588,-0.011018217,0.0,0.0,0.0,0.0,0.0
433535006,433533984,0.0,0.0,0.0,0.45254624,-0.56851256,0.0,0.0,0.0,0.0,0.0,0.0,0.0,0.0,1.3832049,0.0,0.0,nan,0.0,0.0,-0.132905,0.05225584,0.005250588,-0.011018217,0.0,0.0,0.0,0.0,0.0
434034065,434033234,0.0,0.0,0.0,0.34143308,-0.47918537,0.0,0.0,0.0,0.0,0.0,0.0,0.0,0.0,1.1307273,0.0,0.0,nan,0.0,0.0,-0.18561077,0.05225584,0.005250588,-0.011018217,0.0,0.0,0.0,0.0,0.0
434533723,434532534,0.0,0.0,0.0,0.22070777,-0.40183285,0.0,0.0,0.0,0.0,0.0,0.0,0.0,0.0,1.1569657,0.0,0.0,nan,0.0,0.0,-0.19758606,0.05225584,0.005250588,-0.011018217,0.0,0.0,0.0,0.0,0.0
435032841,435031838,0.0,0.0,0.0,0.0058933194,-0.30263954,0.0,0.0,0.0,0.0,0.0,0.0,0.0,0.0,1.1072507,0.0,0.0,nan,0.0,0.0,-0.18118262,0.05225584,0.005250588,-0.011018217,0.0,0.0,0.0,0.0,0.0
435531970,435531143,0.0,0.0,0.0,-0.14151937,-0.23492768,0.0,0.0,0.0,0.0,0.0,0.0,0.0,0.0,1.084784,0.0,0.0,nan,0.0,0.0,-0.14387727,0.05225584,0.005250588,-0.011018217,0.0,0.0,0.0,0.0,0.0
436031578,436030434,0.0,0.0,0.0,-0.28111598,-0.18206082,0.0,0.0,0.0,0.0,0.0,0.0,0.0,0.0,1.095077,0.0,0.0,nan,0.0,0.0,-0.13002968,0.05225584,0.005250588,-0.011018217,0.0,0.0,0.0,0.0,0.0
436530662,436529766,0.0,0.0,0.0,-0.47638205,-0.108109236,0.0,0.0,0.0,0.0,0.0,0.0,0.0,0.0,0.8493867,0.0,0.0,nan,0.0,0.0,-0.104076624,0.05225584,0.005250588,-0.011018217,0.0,0.0,0.0,0.0,0.0
437035092,437034026,0.0,0.0,0.0,-0.6137852,-0.07371704,0.0,0.0,0.0,0.0,0.0,0.0,0.0,0.0,1.0037503,0.0,0.0,nan,0.0,0.0,-0.06588125,0.05225584,0.005250588,-0.011018217,0.0,0.0,0.0,0.0,0.0
437534315,437533326,0.0,0.0,0.0,-0.8058813,-0.054520916,0.0,0.0,0.0,0.0,0.0,0.0,0.0,0.0,0.9857135,0.0,0.0,nan,0.0,0.0,-0.010929108,0.05225584,0.005250588,-0.011018217,0.0,0.0,0.0,0.0,0.0
438033593,438032626,0.0,0.0,0.0,-0.90932363,-0.029028658,0.0,0.0,0.0,0.0,0.0,0.0,0.0,0.0,0.98417187,0.0,0.0,nan,0.0,0.0,-0.020979166,0.05225584,0.005250588,-0.011018217,0.0,0.0,0.0,0.0,0.0
438532874,438531926,0.0,0.0,0.0,-0.98375374,0.00032639297,0.0,0.0,0.0,0.0,0.0,0.0,0.0,0.0,1.0108137,0.0,0.0,nan,0.0,0.0,-0.01626563,0.05225584,0.005250588,-0.011018217,0.0,0.0,0.0,0.0,0.0
439032307,439031225,0.0,0.0,0.0,-1.0512545,0.04089939,0.0,0.0,0.0,0.0,0.0,0.0,0.0,0.0,0.787035,0.0,0.0,nan,0.0,0.0,0.035111904,0.05225584,0.005250588,-0.011018217,0.0,0.0,0.0,0.0,0.0
439531597,439530525,0.0,0.0,0.0,-1.0733852,0.07178262,0.0,0.0,0.0,0.0,0.0,0.0,0.0,0.0,0.96961975,0.0,0.0,nan,0.0,0.0,0.08786225,0.05225584,0.005250588,-0.011018217,0.0,0.0,0.0,0.0,0.0
440030762,440029823,0.0,0.0,0.0,-1.0849172,0.14445156,0.0,0.0,0.0,0.0,0.0,0.0,0.0,0.0,0.8947735,0.0,0.0,nan,0.0,0.0,0.06499934,0.05225584,0.005250588,-0.011018217,0.0,0.0,0.0,0.0,0.0
440540049,440539110,0.0,0.0,0.0,-1.0712329,0.26302615,0.0,0.0,0.0,0.0,0.0,0.0,0.0,0.0,1.1794381,0.0,0.0,nan,0.0,0.0,0.020493984,0.05225584,0.005250588,-0.011018217,0.0,0.0,0.0,0.0,0.0
441039486,441038412,0.0,0.0,0.0,-1.046076,0.41203144,0.0,0.0,0.0,0.0,0.0,0.0,0.0,0.0,1.2896156,0.0,0.0,nan,0.0,0.0,-0.017320633,0.05225584,0.005250588,-0.011018217,0.0,0.0,0.0,0.0,0.0
441533786,441532714,0.0,0.0,0.0,-1.013464,0.57534957,0.0,0.0,0.0,0.0,0.0,0.0,0.0,0.0,1.0891242,0.0,0.0,nan,0.0,0.0,-0.09985399,0.05225584,0.005250588,-0.011018217,0.0,0.0,0.0,0.0,0.0
442032911,442032012,0.0,0.0,0.0,-1.0144244,0.68698657,0.0,0.0,0.0,0.0,0.0,0.0,0.0,0.0,1.2658257,0.0,0.0,nan,0.0,0.0,-0.14553618,0.05225584,0.005250588,-0.011018217,0.0,0.0,0.0,0.0,0.0
442532515,442531312,0.0,0.0,0.0,-1.06454,0.79909605,0.0,0.0,0.0,0.0,0.0,0.0,0.0,0.0,1.3798337,0.0,0.0,nan,0.0,0.0,-0.16643143,0.05225584,0.005250588,-0.011018217,0.0,0.0,0.0,0.0,0.0
443031538,443030611,0.0,0.0,0.0,-1.1259482,0.8402641,0.0,0.0,0.0,0.0,0.0,0.0,0.0,0.0,1.288321,0.0,0.0,nan,0.0,0.0,-0.16582108,0.05225584,0.005250588,-0.011018217,0.0,0.0,0.0,0.0,0.0
443530947,443529910,0.0,0.0,0.0,-1.2106379,0.85602754,0.0,0.0,0.0,0.0,0.0,0.0,0.0,0.0,1.2037706,0.0,0.0,nan,0.0,0.0,-0.1351018,0.05225584,0.005250588,-0.011018217,0.0,0.0,0.0,0.0,0.0
444035088,444034200,0.0,0.0,0.0,-1.3262384,0.8519722,0.0,0.0,0.0,0.0,0.0,0.0,0.0,0.0,1.2316022,0.0,0.0,nan,0.0,0.0,-0.04099655,0.05225584,0.005250588,-0.011018217,0.0,0.0,0.0,0.0,0.0
444534585,444533498,0.0,0.0,0.0,-1.3937316,0.85876894,0.0,0.0,0.0,0.0,0.0,0.0,0.0,0.0,1.0618672,0.0,0.0,nan,0.0,0.0,0.05318594,0.05225584,0.005250588,-0.011018217,0.0,0.0,0.0,0.0,0.0
445033783,445032797,0.0,0.0,0.0,-1.4616027,0.8642329,0.0,0.0,0.0,0.0,0.0,0.0,0.0,0.0,0.9947181,0.0,0.0,nan,0.0,0.0,0.14714003,0.05225584,0.005250588,-0.011018217,0.0,0.0,0.0,0.0,0.0
445533024,445532095,0.0,0.0,0.0,-1.5130025,0.86365736,0.0,0.0,0.0,0.0,0.0,0.0,0.0,0.0,1.3988128,0.0,0.0,nan,0.0,0.0,0.22182274,0.05225584,0.005250588,-0.011018217,0.0,0.0,0.0,0.0,0.0
446032352,446031391,0.0,0.0,0.0,-1.5129359,0.8417901,0.0,0.0,0.0,0.0,0.0,0.0,0.0,0.0,1.4300413,0.0,0.0,nan,0.0,0.0,0.21303964,0.05225584,0.005250588,-0.011018217,0.0,0.0,0.0,0.0,0.0
446531676,446530692,0.0,0.0,0.0,-1.5333999,0.76267856,0.0,0.0,0.0,0.0,0.0,0.0,0.0,0.0,1.6058607,0.0,0.0,nan,0.0,0.0,0.22898936,0.05225584,0.005250588,-0.011018217,0.0,0.0,0.0,0.0,0.0
447031062,447030047,0.0,0.0,0.0,-1.5504055,0.7261629,0.0,0.0,0.0,0.0,0.0,0.0,0.0,0.0,1.5298872,0.0,0.0,nan,0.0,0.0,0.20193338,0.05225584,0.005250588,-0.011018217,0.0,0.0,0.0,0.0,0.0
447535163,447534280,0.0,0.0,0.0,-1.5829153,0.68358445,0.0,0.0,0.0,0.0,0.0,0.0,0.0,0.0,1.7845154,0.0,0.0,nan,0.0,0.0,0.20665932,0.05225584,0.005250588,-0.011018217,0.0,0.0,0.0,0.0,0.0
448034644,448033578,0.0,0.0,0.0,-1.6142634,0.63066643,0.0,0.0,0.0,0.0,0.0,0.0,0.0,0.0,1.9964218,0.0,0.0,nan,0.0,0.0,0.21478939,0.05225584,0.005250588,-0.011018217,0.0,0.0,0.0,0.0,0.0
448533760,448532875,0.0,0.0,0.0,-1.5787847,0.64927655,0.0,0.0,0.0,0.0,0.0,0.0,0.0,0.0,1.8835025,0.0,0.0,nan,0.0,0.0,0.19301176,0.05225584,0.005250588,-0.011018217,0.0,0.0,0.0,0.0,0.0
449033215,449032173,0.0,0.0,0.0,-1.4950072,0.7046901,0.0,0.0,0.0,0.0,0.0,0.0,0.0,0.0,1.7404709,0.0,0.0,nan,0.0,0.0,0.21926141,0.05225584,0.005250588,-0.011018217,0.0,0.0,0.0,0.0,0.0
449532441,449531471,0.0,0.0,0.0,-1.3935608,0.75762135,0.0,0.0,0.0,0.0,0.0,0.0,0.0,0.0,1.9316416,0.0,0.0,nan,0.0,0.0,0.20265317,0.05225584,0.005250588,-0.011018217,0.0,0.0,0.0,0.0,0.0
450031691,450030769,0.0,0.0,0.0,-1.2883879,0.7984685,0.0,0.0,0.0,0.0,0.0,0.0,0.0,0.0,1.9335151,0.0,0.0,nan,0.0,0.0,0.21169186,0.05225584,0.005250588,-0.011018217,0.0,0.0,0.0,0.0,0.0
450536139,450535058,0.0,0.0,0.0,-1.0997292,0.87066203,0.0,0.0,0.0,0.0,0.0,0.0,0.0,0.0,2.0227752,0.0,0.0,nan,0.0,0.0,0.19331169,0.05225584,0.005250588,-0.011018217,0.0,0.0,0.0,0.0,0.0
451035224,451034355,0.0,0.0,0.0,-0.98450506,0.91171217,0.0,0.0,0.0,0.0,0.0,0.0,0.0,0.0,2.0183382,0.0,0.0,nan,0.0,0.0,0.15938592,0.05225584,0.005250588,-0.011018217,0.0,0.0,0.0,0.0,0.0
451534693,451533658,0.0,0.0,0.0,-0.8775774,0.9333715,0.0,0.0,0.0,0.0,0.0,0.0,0.0,0.0,2.0423574,0.0,0.0,nan,0.0,0.0,0.07681966,0.05225584,0.005250588,-0.011018217,0.0,0.0,0.0,0.0,0.0
452033969,452032951,0.0,0.0,0.0,-0.7220847,0.94549793,0.0,0.0,0.0,0.0,0.0,0.0,0.0,0.0,1.9769292,0.0,0.0,nan,0.0,0.0,0.020509243,0.05225584,0.005250588,-0.011018217,0.0,0.0,0.0,0.0,0.0
452533309,452532247,0.0,0.0,0.0,-0.64390033,0.9453675,0.0,0.0,0.0,0.0,0.0,0.0,0.0,0.0,2.1125126,0.0,0.0,nan,0.0,0.0,0.047168255,0.05225584,0.005250588,-0.011018217,0.0,0.0,0.0,0.0,0.0
453032380,453031544,0.0,0.0,0.0,-0.5589071,0.93859076,0.0,0.0,0.0,0.0,0.0,0.0,0.0,0.0,2.042872,0.0,0.0,nan,0.0,0.0,0.104028225,0.05225584,0.005250588,-0.011018217,0.0,0.0,0.0,0.0,0.0
453531921,453530840,0.0,0.0,0.0,-0.5207797,0.92738926,0.0,0.0,0.0,0.0,0.0,0.0,0.0,0.0,1.9256787,0.0,0.0,nan,0.0,0.0,0.14401221,0.05225584,0.005250588,-0.011018217,0.0,0.0,0.0,0.0,0.0
454036070,454035130,0.0,0.0,0.0,-0.49778137,0.9254802,0.0,0.0,0.0,0.0,0.0,0.0,0.0,0.0,1.9994073,0.0,0.0,nan,0.0,0.0,0.18386054,0.05225584,0.005250588,-0.011018217,0.0,0.0,0.0,0.0,0.0
454535609,454534427,0.0,0.0,0.0,-0.47656003,0.9477634,0.0,0.0,0.0,0.0,0.0,0.0,0.0,0.0,1.9781518,0.0,0.0,nan,0.0,0.0,0.2288487,0.05225584,0.005250588,-0.011018217,0.0,0.0,0.0,0.0,0.0
455034636,455033724,0.0,0.0,0.0,-0.48298258,0.9498855,0.0,0.0,0.0,0.0,0.0,0.0,0.0,0.0,1.8892474,0.0,0.0,nan,0.0,0.0,0.25817513,0.05225584,0.005250588,-0.011018217,0.0,0.0,0.0,0.0,0.0
455533920,455533022,0.0,0.0,0.0,-0.47980615,0.93896365,0.0,0.0,0.0,0.0,0.0,0.0,0.0,0.0,1.9664307,0.0,0.0,nan,0.0,0.0,0.2868967,0.05225584,0.005250588,-0.011018217,0.0,0.0,0.0,0.0,0.0
456033390,456032316,0.0,0.0,0.0,-0.48242208,0.9132725,0.0,0.0,0.0,0.0,0.0,0.0,0.0,0.0,2.0162477,0.0,0.0,nan,0.0,0.0,0.35433388,0.05225584,0.005250588,-0.011018217,0.0,0.0,0.0,0.0,0.0
456532557,456531613,0.0,0.0,0.0,-0.49455234,0.8596298,0.0,0.0,0.0,0.0,0.0,0.0,0.0,0.0,1.913351,0.0,0.0,nan,0.0,0.0,0.39637566,0.05225584,0.005250588,-0.011018217,0.0,0.0,0.0,0.0,0.0
457036919,457035902,0.0,0.0,0.0,-0.57984895,0.7652193,0.0,0.0,0.0,0.0,0.0,0.0,0.0,0.0,1.8439689,0.0,0.0,nan,0.0,0.0,0.4422884,0.05225584,0.005250588,-0.011018217,0.0,0.0,0.0,0.0,0.0
457536135,457535199,0.0,0.0,0.0,-0.64863294,0.7120998,0.0,0.0,0.0,0.0,0.0,0.0,0.0,0.0,1.8815784,0.0,0.0,nan,0.0,0.0,0.45561075,0.05225584,0.005250588,-0.011018217,0.0,0.0,0.0,0.0,0.0
458035609,458034513,0.0,0.0,0.0,-0.67454195,0.6775001,0.0,0.0,0.0,0.0,0.0,0.0,0.0,0.0,1.8611989,0.0,0.0,nan,0.0,0.0,0.4709792,0.05225584,0.005250588,-0.011018217,0.0,0.0,0.0,0.0,0.0
458534679,458533790,0.0,0.0,0.0,-0.6471351,0.67231303,0.0,0.0,0.0,0.0,0.0,0.0,0.0,0.0,1.7125425,0.0,0.0,nan,0.0,0.0,0.4742813,-0.0010183454,0.15845202,-0.04231803,0.0,0.0,0.0,0.0,0.0
459034288,459033089,0.0,0.0,0.0,-0.59635675,0.71831614,0.0,0.0,0.0,0.0,0.0,0.0,0.0,0.0,1.5794683,0.0,0.0,nan,0.0,0.0,0.4742813,-0.041769028,0.16666543,-0.013294533,0.0,0.0,0.0,0.0,0.0
459533316,459532386,0.0,0.0,0.0,-0.49167353,0.82143635,0.0,0.0,0.0,0.0,0.0,0.0,0.0,0.0,1.7551017,0.0,0.0,nan,0.0,0.0,0.4742813,-0.0994456,0.15747035,0.013029948,0.0,0.0,0.0,0.0,0.0
460032522,460031679,0.0,0.0,0.0,-1.3861629,2.3856244,0.0,0.0,0.0,0.0,0.0,0.0,0.0,0.0,1.5463943,0.0,0.0,nan,0.0,0.0,0.4742813,-0.11927174,0.12385447,0.020762429,0.0,0.0,0.0,0.0,0.0
460533568,460530974,0.0,0.0,0.0,-2.7599885,4.454427,0.0,0.0,0.0,0.0,0.0,0.0,0.0,0.0,1.5067697,0.0,0.0,nan,0.0,0.0,0.4742813,-0.1239685,0.07740477,0.022047728,0.0,0.0,0.0,0.0,0.0
461031130,461030269,0.0,0.0,0.0,-4.7831883,6.2648444,0.0,0.0,0.0,0.0,0.0,0.0,0.0,0.0,1.4029212,0.0,0.0,nan,0.0,0.0,0.4742813,-0.12238376,0.054006517,0.016829059,0.0,0.0,0.0,0.0,0.0
461537152,461534559,0.0,0.0,0.0,-6.099952,7.209639,0.0,0.0,0.0,0.0,0.0,0.0,0.0,0.0,1.3567815,0.0,0.0,nan,0.0,0.0,0.4742813,-0.123705484,0.038369745,0.035606965,0.0,0.0,0.0,0.0,0.0
462034804,462033854,0.0,0.0,0.0,-8.101413,8.163499,0.0,0.0,0.0,0.0,0.0,0.0,0.0,0.0,1.0854101,0.0,0.0,nan,0.0,0.0,0.4742813,-0.11746847,0.0057230294,0.005494371,0.0,0.0,0.0,0.0,0.0
462535695,462533149,0.0,0.0,0.0,-9.003254,8.490259,0.0,0.0,0.0,0.0,0.0,0.0,0.0,0.0,0.97688866,0.0,0.0,nan,0.0,0.0,0.4742813,-0.068846196,-0.008438915,-0.029132038,0.0,0.0,0.0,0.0,0.0
463033356,463032445,0.0,0.0,0.0,-9.493119,8.594292,0.0,0.0,0.0,0.0,0.0,0.0,0.0,0.0,0.7812414,0.0,0.0,nan,0.0,0.0,0.4742813,-0.061547287,-0.028472483,-0.036029145,0.0,0.0,0.0,0.0,0.0
464031878,464031036,0.0,0.0,0.0,-9.362464,8.34947,0.0,0.0,0.0,0.0,0.0,0.0,0.0,0.0,0.4218712,0.0,0.0,nan,0.0,0.0,0.4742813,0.032075435,0.027062088,-0.048148334,0.0,0.0,0.0,0.0,0.0
464538179,464535324,0.0,0.0,0.0,-8.3562565,8.116935,0.0,0.0,0.0,0.0,0.0,0.0,0.0,0.0,0.55841064,0.0,0.0,nan,0.0,0.0,0.4742813,0.03899023,0.03598064,-0.04525563,0.0,0.0,0.0,0.0,0.0
465035500,465034623,0.0,0.0,0.0,-7.7577095,8.022378,0.0,0.0,0.0,0.0,0.0,0.0,0.0,0.0,0.35079765,0.0,0.0,nan,0.0,0.0,-0.07704687,0.043945663,0.04351765,-0.044779778,0.0,0.0,0.0,0.0,0.0
465534986,465533914,0.0,0.0,0.0,-7.6236715,8.02095,0.0,0.0,0.0,0.0,0.0,0.0,0.0,0.0,0.73701096,0.0,0.0,nan,0.0,0.0,-0.059867144,0.043945663,0.04351765,-0.044779778,0.0,0.0,0.0,0.0,0.0
466034259,466033209,0.0,0.0,0.0,-7.4304843,7.9555087,0.0,0.0,0.0,0.0,0.0,0.0,0.0,0.0,0.71033,0.0,0.0,nan,0.0,0.0,0.03564334,0.043945663,0.04351765,-0.044779778,0.0,0.0,0.0,0.0,0.0
