timestamp,timestamp_sample,q[0],q[1],q[2],q[3],delta_q_reset[0],delta_q_reset[1],delta_q_reset[2],delta_q_reset[3],quat_reset_counter
293532988,293532518,-0.83273804,-0.0031256843,0.0023473415,0.55365354,0.99998873,-7.2879014e-10,-1.3214303e-10,-0.0047607017,3
293537982,293537505,-0.8327385,-0.0031110183,0.0023370753,0.55365276,0.99998873,-7.2879014e-10,-1.3214303e-10,-0.0047607017,3
294037226,294036816,-0.8331224,-0.0031654863,0.0023824214,0.5530746,0.99998873,-7.2879014e-10,-1.3214303e-10,-0.0047607017,3
294536581,294536125,-0.8333061,-0.0031469685,0.002350657,0.5527981,0.99998873,-7.2879014e-10,-1.3214303e-10,-0.0047607017,3
295035882,295035436,-0.8321775,-0.00598873,-0.0010528698,0.5544759,0.99998873,-7.2879014e-10,-1.3214303e-10,-0.0047607017,3
295535224,295534746,-0.83181214,-0.006919425,-0.003327471,0.55500424,0.99998873,-7.2879014e-10,-1.3214303e-10,-0.0047607017,3
296034566,296034057,-0.83717144,-0.0062639234,-0.012557681,0.54676044,0.99998873,-7.2879014e-10,-1.3214303e-10,-0.0047607017,3
296538810,296538361,-0.8383014,0.015755845,0.020212073,0.54460454,0.99998873,-7.2879014e-10,-1.3214303e-10,-0.0047607017,3
297038136,297037673,-0.8383195,-0.005072234,0.0017962488,0.5451527,0.99998873,-7.2879014e-10,-1.3214303e-10,-0.0047607017,3
297537381,297536981,-0.8353479,0.0032037117,6.628953e-05,0.5497123,0.99998873,-7.2879014e-10,-1.3214303e-10,-0.0047607017,3
298036714,298036295,-0.838923,-0.0005623293,-0.0030337384,0.54424167,0.99998873,-7.2879014e-10,-1.3214303e-10,-0.0047607017,3
298536060,298535606,-0.84277254,-0.0015486442,0.0036620784,0.5382552,0.99998873,-7.2879014e-10,-1.3214303e-10,-0.0047607017,3
299035337,299034921,-0.8438901,0.010523931,0.024073446,0.5358725,0.99998873,-7.2879014e-10,-1.3214303e-10,-0.0047607017,3
299534640,299534229,-0.8402295,0.016131634,0.026640689,0.5413358,0.99998873,-7.2879014e-10,-1.3214303e-10,-0.0047607017,3
300033963,300033541,-0.83911926,0.00449941,0.03448955,0.5428345,0.99998873,-7.2879014e-10,-1.3214303e-10,-0.0047607017,3
300538301,300537846,-0.8388675,0.011386481,0.021103133,0.5438072,0.99998873,-7.2879014e-10,-1.3214303e-10,-0.0047607017,3
301037560,301037158,-0.83877593,0.010787374,0.020407641,0.54398733,0.99998873,-7.2879014e-10,-1.3214303e-10,-0.0047607017,3
301536916,301536470,-0.8374425,0.00030593638,0.011134319,0.5464118,0.99998873,-7.2879014e-10,-1.3214303e-10,-0.0047607017,3
302036222,302035782,-0.837834,-0.0014365336,-0.00015372952,0.54592323,0.99998873,-7.2879014e-10,-1.3214303e-10,-0.0047607017,3
302535555,302535095,-0.8385986,0.013184794,-0.005020756,0.5445671,0.99998873,-7.2879014e-10,-1.3214303e-10,-0.0047607017,3
303034855,303034408,-0.83939457,-0.0019821324,0.0011758178,0.54351777,0.99998873,-7.2879014e-10,-1.3214303e-10,-0.0047607017,3
303534125,303533723,-0.8402331,0.003336827,0.0015046529,0.5422131,0.99998873,-7.2879014e-10,-1.3214303e-10,-0.0047607017,3
304038462,304038025,-0.84014404,0.0065778224,0.009562225,0.54223937,0.99998873,-7.2879014e-10,-1.3214303e-10,-0.0047607017,3
304537742,304537339,-0.8388445,0.009362343,0.012544763,0.5441461,0.99998873,-7.2879014e-10,-1.3214303e-10,-0.0047607017,3
305037067,305036667,-0.8438195,0.005591258,0.010092872,0.53650314,0.99998873,-7.2879014e-10,-1.3214303e-10,-0.0047607017,3
305536555,305535964,-0.86950696,0.005486061,0.010903167,0.49376997,0.99998873,-7.2879014e-10,-1.3214303e-10,-0.0047607017,3
306035681,306035277,-0.8761283,0.004649529,0.008457738,0.48198143,0.99998873,-7.2879014e-10,-1.3214303e-10,-0.0047607017,3
306534999,306534591,-0.87311864,0.0069733206,0.011033257,0.48733306,0.99998873,-7.2879014e-10,-1.3214303e-10,-0.0047607017,3
307034342,307033903,-0.8704448,0.0067499424,0.008168032,0.49215204,0.99998873,-7.2879014e-10,-1.3214303e-10,-0.0047607017,3
307538606,307538209,-0.8796811,0.0067070387,0.010563023,0.47539958,0.99998873,-7.2879014e-10,-1.3214303e-10,-0.0047607017,3
308037963,308037523,-0.89132607,0.012834554,0.02376355,0.4525578,0.99998873,-7.2879014e-10,-1.3214303e-10,-0.0047607017,3
308537258,308536854,-0.89280236,0.015176895,0.026159326,0.44943234,0.99998873,-7.2879014e-10,-1.3214303e-10,-0.0047607017,3
309036572,309036175,-0.8898534,0.0045953593,0.027045734,0.45542118,0.99998873,-7.2879014e-10,-1.3214303e-10,-0.0047607017,3
309535946,309535464,-0.88790625,0.018396623,0.030097581,0.45866996,0.99998873,-7.2879014e-10,-1.3214303e-10,-0.0047607017,3
310035189,310034777,-0.88907576,0.013104854,0.02750868,0.45674473,0.99998873,-7.2879014e-10,-1.3214303e-10,-0.0047607017,3
310534572,310534091,-0.89564794,0.008944426,0.019995764,0.44422412,0.99998873,-7.2879014e-10,-1.3214303e-10,-0.0047607017,3
311038858,311038403,-0.9020169,0.012593312,0.022748662,0.43091702,0.99998873,-7.2879014e-10,-1.3214303e-10,-0.0047607017,3
312032474,312032032,0.9949585,-0.0036999742,-0.027153736,-0.096470565,-0.95200104,-1.7576457e-09,1.6729125e-10,-0.30609518,4
312536746,312536339,0.9920625,0.0006403599,-0.025819395,-0.1230647,-0.95200104,-1.7576457e-09,1.6729125e-10,-0.30609518,4
313036108,313035658,0.9944979,0.0025393367,-0.022697063,-0.102237,-0.95200104,-1.7576457e-09,1.6729125e-10,-0.30609518,4
313535471,313534967,0.9983827,0.00026232286,-0.022878975,-0.052044187,-0.95200104,-1.7576457e-09,1.6729125e-10,-0.30609518,4
314034717,314034312,0.998624,0.004938328,-0.017747968,-0.049099833,-0.95200104,-1.7576457e-09,1.6729125e-10,-0.30609518,4
314538981,314538588,0.99752575,-0.0037092818,-0.020147767,-0.06725078,-0.95200104,-1.7576457e-09,1.6729125e-10,-0.30609518,4
315038329,315037931,0.99684566,-0.0011687308,-0.018484166,-0.077173695,-0.95200104,-1.7576457e-09,1.6729125e-10,-0.30609518,4
315537697,315537217,0.99640197,-0.0066429637,-0.01837026,-0.08247155,-0.95200104,-1.7576457e-09,1.6729125e-10,-0.30609518,4
316036983,316036531,0.9966899,-0.01934547,-0.010226112,-0.078297876,-0.95200104,-1.7576457e-09,1.6729125e-10,-0.30609518,4
316536287,316535845,0.9965543,-0.0048139133,-0.025058586,-0.07892017,-0.95200104,-1.7576457e-09,1.6729125e-10,-0.30609518,4
317035560,317035159,0.9972701,-0.0038654518,-0.0242851,-0.06962547,-0.95200104,-1.7576457e-09,1.6729125e-10,-0.30609518,4
317534878,317534474,0.99758816,0.0006038952,-0.016941836,-0.067308754,-0.95200104,-1.7576457e-09,1.6729125e-10,-0.30609518,4
318039204,318038784,0.996831,0.01043327,-0.025353579,-0.07467489,-0.95200104,-1.7576457e-09,1.6729125e-10,-0.30609518,4
318538506,318538095,0.9958015,0.008617177,-0.023443377,-0.08806511,-0.95200104,-1.7576457e-09,1.6729125e-10,-0.30609518,4
319037855,319037410,0.9947915,-0.0041443175,-0.027821254,-0.09797279,-0.95200104,-1.7576457e-09,1.6729125e-10,-0.30609518,4
319537127,319536724,0.9950064,0.00324292,-0.027064096,-0.0960176,-0.95200104,-1.7576457e-09,1.6729125e-10,-0.30609518,4
320036474,320036038,0.9954528,-0.003767536,-0.027149359,-0.09122778,-0.95200104,-1.7576457e-09,1.6729125e-10,-0.30609518,4
320535841,320535354,0.9963461,-0.00032539124,-0.025900815,-0.08138426,-0.95200104,-1.7576457e-09,1.6729125e-10,-0.30609518,4
321035084,321034668,0.9952499,-0.0052254032,-0.027258668,-0.09331248,-0.95200104,-1.7576457e-09,1.6729125e-10,-0.30609518,4
321539461,321538975,0.99134153,-0.003399989,-0.025846284,-0.12869531,-0.95200104,-1.7576457e-09,1.6729125e-10,-0.30609518,4
322038753,322038289,0.9889973,-0.0011662196,-0.022272939,-0.14624275,-0.95200104,-1.7576457e-09,1.6729125e-10,-0.30609518,4
322533024,322532612,0.9899249,9.6129035e-05,-0.017037803,-0.14056438,-0.95200104,-1.7576457e-09,1.6729125e-10,-0.30609518,4
323037479,323036918,0.99108946,-0.0032769055,-0.023709629,-0.13102974,-0.95200104,-1.7576457e-09,1.6729125e-10,-0.30609518,4
323536666,323536232,0.9904489,-0.00074773846,-0.022162313,-0.13608551,-0.95200104,-1.7576457e-09,1.6729125e-10,-0.30609518,4
324035948,324035547,0.9890382,-0.0060815164,-0.020677803,-0.14607875,-0.95200104,-1.7576457e-09,1.6729125e-10,-0.30609518,4
324535315,324534861,0.9891121,-0.00029571314,-0.018971154,-0.14593643,-0.95200104,-1.7576457e-09,1.6729125e-10,-0.30609518,4
325034576,325034177,0.98942655,0.0001632819,-0.021628793,-0.14341314,-0.95200104,-1.7576457e-09,1.6729125e-10,-0.30609518,4
325538943,325538484,0.98922646,0.003937193,-0.019957248,-0.1449734,-0.95200104,-1.7576457e-09,1.6729125e-10,-0.30609518,4
326038192,326037798,0.98935884,-0.0015630149,-0.020460756,-0.14404137,-0.95200104,-1.7576457e-09,1.6729125e-10,-0.30609518,4
326532522,326532119,0.9896255,-0.0011763406,-0.022795843,-0.14184663,-0.95200104,-1.7576457e-09,1.6729125e-10,-0.30609518,4
327036930,327036427,0.98964775,-0.0022481475,-0.024882263,-0.14132667,-0.95200104,-1.7576457e-09,1.6729125e-10,-0.30609518,4
327536217,327535744,0.9898385,0.0052225767,-0.02335724,-0.14016826,-0.95200104,-1.7576457e-09,1.6729125e-10,-0.30609518,4
328035459,328035056,0.98954356,0.007453414,-0.024890535,-0.14187542,-0.95200104,-1.7576457e-09,1.6729125e-10,-0.30609518,4
328534836,328534370,0.9889671,0.00084425387,-0.023389366,-0.14627512,-0.95200104,-1.7576457e-09,1.6729125e-10,-0.30609518,4
329039075,329038678,0.98848444,-0.0072438437,-0.019629506,-0.14986928,-0.95200104,-1.7576457e-09,1.6729125e-10,-0.30609518,4
329538402,329537993,0.9884336,-0.013768709,-0.008169821,-0.15080748,-0.95200104,-1.7576457e-09,1.6729125e-10,-0.30609518,4
330032720,330032314,0.9886351,-0.0009143692,-0.019952986,-0.1490027,-0.95200104,-1.7576457e-09,1.6729125e-10,-0.30609518,4
330537027,330536622,0.98905784,0.002296832,-0.021522088,-0.14593238,-0.95200104,-1.7576457e-09,1.6729125e-10,-0.30609518,4
331036456,331035935,0.98908967,-0.0044505484,-0.019014826,-0.14601493,-0.95200104,-1.7576457e-09,1.6729125e-10,-0.30609518,4
331535724,331535279,0.98897105,0.0001962259,-0.02247989,-0.1463932,-0.95200104,-1.7576457e-09,1.6729125e-10,-0.30609518,4
332034977,332034565,0.98854285,-0.002596448,-0.018924013,-0.1497276,-0.95200104,-1.7576457e-09,1.6729125e-10,-0.30609518,4
332539319,332538873,0.9882435,0.0021949974,-0.025010573,-0.15081255,-0.95200104,-1.7576457e-09,1.6729125e-10,-0.30609518,4
333038586,333038185,0.9888849,-0.0030049512,-0.022862045,-0.1468846,-0.95200104,-1.7576457e-09,1.6729125e-10,-0.30609518,4
333532956,333532506,0.98955655,-0.0003650114,-0.022158617,-0.14243183,-0.95200104,-1.7576457e-09,1.6729125e-10,-0.30609518,4
334037253,334036814,0.989017,-0.0058042374,-0.021925509,-0.14605117,-0.95200104,-1.7576457e-09,1.6729125e-10,-0.30609518,4
334536567,334536128,0.9835763,-0.003914157,-0.015876766,-0.17975084,-0.95200104,-1.7576457e-09,1.6729125e-10,-0.30609518,4
335035901,335035449,0.97845674,0.0051952554,-0.017566996,-0.20563787,-0.95200104,-1.7576457e-09,1.6729125e-10,-0.30609518,4
335535217,335534756,0.9783554,0.0077692093,-0.018855976,-0.20592445,-0.95200104,-1.7576457e-09,1.6729125e-10,-0.30609518,4
336039520,336039063,0.9802625,-0.0038122423,-0.011137302,-0.19734949,-0.95200104,-1.7576457e-09,1.6729125e-10,-0.30609518,4
336538871,336538378,0.98122364,0.002433112,-0.019993959,-0.19181933,-0.95200104,-1.7576457e-09,1.6729125e-10,-0.30609518,4
337033183,337032698,0.9810923,-0.0065369485,-0.016471766,-0.19272773,-0.95200104,-1.7576457e-09,1.6729125e-10,-0.30609518,4
337537452,337537005,0.9814015,-0.0017607166,-0.020898202,-0.19081749,-0.95200104,-1.7576457e-09,1.6729125e-10,-0.30609518,4
338036824,338036319,0.9818473,-0.0028675334,-0.023812888,-0.18815067,-0.95200104,-1.7576457e-09,1.6729125e-10,-0.30609518,4
338536034,338535633,0.98212135,0.0015842885,-0.0153128095,-0.18761848,-0.95200104,-1.7576457e-09,1.6729125e-10,-0.30609518,4
339035418,339034950,0.98164475,-0.0042048316,-0.017978653,-0.1898229,-0.95200104,-1.7576457e-09,1.6729125e-10,-0.30609518,4
339539719,339539257,0.98136026,-0.006552403,-0.01681625,-0.19132836,-0.95200104,-1.7576457e-09,1.6729125e-10,-0.30609518,4
340034021,340033574,0.9807995,-0.0050143152,-0.030708045,-0.19252098,-0.95200104,-1.7576457e-09,1.6729125e-10,-0.30609518,4
340533348,340532888,0.9806146,-0.007548579,-0.032582674,-0.19307104,-0.95200104,-1.7576457e-09,1.6729125e-10,-0.30609518,4
341037671,341037194,0.98144454,-0.0059617613,-0.03608676,-0.1882254,-0.95200104,-1.7576457e-09,1.6729125e-10,-0.30609518,4
341536910,341536508,0.98189235,-0.0037069558,-0.017458543,-0.1885974,-0.95200104,-1.7576457e-09,1.6729125e-10,-0.30609518,4
342036269,342035821,0.98083675,-0.0041731554,-0.023982069,-0.1933049,-0.95200104,-1.7576457e-09,1.6729125e-10,-0.30609518,4
342535544,342535135,0.98060125,-0.004614027,-0.02378688,-0.19450967,-0.95200104,-1.7576457e-09,1.6729125e-10,-0.30609518,4
343039927,343039442,0.9807281,-0.004715422,-0.028293606,-0.19326088,-0.95200104,-1.7576457e-09,1.6729125e-10,-0.30609518,4
343534272,343533763,0.9805928,-0.003949672,-0.026304092,-0.19424267,-0.95200104,-1.7576457e-09,1.6729125e-10,-0.30609518,4
344033559,344033077,0.98084563,-0.0034528412,-0.027204338,-0.19284728,-0.95200104,-1.7576457e-09,1.6729125e-10,-0.30609518,4
344537884,344537382,0.9806102,-0.005459001,-0.035703767,-0.19261101,-0.95200104,-1.7576457e-09,1.6729125e-10,-0.30609518,4
345037139,345036695,0.98097855,-0.0032539384,-0.017589388,-0.19329014,-0.95200104,-1.7576457e-09,1.6729125e-10,-0.30609518,4
345536493,345536009,0.9801451,-0.009105784,-0.026466222,-0.19629626,-0.95200104,-1.7576457e-09,1.6729125e-10,-0.30609518,4
346035765,346035322,0.97965974,-0.009599313,-0.027088342,-0.19859722,-0.95200104,-1.7576457e-09,1.6729125e-10,-0.30609518,4
346540041,346539631,0.97974,-0.0047926004,-0.028954227,-0.19811185,-0.95200104,-1.7576457e-09,1.6729125e-10,-0.30609518,4
347039344,347038941,0.98105705,0.0038262054,-0.029377889,-0.19144055,-0.95200104,-1.7576457e-09,1.6729125e-10,-0.30609518,4
347533680,347533266,0.9820366,0.0023179208,-0.022258986,-0.18735896,-0.95200104,-1.7576457e-09,1.6729125e-10,-0.30609518,4
348032997,348032596,0.9832597,0.007848876,-0.025775012,-0.18020675,-0.95200104,-1.7576457e-09,1.6729125e-10,-0.30609518,4
348537333,348536881,0.98332715,-0.0060852855,-0.026173078,-0.1798489,-0.95200104,-1.7576457e-09,1.6729125e-10,-0.30609518,4
349036641,349036193,0.98189276,-0.003290846,-0.030119361,-0.18699925,-0.95200104,-1.7576457e-09,1.6729125e-10,-0.30609518,4
349535921,349535515,0.9804081,-0.008463604,-0.030967886,-0.19434369,-0.95200104,-1.7576457e-09,1.6729125e-10,-0.30609518,4
350035226,350034819,0.97995055,-0.0057056993,-0.036174517,-0.1958464,-0.95200104,-1.7576457e-09,1.6729125e-10,-0.30609518,4
350539522,350539124,0.9804504,-0.0079188235,-0.033125766,-0.19379638,-0.95200104,-1.7576457e-09,1.6729125e-10,-0.30609518,4
351033863,351033447,0.98046345,-0.0060873604,-0.029739305,-0.19434541,-0.95200104,-1.7576457e-09,1.6729125e-10,-0.30609518,4
351533159,351532756,0.98046046,-0.005741449,-0.030872444,-0.19419408,-0.95200104,-1.7576457e-09,1.6729125e-10,-0.30609518,4
352037461,352037062,0.98329246,-0.005821016,-0.027362049,-0.17987052,-0.95200104,-1.7576457e-09,1.6729125e-10,-0.30609518,4
352536777,352536375,0.98688245,-0.0011007101,-0.008770141,-0.1611989,-0.95200104,-1.7576457e-09,1.6729125e-10,-0.30609518,4
353036140,353035688,0.986467,0.0009099572,-0.014164961,-0.16334438,-0.95200104,-1.7576457e-09,1.6729125e-10,-0.30609518,4
353535401,353535000,0.98595375,-0.0043230373,-0.015568295,-0.16623572,-0.95200104,-1.7576457e-09,1.6729125e-10,-0.30609518,4
354039750,354039305,0.9858966,-0.0018676027,-0.010073674,-0.16704224,-0.95200104,-1.7576457e-09,1.6729125e-10,-0.30609518,4
354534162,354533630,0.989137,0.0018001143,-0.0069507835,-0.14682117,-0.95200104,-1.7576457e-09,1.6729125e-10,-0.30609518,4
355033340,355032936,0.99439174,0.0014874288,-0.022074107,-0.10342025,-0.95200104,-1.7576457e-09,1.6729125e-10,-0.30609518,4
355537695,355537242,0.99742246,0.024476664,0.00016778987,-0.06744931,-0.95200104,-1.7576457e-09,1.6729125e-10,-0.30609518,4
356036996,356036555,0.9972357,0.0064024436,-0.028222108,-0.06843668,-0.95200104,-1.7576457e-09,1.6729125e-10,-0.30609518,4
356536322,356535866,0.99683857,0.004549909,-0.02012222,-0.07672825,-0.95200104,-1.7576457e-09,1.6729125e-10,-0.30609518,4
357035684,357035177,0.99643546,-0.0014451296,-0.022182856,-0.081377745,-0.95200104,-1.7576457e-09,1.6729125e-10,-0.30609518,4
357539927,357539482,0.9963733,-0.0017279981,-0.019883843,-0.08271541,-0.95200104,-1.7576457e-09,1.6729125e-10,-0.30609518,4
358034209,358033802,0.99628985,5.4135246e-05,-0.02415477,-0.08260227,-0.95200104,-1.7576457e-09,1.6729125e-10,-0.30609518,4
358533569,358533113,0.9957309,-0.0021252476,-0.029178558,-0.087545246,-0.95200104,-1.7576457e-09,1.6729125e-10,-0.30609518,4
359037819,359037417,0.99487853,-0.0028985261,-0.027511036,-0.097219035,-0.95200104,-1.7576457e-09,1.6729125e-10,-0.30609518,4
359537186,359536729,0.9937535,-0.003427048,-0.032987475,-0.106555805,-0.95200104,-1.7576457e-09,1.6729125e-10,-0.30609518,4
360036482,360036040,0.9939276,6.699757e-05,-0.031977035,-0.10528779,-0.95200104,-1.7576457e-09,1.6729125e-10,-0.30609518,4
360535807,360535352,0.9944084,-0.010526582,-0.020493722,-0.1030596,-0.95200104,-1.7576457e-09,1.6729125e-10,-0.30609518,4
361035120,361034663,0.99258965,-0.011925517,-0.022566317,-0.11880362,-0.95200104,-1.7576457e-09,1.6729125e-10,-0.30609518,4
361534380,361533975,0.9889856,-0.007443157,-0.030672103,-0.14460729,-0.95200104,-1.7576457e-09,1.6729125e-10,-0.30609518,4
362033728,362033286,0.98770446,-0.0071558803,-0.025165467,-0.15412846,-0.95200104,-1.7576457e-09,1.6729125e-10,-0.30609518,4
362537984,362537592,0.9851223,-0.012695734,-0.034080278,-0.16796234,-0.95200104,-1.7576457e-09,1.6729125e-10,-0.30609518,4
363037322,363036905,0.9778337,-0.031602062,-0.008714544,-0.20680137,-0.95200104,-1.7576457e-09,1.6729125e-10,-0.30609518,4
363541663,363541206,0.9590652,-0.0014288098,-0.00860405,-0.28305128,-0.95200104,-1.7576457e-09,1.6729125e-10,-0.30609518,4
364036032,364035570,0.9353897,6.674248e-05,-0.023112778,-0.3528626,-0.95200104,-1.7576457e-09,1.6729125e-10,-0.30609518,4
364535238,364534834,0.9204163,-0.014046755,-0.029062303,-0.38960496,-0.95200104,-1.7576457e-09,1.6729125e-10,-0.30609518,4
365034560,365034146,0.9078271,-0.034069262,0.014073805,-0.4177216,-0.95200104,-1.7576457e-09,1.6729125e-10,-0.30609518,4
365533953,365533457,0.8868052,-0.010377046,-0.013414591,-0.46183234,-0.95200104,-1.7576457e-09,1.6729125e-10,-0.30609518,4
366033218,366032767,0.84521025,-0.011252586,-0.014275556,-0.53412473,-0.95200104,-1.7576457e-09,1.6729125e-10,-0.30609518,4
366537557,366537072,0.8192284,-0.0028025892,-0.0049728244,-0.573439,-0.95200104,-1.7576457e-09,1.6729125e-10,-0.30609518,4
367036792,367036382,0.79878765,-0.010941282,-0.013872115,-0.60135365,-0.95200104,-1.7576457e-09,1.6729125e-10,-0.30609518,4
368035452,368035003,0.68954045,-0.015429125,-0.017104559,-0.7238808,-0.95200104,-1.7576457e-09,1.6729125e-10,-0.30609518,4
368534735,368534328,0.63366115,-0.011957988,-0.007814928,-0.7734788,-0.95200104,-1.7576457e-09,1.6729125e-10,-0.30609518,4
369034037,369033625,0.6042289,-0.0144374445,-0.013593213,-0.7965641,-0.95200104,-1.7576457e-09,1.6729125e-10,-0.30609518,4
369538376,369537928,0.56848717,-0.020770295,-0.0049222275,-0.8224151,-0.95200104,-1.7576457e-09,1.6729125e-10,-0.30609518,4
370037645,370037241,0.5225938,-0.024494277,0.0033331083,-0.85222346,-0.95200104,-1.7576457e-09,1.6729125e-10,-0.30609518,4
370536997,370536548,0.48830995,-0.019678613,-0.014397239,-0.8723296,-0.95200104,-1.7576457e-09,1.6729125e-10,-0.30609518,4
371036259,371035858,0.48377305,-0.0129496865,-0.00793767,-0.8750617,-0.95200104,-1.7576457e-09,1.6729125e-10,-0.30609518,4
371535582,371535169,0.50955766,-0.011602624,-0.008724643,-0.86031413,-0.95200104,-1.7576457e-09,1.6729125e-10,-0.30609518,4
372034926,372034479,0.52623147,-0.010144039,-0.0091039315,-0.85023224,-0.95200104,-1.7576457e-09,1.6729125e-10,-0.30609518,4
372534251,372533791,0.52921164,-0.010281378,-0.018380262,-0.8482285,-0.95200104,-1.7576457e-09,1.6729125e-10,-0.30609518,4
373033549,373033099,0.5304706,-0.004506383,-0.016707228,-0.8475267,-0.95200104,-1.7576457e-09,1.6729125e-10,-0.30609518,4
373537848,373537403,0.52836114,-0.0065729436,-0.027481945,-0.8485495,-0.95200104,-1.7576457e-09,1.6729125e-10,-0.30609518,4
374037158,374036712,0.5273911,-0.005872275,-0.00720139,-0.84957194,-0.95200104,-1.7576457e-09,1.6729125e-10,-0.30609518,4
374536484,374536021,0.52599746,-0.0039524673,-0.019144004,-0.85026157,-0.95200104,-1.7576457e-09,1.6729125e-10,-0.30609518,4
375035754,375035333,0.53089917,-0.004590282,0.00097202946,-0.84742206,-0.95200104,-1.7576457e-09,1.6729125e-10,-0.30609518,4
375535138,375534706,0.56606895,-0.00086180767,-0.0025057222,-0.8243537,-0.95200104,-1.7576457e-09,1.6729125e-10,-0.30609518,4
376034456,376033950,0.5811475,-0.0076780575,-0.00875437,-0.8137149,-0.95200104,-1.7576457e-09,1.6729125e-10,-0.30609518,4
376533664,376533260,0.57483065,0.0053548077,-0.011855135,-0.818169,-0.95200104,-1.7576457e-09,1.6729125e-10,-0.30609518,4
377038064,377037563,0.56884354,-0.0001942516,-0.017057778,-0.8222689,-0.95200104,-1.7576457e-09,1.6729125e-10,-0.30609518,4
377537344,377536917,0.5699695,-0.003197775,-0.021011183,-0.8213909,-0.95200104,-1.7576457e-09,1.6729125e-10,-0.30609518,4
378036581,378036181,0.5693663,-0.015744314,-0.013710421,-0.8218189,-0.95200104,-1.7576457e-09,1.6729125e-10,-0.30609518,4
378535891,378535491,0.5681944,-0.014207914,-0.021302735,-0.822496,-0.95200104,-1.7576457e-09,1.6729125e-10,-0.30609518,4
379035248,379034844,0.56960005,-0.011544657,-0.023086809,-0.82151663,-0.95200104,-1.7576457e-09,1.6729125e-10,-0.30609518,4
379534521,379534113,0.57101804,-0.016460668,-0.011669838,-0.8206895,-0.95200104,-1.7576457e-09,1.6729125e-10,-0.30609518,4
380033817,380033417,0.57110196,-0.020428587,-0.009324452,-0.82057196,-0.95200104,-1.7576457e-09,1.6729125e-10,-0.30609518,4
380538117,380537719,0.57183856,-0.013240277,-0.011103536,-0.8201842,-0.95200104,-1.7576457e-09,1.6729125e-10,-0.30609518,4
381037481,381037028,0.57099223,-0.0060077724,-0.020318337,-0.8206821,-0.95200104,-1.7576457e-09,1.6729125e-10,-0.30609518,4
381536824,381536337,0.5718667,-0.010067667,-0.01742938,-0.8200996,-0.95200104,-1.7576457e-09,1.6729125e-10,-0.30609518,4
382036103,382035651,0.57167166,-0.010282808,-0.015122431,-0.82027876,-0.95200104,-1.7576457e-09,1.6729125e-10,-0.30609518,4
382535396,382534954,0.57075834,-0.0015159611,-0.014845714,-0.82098246,-0.95200104,-1.7576457e-09,1.6729125e-10,-0.30609518,4
383034763,383034263,0.5711726,-0.025165575,-0.010606705,-0.82037556,-0.95200104,-1.7576457e-09,1.6729125e-10,-0.30609518,4
383533970,383533571,0.57372427,-0.01693974,-0.011548637,-0.818792,-0.95200104,-1.7576457e-09,1.6729125e-10,-0.30609518,4
384038311,384037873,0.5746036,-0.0147429705,0.01601972,-0.8181423,-0.95200104,-1.7576457e-09,1.6729125e-10,-0.30609518,4
384537622,384537182,0.5721141,-0.0041176844,-0.018472297,-0.81995565,-0.95200104,-1.7576457e-09,1.6729125e-10,-0.30609518,4
385036937,385036491,0.56786597,-0.009315037,-0.012312398,-0.82297635,-0.95200104,-1.7576457e-09,1.6729125e-10,-0.30609518,4
385536241,385535798,0.60617155,0.00047222513,-0.023020593,-0.79500055,-0.95200104,-1.7576457e-09,1.6729125e-10,-0.30609518,4
386035507,386035106,0.6289326,-0.017304953,-0.012840081,-0.7771612,-0.95200104,-1.7576457e-09,1.6729125e-10,-0.30609518,4
386534822,386534414,0.6263284,-0.017042331,-0.011855626,-0.7792829,-0.95200104,-1.7576457e-09,1.6729125e-10,-0.30609518,4
387034166,387033722,0.615629,-0.02695219,-0.023238137,-0.7872323,-0.95200104,-1.7576457e-09,1.6729125e-10,-0.30609518,4
387538479,387538024,0.6048541,-0.015145243,-0.030540435,-0.7956063,-0.95200104,-1.7576457e-09,1.6729125e-10,-0.30609518,4
388037780,388037331,0.615496,-0.02326717,-0.022618221,-0.7874719,-0.95200104,-1.7576457e-09,1.6729125e-10,-0.30609518,4
388537044,388536638,0.6232469,-0.029639957,-0.025104668,-0.78106,-0.95200104,-1.7576457e-09,1.6729125e-10,-0.30609518,4
389036403,389035947,0.62485224,-0.025465718,-0.019425102,-0.7800858,-0.95200104,-1.7576457e-09,1.6729125e-10,-0.30609518,4
389535716,389535254,0.62057376,-0.023023015,-0.017835105,-0.7836072,-0.95200104,-1.7576457e-09,1.6729125e-10,-0.30609518,4
390034970,390034562,0.6156987,-0.025651652,-0.022667015,-0.78723776,-0.95200104,-1.7576457e-09,1.6729125e-10,-0.30609518,4
390534269,390533871,0.61389256,-0.016464755,-0.013799075,-0.78909725,-0.95200104,-1.7576457e-09,1.6729125e-10,-0.30609518,4
391038592,391038187,0.6155669,-0.016600361,-0.02121844,-0.787624,-0.95200104,-1.7576457e-09,1.6729125e-10,-0.30609518,4
391537988,391537477,0.61638033,-0.014485507,-0.0060581057,-0.7872922,-0.95200104,-1.7576457e-09,1.6729125e-10,-0.30609518,4
392037254,392036784,0.6157378,-0.012047981,-0.008697772,-0.7878111,-0.95200104,-1.7576457e-09,1.6729125e-10,-0.30609518,4
392536510,392536096,0.61546737,-0.014480454,-0.010149586,-0.7879639,-0.95200104,-1.7576457e-09,1.6729125e-10,-0.30609518,4
393035802,393035400,0.6155479,-0.016409833,-0.013769054,-0.7878084,-0.95200104,-1.7576457e-09,1.6729125e-10,-0.30609518,4
393535114,393534706,0.62254506,-0.019182509,-0.0075488975,-0.7823125,-0.95200104,-1.7576457e-09,1.6729125e-10,-0.30609518,4
394034462,394034013,0.64426535,-0.022284107,-0.010163732,-0.76440984,-0.95200104,-1.7576457e-09,1.6729125e-10,-0.30609518,4
394538724,394538313,0.64907664,-0.022198714,-0.013691053,-0.7602758,-0.95200104,-1.7576457e-09,1.6729125e-10,-0.30609518,4
395038063,395037620,0.64422876,-0.017325638,0.010798206,-0.7645604,-0.95200104,-1.7576457e-09,1.6729125e-10,-0.30609518,4
395537326,395536926,0.64026654,-0.015981697,-0.015282983,-0.7678345,-0.95200104,-1.7576457e-09,1.6729125e-10,-0.30609518,4
396036657,396036236,0.6385211,-0.014092469,-0.006299278,-0.76944953,-0.95200104,-1.7576457e-09,1.6729125e-10,-0.30609518,4
396535985,396535539,0.6427487,-0.021135112,-0.01967432,-0.76553285,-0.95200104,-1.7576457e-09,1.6729125e-10,-0.30609518,4
397035299,397034847,0.64305305,-0.025282605,-0.01964036,-0.7651523,-0.95200104,-1.7576457e-09,1.6729125e-10,-0.30609518,4
397534568,397534153,0.6430822,-0.028890707,-0.02479421,-0.76485026,-0.95200104,-1.7576457e-09,1.6729125e-10,-0.30609518,4
398038858,398038452,0.6388042,-0.028206134,-0.02299,-0.7685084,-0.95200104,-1.7576457e-09,1.6729125e-10,-0.30609518,4
398538158,398537759,0.63348377,-0.030838843,-0.025242213,-0.77272904,-0.95200104,-1.7576457e-09,1.6729125e-10,-0.30609518,4
399037556,399037065,0.6297701,-0.027744202,-0.022076096,-0.7759721,-0.95200104,-1.7576457e-09,1.6729125e-10,-0.30609518,4
399536823,399536370,0.62817353,-0.029040301,-0.024961745,-0.7771304,-0.95200104,-1.7576457e-09,1.6729125e-10,-0.30609518,4
400036076,400035677,0.6271189,-0.02764792,-0.020021636,-0.7781753,-0.95200104,-1.7576457e-09,1.6729125e-10,-0.30609518,4
400535492,400535037,0.63206124,-0.024490464,-0.015321728,-0.7743798,-0.95200104,-1.7576457e-09,1.6729125e-10,-0.30609518,4
401034718,401034291,0.63340014,-0.03825621,0.013189665,-0.77276564,-0.95200104,-1.7576457e-09,1.6729125e-10,-0.30609518,4
401534051,401533602,0.6316154,-0.030194622,0.00177218,-0.7746917,-0.95200104,-1.7576457e-09,1.6729125e-10,-0.30609518,4
402038290,402037893,0.6283293,-0.024749529,-0.020320915,-0.7772882,-0.95200104,-1.7576457e-09,1.6729125e-10,-0.30609518,4
402537612,402537199,0.62628084,-0.023435868,-0.019862745,-0.7789921,-0.95200104,-1.7576457e-09,1.6729125e-10,-0.30609518,4
403037003,403036513,0.62511027,-0.022769924,-0.02939337,-0.77965033,-0.95200104,-1.7576457e-09,1.6729125e-10,-0.30609518,4
403536216,403535812,0.62740207,-0.02327934,-0.018103069,-0.77813697,-0.95200104,-1.7576457e-09,1.6729125e-10,-0.30609518,4
404035564,404035115,0.62835807,-0.021835724,-0.01685258,-0.7774351,-0.95200104,-1.7576457e-09,1.6729125e-10,-0.30609518,4
404534884,404534421,0.62936354,-0.0110809505,-0.0096985595,-0.77697146,-0.95200104,-1.7576457e-09,1.6729125e-10,-0.30609518,4
405034122,405033726,0.6309072,-0.028028069,-0.023078611,-0.7750084,-0.95200104,-1.7576457e-09,1.6729125e-10,-0.30609518,4
405538433,405538024,0.63282233,-0.019978635,-0.007243394,-0.7740054,-0.95200104,-1.7576457e-09,1.6729125e-10,-0.30609518,4
406037785,406037384,0.6225202,-0.01915288,-0.012687539,-0.78226656,-0.95200104,-1.7576457e-09,1.6729125e-10,-0.30609518,4
406537122,406536636,0.5946518,-0.021960266,-0.0068126516,-0.80365455,-0.95200104,-1.7576457e-09,1.6729125e-10,-0.30609518,4
407036337,407035940,0.5486574,-0.01899227,-0.006185921,-0.8358087,-0.95200104,-1.7576457e-09,1.6729125e-10,-0.30609518,4
407535679,407535281,0.49086738,-0.01904754,0.018602526,-0.87082744,-0.95200104,-1.7576457e-09,1.6729125e-10,-0.30609518,4
408034959,408034550,0.4393607,-0.02525896,-0.01210698,-0.89787394,-0.95200104,-1.7576457e-09,1.6729125e-10,-0.30609518,4
408534260,408533853,0.39790624,-0.022001326,0.009562279,-0.91711247,-0.95200104,-1.7576457e-09,1.6729125e-10,-0.30609518,4
409038558,409038151,0.34034052,-0.027996663,-0.012132033,-0.9398072,-0.95200104,-1.7576457e-09,1.6729125e-10,-0.30609518,4
409537868,409537456,0.2678265,-0.015450145,0.026977004,-0.96296555,-0.95200104,-1.7576457e-09,1.6729125e-10,-0.30609518,4
410037229,410036760,0.1775932,-0.007157023,0.027147789,-0.98370343,-0.95200104,-1.7576457e-09,1.6729125e-10,-0.30609518,4
410536483,410536066,0.086581446,-0.002567039,0.020770699,-0.9960249,-0.95200104,-1.7576457e-09,1.6729125e-10,-0.30609518,4
411035767,411035368,0.010337903,-0.032073174,-0.0003725013,-0.999432,-0.95200104,-1.7576457e-09,1.6729125e-10,-0.30609518,4
411535174,411534673,-0.021600544,-0.027331412,-0.0018827721,-0.99939126,-0.95200104,-1.7576457e-09,1.6729125e-10,-0.30609518,4
412034373,412033976,-0.047512144,-0.02832135,0.00028308254,-0.9984691,-0.95200104,-1.7576457e-09,1.6729125e-10,-0.30609518,4
412538723,412538274,-0.091179274,-0.033851847,0.0033933744,-0.9952532,-0.95200104,-1.7576457e-09,1.6729125e-10,-0.30609518,4
413038013,413037609,-0.12652408,-0.024731651,8.4819774e-05,-0.9916552,-0.95200104,-1.7576457e-09,1.6729125e-10,-0.30609518,4
413537284,413536882,-0.12846144,-0.026826045,0.002864802,-0.9913475,-0.95200104,-1.7576457e-09,1.6729125e-10,-0.30609518,4
414036622,414036185,-0.12045114,-0.032363333,0.0006584446,-0.99219143,-0.95200104,-1.7576457e-09,1.6729125e-10,-0.30609518,4
414535891,414535489,-0.1090556,-0.035906453,-0.017402966,-0.99323446,-0.95200104,-1.7576457e-09,1.6729125e-10,-0.30609518,4
415035211,415034799,-0.1091474,-0.035759155,-0.0138052935,-0.9932863,-0.95200104,-1.7576457e-09,1.6729125e-10,-0.30609518,4
415534600,415534096,-0.11787867,-0.03864452,-0.015702633,-0.9921516,-0.95200104,-1.7576457e-09,1.6729125e-10,-0.30609518,4
416538177,416537696,-0.11602676,-0.03410938,0.00063394365,-0.9926601,-0.95200104,-1.7576457e-09,1.6729125e-10,-0.30609518,4
417032507,417032006,-0.11480162,-0.025837922,0.004245918,-0.99304336,-0.95200104,-1.7576457e-09,1.6729125e-10,-0.30609518,4
417536714,417536303,-0.113776974,-0.024522498,-0.001030481,-0.9932031,-0.95200104,-1.7576457e-09,1.6729125e-10,-0.30609518,4
418036000,418035605,-0.11192192,-0.024183838,-0.0032872672,-0.9934173,-0.95200104,-1.7576457e-09,1.6729125e-10,-0.30609518,4
418535304,418534908,-0.11417588,-0.024018643,-0.0008110786,-0.99316984,-0.95200104,-1.7576457e-09,1.6729125e-10,-0.30609518,4
419034675,419034214,-0.11714096,-0.024516447,-0.017432434,-0.9926596,-0.95200104,-1.7576457e-09,1.6729125e-10,-0.30609518,4
419538953,419538557,-0.11589496,-0.014180844,-0.0043521523,-0.9931507,-0.95200104,-1.7576457e-09,1.6729125e-10,-0.30609518,4
420038217,420037812,-0.11249506,-0.031922147,-0.008413021,-0.99310374,-0.95200104,-1.7576457e-09,1.6729125e-10,-0.30609518,4
420537515,420537114,-0.10802365,-0.023163712,-0.0103586465,-0.99382454,-0.95200104,-1.7576457e-09,1.6729125e-10,-0.30609518,4
421036905,421036461,-0.10894823,-0.022197543,-0.0051055807,-0.9937865,-0.95200104,-1.7576457e-09,1.6729125e-10,-0.30609518,4
421536121,421535719,-0.10829698,-0.01996113,-0.0042710877,-0.99390906,-0.95200104,-1.7576457e-09,1.6729125e-10,-0.30609518,4
422035436,422035022,-0.10897185,-0.018182386,-0.012320619,-0.9938022,-0.95200104,-1.7576457e-09,1.6729125e-10,-0.30609518,4
422534774,422534324,-0.11119632,-0.019952754,-0.0045563485,-0.99358773,-0.95200104,-1.7576457e-09,1.6729125e-10,-0.30609518,4
423039064,423038619,-0.112263024,-0.023832057,-0.0064130663,-0.9933721,-0.95200104,-1.7576457e-09,1.6729125e-10,-0.30609518,4
423538362,423537921,-0.109087735,-0.020132996,-0.0071292766,-0.9938027,-0.95200104,-1.7576457e-09,1.6729125e-10,-0.30609518,4
424037621,424037224,-0.10419626,-0.022315824,0.0016735289,-0.99430496,-0.95200104,-1.7576457e-09,1.6729125e-10,-0.30609518,4
424536922,424536526,-0.10209122,-0.012864194,0.020551486,-0.9944796,-0.95200104,-1.7576457e-09,1.6729125e-10,-0.30609518,4
425036278,425035828,-0.095926195,-0.017355083,-0.00087928056,-0.9952368,-0.95200104,-1.7576457e-09,1.6729125e-10,-0.30609518,4
425535572,425535129,-0.04991254,-0.015114299,-0.01010212,-0.9985882,-0.95200104,-1.7576457e-09,1.6729125e-10,-0.30609518,4
426034845,426034432,-0.017223269,-0.025935106,-0.022202205,-0.99926865,-0.95200104,-1.7576457e-09,1.6729125e-10,-0.30609518,4
426539137,426538726,-0.014692422,-0.02078436,-0.00040300863,-0.999676,-0.95200104,-1.7576457e-09,1.6729125e-10,-0.30609518,4
427038467,427038028,-0.027473288,-0.026199963,-0.017258946,-0.9991301,-0.95200104,-1.7576457e-09,1.6729125e-10,-0.30609518,4
427532753,427532344,-0.035461903,-0.035394836,-0.013642258,-0.9986509,-0.95200104,-1.7576457e-09,1.6729125e-10,-0.30609518,4
428037080,428036631,-0.015506754,-0.026840264,0.0014624735,-0.99951845,-0.95200104,-1.7576457e-09,1.6729125e-10,-0.30609518,4
428536336,428535932,0.011773245,-0.042579696,-0.0012538569,-0.99902296,-0.95200104,-1.7576457e-09,1.6729125e-10,-0.30609518,4
429035741,429035292,0.016230643,-0.033766903,-0.000100940415,-0.999298,-0.95200104,-1.7576457e-09,1.6729125e-10,-0.30609518,4
429535001,429534537,0.010398088,-0.03131381,-0.0009222587,-0.99945515,-0.95200104,-1.7576457e-09,1.6729125e-10,-0.30609518,4
430039330,430038829,0.0075009814,-0.023382604,0.0031040332,-0.9996937,-0.95200104,-1.7576457e-09,1.6729125e-10,-0.30609518,4
430538529,430538131,0.009296093,-0.028240489,-0.004168829,-0.9995492,-0.95200104,-1.7576457e-09,1.6729125e-10,-0.30609518,4
431037835,431037431,0.011099606,-0.020384906,-0.014864098,-0.9996201,-0.95200104,-1.7576457e-09,1.6729125e-10,-0.30609518,4
431537186,431536731,0.010953158,-0.025950009,0.0046526333,-0.9995924,-0.95200104,-1.7576457e-09,1.6729125e-10,-0.30609518,4
432036483,432036032,0.013422672,-0.028012661,0.0047582705,-0.9995062,-0.95200104,-1.7576457e-09,1.6729125e-10,-0.30609518,4
432535737,432535333,0.016613845,-0.029141437,-0.003738314,-0.99943024,-0.95200104,-1.7576457e-09,1.6729125e-10,-0.30609518,4
433035043,433034633,0.02350143,-0.037601292,0.0015560914,-0.9990153,-0.95200104,-1.7576457e-09,1.6729125e-10,-0.30609518,4
433539325,433538926,0.036329962,-0.0287214,-0.003254431,-0.9989218,-0.95200104,-1.7576457e-09,1.6729125e-10,-0.30609518,4
434038687,434038227,0.058032587,-0.036284134,-0.00075888407,-0.9976548,-0.95200104,-1.7576457e-09,1.6729125e-10,-0.30609518,4
434532937,434532534,0.06558051,-0.035957463,-0.001879801,-0.99719745,-0.95200104,-1.7576457e-09,1.6729125e-10,-0.30609518,4
435037277,435036827,0.059402507,-0.034718283,0.0018064274,-0.9976286,-0.95200104,-1.7576457e-09,1.6729125e-10,-0.30609518,4
435536534,435536127,0.05794429,-0.030842416,-0.0026802663,-0.9978397,-0.95200104,-1.7576457e-09,1.6729125e-10,-0.30609518,4
436035928,436035428,0.08638472,-0.036777016,-0.0034713817,-0.9955768,-0.95200104,-1.7576457e-09,1.6729125e-10,-0.30609518,4
436535137,436534728,0.120625235,-0.03353965,-0.008323164,-0.9920965,-0.95200104,-1.7576457e-09,1.6729125e-10,-0.30609518,4
437034468,437034026,0.12745833,-0.038186118,-0.009400082,-0.991064,-0.95200104,-1.7576457e-09,1.6729125e-10,-0.30609518,4
437538721,437538320,0.116223015,-0.02468727,0.0010824777,-0.9929157,-0.95200104,-1.7576457e-09,1.6729125e-10,-0.30609518,4
438033041,438032626,0.10755553,-0.022793133,-0.0041416716,-0.9939292,-0.95200104,-1.7576457e-09,1.6729125e-10,-0.30609518,4
438537362,438536918,0.10604907,-0.030531816,-0.009986586,-0.9938419,-0.95200104,-1.7576457e-09,1.6729125e-10,-0.30609518,4
439036629,439036222,0.11723883,-0.023481214,-0.0020486186,-0.9928241,-0.95200104,-1.7576457e-09,1.6729125e-10,-0.30609518,4
439535915,439535517,0.13192542,-0.025672643,0.0009407912,-0.9909267,-0.95200104,-1.7576457e-09,1.6729125e-10,-0.30609518,4
440035301,440034816,0.13323669,-0.020676775,0.020861091,-0.9906489,-0.95200104,-1.7576457e-09,1.6729125e-10,-0.30609518,4
440534511,440534115,0.12605497,-0.025897147,-0.00064925477,-0.99168503,-0.95200104,-1.7576457e-09,1.6729125e-10,-0.30609518,4
441038933,441038412,0.11953834,-0.02654869,0.0022489114,-0.992472,-0.95200104,-1.7576457e-09,1.6729125e-10,-0.30609518,4
441533172,441532714,0.12336383,-0.034992453,0.0025344738,-0.9917411,-0.95200104,-1.7576457e-09,1.6729125e-10,-0.30609518,4
442032413,442032012,0.12691511,-0.033395406,-0.003547688,-0.9913449,-0.95200104,-1.7576457e-09,1.6729125e-10,-0.30609518,4
442536800,442536305,0.12801774,-0.042195536,-0.008231127,-0.9908397,-0.95200104,-1.7576457e-09,1.6729125e-10,-0.30609518,4
443036070,443035604,0.12436172,-0.034035534,-0.0037417281,-0.99164605,-0.95200104,-1.7576457e-09,1.6729125e-10,-0.30609518,4
443535351,443534902,0.13010845,-0.034772877,-0.00950802,-0.99084425,-0.95200104,-1.7576457e-09,1.6729125e-10,-0.30609518,4
444039653,444039194,0.13067728,-0.028235232,0.001054763,-0.99102235,-0.95200104,-1.7576457e-09,1.6729125e-10,-0.30609518,4
444538901,444538492,0.12898922,-0.041814014,-0.0052500116,-0.99075013,-0.95200104,-1.7576457e-09,1.6729125e-10,-0.30609518,4
445033205,445032797,0.12706646,-0.02366289,-0.0038599854,-0.99160445,-0.95200104,-1.7576457e-09,1.6729125e-10,-0.30609518,4
445537500,445537091,0.13319,-0.034081686,-0.016004045,-0.9903751,-0.95200104,-1.7576457e-09,1.6729125e-10,-0.30609518,4
446036798,446036387,0.15249778,-0.032413557,-0.007085049,-0.9877468,-0.95200104,-1.7576457e-09,1.6729125e-10,-0.30609518,4
446536076,446535684,0.1689986,-0.032931227,0.0007632841,-0.98506576,-0.95200104,-1.7576457e-09,1.6729125e-10,-0.30609518,4
447035436,447035030,0.17063844,-0.048490062,-0.011013669,-0.9840783,-0.95200104,-1.7576457e-09,1.6729125e-10,-0.30609518,4
447534744,447534280,0.16665491,-0.01433454,0.0019750486,-0.9859091,-0.95200104,-1.7576457e-09,1.6729125e-10,-0.30609518,4
448039008,448038571,0.16197164,-0.023717415,0.004620874,-0.9864996,-0.95200104,-1.7576457e-09,1.6729125e-10,-0.30609518,4
448538325,448537870,0.16220246,-0.021184592,-0.0006757613,-0.9865298,-0.95200104,-1.7576457e-09,1.6729125e-10,-0.30609518,4
449032575,449032173,0.16558468,-0.021561863,-0.0033808497,-0.9859541,-0.95200104,-1.7576457e-09,1.6729125e-10,-0.30609518,4
449536950,449536463,0.1665297,-0.017664718,0.0014722071,-0.9858771,-0.95200104,-1.7576457e-09,1.6729125e-10,-0.30609518,4
450036185,450035761,0.16489941,-0.0221745,-0.0033508262,-0.98605543,-0.95200104,-1.7576457e-09,1.6729125e-10,-0.30609518,4
450535472,450535058,0.1618837,-0.022059655,-0.0014235552,-0.9865622,-0.95200104,-1.7576457e-09,1.6729125e-10,-0.30609518,4
451034801,451034355,0.16279133,-0.026141595,-0.005244697,-0.9863003,-0.95200104,-1.7576457e-09,1.6729125e-10,-0.30609518,4
451539046,451538650,0.16173032,-0.021581855,-0.0049690055,-0.9865865,-0.95200104,-1.7576457e-09,1.6729125e-10,-0.30609518,4
452038430,452037943,0.16431649,-0.023677725,-0.0048946925,-0.9861114,-0.95200104,-1.7576457e-09,1.6729125e-10,-0.30609518,4
452532727,452532247,0.17091306,-0.023630053,-0.0014910406,-0.9850016,-0.95200104,-1.7576457e-09,1.6729125e-10,-0.30609518,4
453036988,453036538,0.17031771,-0.028478935,-0.008107572,-0.9849442,-0.95200104,-1.7576457e-09,1.6729125e-10,-0.30609518,4
453536280,453535833,0.16771677,-0.021428145,0.006767576,-0.98557913,-0.95200104,-1.7576457e-09,1.6729125e-10,-0.30609518,4
454035573,454035130,0.16597426,-0.031697106,-0.005173481,-0.98560697,-0.95200104,-1.7576457e-09,1.6729125e-10,-0.30609518,4
454534835,454534427,0.16289656,-0.022448592,0.0012859758,-0.9863869,-0.95200104,-1.7576457e-09,1.6729125e-10,-0.30609518,4
455039110,455038716,0.16136828,-0.028315304,-0.0050938674,-0.9864748,-0.95200104,-1.7576457e-09,1.6729125e-10,-0.30609518,4
455533439,455533022,0.15992914,-0.029901955,-0.006543055,-0.98665386,-0.95200104,-1.7576457e-09,1.6729125e-10,-0.30609518,4
456032778,456032316,0.15731128,-0.03167503,-0.008439528,-0.98700494,-0.95200104,-1.7576457e-09,1.6729125e-10,-0.30609518,4
456537046,456536609,0.15592152,-0.036542255,-0.0027466381,-0.98708946,-0.95200104,-1.7576457e-09,1.6729125e-10,-0.30609518,4
457036309,457035902,0.15510762,-0.026436588,0.0012769606,-0.987543,-0.95200104,-1.7576457e-09,1.6729125e-10,-0.30609518,4
457535661,457535199,0.1351588,-0.013773428,-0.00028804367,-0.9907282,-0.95200104,-1.7576457e-09,1.6729125e-10,-0.30609518,4
458039898,458039491,0.083757296,-0.021147955,-0.00079087523,-0.9962614,-0.95200104,-1.7576457e-09,1.6729125e-10,-0.30609518,4
458539177,458538783,0.025467273,-0.0123738935,0.018162565,-0.99943405,-0.95200104,-1.7576457e-09,1.6729125e-10,-0.30609518,4
459033506,459033089,-0.02825859,-0.022794195,0.0026079528,-0.9993373,-0.95200104,-1.7576457e-09,1.6729125e-10,-0.30609518,4
459532886,459532386,-0.06884385,-0.026884256,0.007570464,-0.9972365,-0.95200104,-1.7576457e-09,1.6729125e-10,-0.30609518,4
460037119,460036671,-0.12029545,-0.036799937,0.009510126,-0.99201024,-0.95200104,-1.7576457e-09,1.6729125e-10,-0.30609518,4
460536419,460535966,-0.16591656,-0.031716798,0.008205794,-0.98559546,-0.95200104,-1.7576457e-09,1.6729125e-10,-0.30609518,4
461035720,461035266,-0.18266605,-0.04480056,0.00734816,-0.98212636,-0.95200104,-1.7576457e-09,1.6729125e-10,-0.30609518,4
461535021,461534559,-0.22269198,-0.0402932,0.018847652,-0.9738735,-0.95200104,-1.7576457e-09,1.6729125e-10,-0.30609518,4
462039284,462038846,-0.29059374,-0.027050847,0.042504624,-0.95551926,-0.95200104,-1.7576457e-09,1.6729125e-10,-0.30609518,4
462538542,462538143,-0.34766078,-0.04474044,0.028466534,-0.9361197,-0.95200104,-1.7576457e-09,1.6729125e-10,-0.30609518,4
463032848,463032445,-0.38163352,-0.046264537,0.03058872,-0.92264825,-0.95200104,-1.7576457e-09,1.6729125e-10,-0.30609518,4
463537130,463536733,-0.39969304,-0.049951483,0.02360143,-0.91498274,-0.95200104,-1.7576457e-09,1.6729125e-10,-0.30609518,4
464036475,464036029,-0.41886777,-0.056809805,0.023782488,-0.9059563,-0.95200104,-1.7576457e-09,1.6729125e-10,-0.30609518,4
464535779,464535324,-0.43640816,-0.052689992,0.023684055,-0.8978924,-0.95200104,-1.7576457e-09,1.6729125e-10,-0.30609518,4
465035074,465034623,-0.47217032,-0.046838757,0.02483926,-0.87991154,-0.95200104,-1.7576457e-09,1.6729125e-10,-0.30609518,4
465539364,465538907,-0.51181704,-0.0541304,0.017659033,-0.85720557,-0.95200104,-1.7576457e-09,1.6729125e-10,-0.30609518,4
466033710,466033209,-0.53754455,-0.030326499,0.03470454,-0.84197503,-0.95200104,-1.7576457e-09,1.6729125e-10,-0.30609518,4
466532907,466532504,-0.56274676,-0.045361776,0.027627368,-0.82492125,-0.95200104,-1.7576457e-09,1.6729125e-10,-0.30609518,4
467037308,467036792,-0.5925436,-0.03776426,0.022153055,-0.8043478,-0.95200104,-1.7576457e-09,1.6729125e-10,-0.30609518,4
467536510,467536103,-0.60447544,-0.029705914,0.011195165,-0.79599106,-0.95200104,-1.7576457e-09,1.6729125e-10,-0.30609518,4
468035792,468035382,-0.60847056,-0.02312313,0.024437318,-0.79286295,-0.95200104,-1.7576457e-09,1.6729125e-10,-0.30609518,4
468535173,468534677,-0.6138165,-0.038333785,0.012214262,-0.7884228,-0.95200104,-1.7576457e-09,1.6729125e-10,-0.30609518,4
469039390,469038990,-0.62733805,-0.034367986,0.01701936,-0.77780217,-0.95200104,-1.7576457e-09,1.6729125e-10,-0.30609518,4
469538664,469538259,-0.6474528,-0.04188136,0.018448327,-0.7607303,-0.95200104,-1.7576457e-09,1.6729125e-10,-0.30609518,4
470032963,470032561,-0.66303396,-0.027282719,0.015967498,-0.74792165,-0.95200104,-1.7576457e-09,1.6729125e-10,-0.30609518,4
470537250,470536849,-0.66427696,-0.036511075,-0.000106074,-0.74659437,-0.95200104,-1.7576457e-09,1.6729125e-10,-0.30609518,4
471036594,471036143,-0.65884626,-0.017976629,0.017492475,-0.75185937,-0.95200104,-1.7576457e-09,1.6729125e-10,-0.30609518,4
471535927,471535485,-0.6532878,-0.021372017,0.009943314,-0.7567427,-0.95200104,-1.7576457e-09,1.6729125e-10,-0.30609518,4
473038719,473038314,-0.66067535,-0.024865525,-0.006042656,-0.75023556,-0.95200104,-1.7576457e-09,1.6729125e-10,-0.30609518,4
473533023,473532616,-0.6638368,-0.02595937,0.012054815,-0.7473296,-0.95200104,-1.7576457e-09,1.6729125e-10,-0.30609518,4
474037347,474036902,-0.66370684,-0.024915462,0.015119519,-0.7474249,-0.95200104,-1.7576457e-09,1.6729125e-10,-0.30609518,4
474536597,474536196,-0.6634795,-0.023381941,0.017556237,-0.74762297,-0.95200104,-1.7576457e-09,1.6729125e-10,-0.30609518,4
475035890,475035491,-0.6659807,-0.025108268,0.021032019,-0.7452496,-0.95200104,-1.7576457e-09,1.6729125e-10,-0.30609518,4
475535289,475534785,-0.66980374,-0.020768091,0.017562855,-0.7420399,-0.95200104,-1.7576457e-09,1.6729125e-10,-0.30609518,4
476039475,476039072,-0.6800779,-0.031239567,0.013516731,-0.7323493,-0.95200104,-1.7576457e-09,1.6729125e-10,-0.30609518,4
476533843,476533373,-0.68632084,-0.033314932,0.006259969,-0.7265085,-0.95200104,-1.7576457e-09,1.6729125e-10,-0.30609518,4
477033154,477032713,-0.6881753,-0.031486064,-0.0038884177,-0.72485054,-0.95200104,-1.7576457e-09,1.6729125e-10,-0.30609518,4
477537357,477536953,-0.6857115,-0.022244966,0.012086787,-0.7274331,-0.95200104,-1.7576457e-09,1.6729125e-10,-0.30609518,4
478036706,478036247,-0.6833044,-0.017228061,0.016523965,-0.72974324,-0.95200104,-1.7576457e-09,1.6729125e-10,-0.30609518,4
478535966,478535540,-0.69425327,-0.023737462,0.024798049,-0.71891177,-0.95200104,-1.7576457e-09,1.6729125e-10,-0.30609518,4
479035230,479034834,-0.7093738,-0.020675883,0.020258678,-0.7042379,-0.95200104,-1.7576457e-09,1.6729125e-10,-0.30609518,4
479539583,479539126,-0.7172629,-0.012213418,0.013199232,-0.6965706,-0.95200104,-1.7576457e-09,1.6729125e-10,-0.30609518,4
480038832,480038415,-0.71715957,-0.01159444,0.007954239,-0.6967672,-0.95200104,-1.7576457e-09,1.6729125e-10,-0.30609518,4
480533136,480532729,-0.7147777,-1.2414805e-06,-0.001102984,-0.6993509,-0.95200104,-1.7576457e-09,1.6729125e-10,-0.30609518,4
481037445,481037019,-0.71451455,-0.0099641215,0.01283892,-0.6994318,-0.95200104,-1.7576457e-09,1.6729125e-10,-0.30609518,4
481536706,481536296,-0.7121833,-0.008634205,0.011974216,-0.7018383,-0.95200104,-1.7576457e-09,1.6729125e-10,-0.30609518,4
482035984,482035589,-0.71254367,-0.01583113,0.0070869355,-0.70141333,-0.95200104,-1.7576457e-09,1.6729125e-10,-0.30609518,4
482535317,482534882,-0.71882516,-0.019314338,0.020239562,-0.69462776,-0.95200104,-1.7576457e-09,1.6729125e-10,-0.30609518,4
483039580,483039168,-0.7219101,-0.018823199,0.022208892,-0.6913743,-0.95200104,-1.7576457e-09,1.6729125e-10,-0.30609518,4
483538912,483538461,-0.71896404,-0.017354764,0.010866087,-0.6947457,-0.95200104,-1.7576457e-09,1.6729125e-10,-0.30609518,4
484033228,484032789,-0.7144361,-0.03438324,0.010303657,-0.69877946,-0.95200104,-1.7576457e-09,1.6729125e-10,-0.30609518,4
484537457,484537048,-0.7160722,-0.019793598,0.0238026,-0.6973395,-0.95200104,-1.7576457e-09,1.6729125e-10,-0.30609518,4
485036783,485036340,-0.71648425,-0.015900709,0.023395872,-0.69702953,-0.95200104,-1.7576457e-09,1.6729125e-10,-0.30609518,4
485536117,485535634,-0.71434945,-0.010027168,0.03973939,-0.698588,-0.95200104,-1.7576457e-09,1.6729125e-10,-0.30609518,4
486035331,486034927,-0.7125033,-0.024468219,0.021075597,-0.70092523,-0.95200104,-1.7576457e-09,1.6729125e-10,-0.30609518,4
486539630,486539213,-0.71659356,-0.026497763,0.034530114,-0.69613165,-0.95200104,-1.7576457e-09,1.6729125e-10,-0.30609518,4
487038950,487038505,-0.72216696,-0.003517797,0.02142888,-0.6913779,-0.95200104,-1.7576457e-09,1.6729125e-10,-0.30609518,4
487533244,487532806,-0.72149587,-0.0161065,0.020276202,-0.69193435,-0.95200104,-1.7576457e-09,1.6729125e-10,-0.30609518,4
488037494,488037091,-0.7148672,-0.004135961,0.0026373302,-0.6992431,-0.95200104,-1.7576457e-09,1.6729125e-10,-0.30609518,4
488536791,488536384,-0.71880716,0.006643325,0.008938288,-0.69512033,-0.95200104,-1.7576457e-09,1.6729125e-10,-0.30609518,4
489036165,489035715,-0.74429536,0.02834596,0.013091548,-0.6671204,-0.95200104,-1.7576457e-09,1.6729125e-10,-0.30609518,4
489535375,489534969,-0.7567178,0.003192153,0.0001400789,-0.6537339,-0.95200104,-1.7576457e-09,1.6729125e-10,-0.30609518,4
490039721,490039262,-0.7537418,0.00023266481,0.0035049396,-0.6571615,-0.95200104,-1.7576457e-09,1.6729125e-10,-0.30609518,4
490534011,490533555,-0.7516353,-0.006574815,0.007141936,-0.6595075,-0.95200104,-1.7576457e-09,1.6729125e-10,-0.30609518,4
491033298,491032851,-0.75742984,-0.0057689156,0.009709669,-0.6528189,-0.95200104,-1.7576457e-09,1.6729125e-10,-0.30609518,4
491537539,491537133,-0.7680162,-0.011381616,0.007871695,-0.64028084,-0.95200104,-1.7576457e-09,1.6729125e-10,-0.30609518,4
492036825,492036425,-0.77511555,-0.023401381,0.024849694,-0.6308968,-0.95200104,-1.7576457e-09,1.6729125e-10,-0.30609518,4
492536167,492535718,-0.7797715,-0.021209698,0.02877426,-0.62504286,-0.95200104,-1.7576457e-09,1.6729125e-10,-0.30609518,4
493035412,493035010,-0.79002,-0.023804236,0.022529049,-0.61220443,-0.95200104,-1.7576457e-09,1.6729125e-10,-0.30609518,4
493539707,493539295,-0.7918816,-0.017671714,0.024181057,-0.6099398,-0.95200104,-1.7576457e-09,1.6729125e-10,-0.30609518,4
494038983,494038588,-0.7920031,0.0120264,0.010042677,-0.6103159,-0.95200104,-1.7576457e-09,1.6729125e-10,-0.30609518,4
494533327,494532887,-0.7995966,0.01297306,0.011070225,-0.6002954,-0.95200104,-1.7576457e-09,1.6729125e-10,-0.30609518,4
495037585,495037172,-0.80227226,-0.00019198423,0.00015408787,-0.59695846,-0.95200104,-1.7576457e-09,1.6729125e-10,-0.30609518,4
495536866,495536465,-0.8010997,-0.0018253938,1.9503597e-05,-0.5985281,-0.95200104,-1.7576457e-09,1.6729125e-10,-0.30609518,4
496036214,496035757,-0.7976364,-0.0100814905,-0.0075548054,-0.6030072,-0.95200104,-1.7576457e-09,1.6729125e-10,-0.30609518,4
496535454,496535049,-0.79803115,-0.0004172353,0.005719017,-0.6025891,-0.95200104,-1.7576457e-09,1.6729125e-10,-0.30609518,4
497039786,497039334,-0.79969156,-0.0025538947,0.0026102576,-0.60040003,-0.95200104,-1.7576457e-09,1.6729125e-10,-0.30609518,4
497534131,497533634,-0.79953617,-0.020951457,0.023063172,-0.59980917,-0.95200104,-1.7576457e-09,1.6729125e-10,-0.30609518,4
498033326,498032926,-0.8009306,-0.020896763,0.030987479,-0.5975896,-0.95200104,-1.7576457e-09,1.6729125e-10,-0.30609518,4
498537677,498537211,-0.80621773,-0.023461016,0.04245524,-0.5896272,-0.95200104,-1.7576457e-09,1.6729125e-10,-0.30609518,4
499036947,499036503,-0.80827713,-0.026170429,0.042932894,-0.5866516,-0.95200104,-1.7576457e-09,1.6729125e-10,-0.30609518,4
499536202,499535796,-0.81101817,-0.018234696,0.044562183,-0.5830363,-0.95200104,-1.7576457e-09,1.6729125e-10,-0.30609518,4
500035607,500035088,-0.81023633,-0.019121394,0.050671533,-0.58359563,-0.95200104,-1.7576457e-09,1.6729125e-10,-0.30609518,4
500539786,500539373,-0.801049,-0.0206896,0.049394652,-0.5961985,-0.95200104,-1.7576457e-09,1.6729125e-10,-0.30609518,4
501034077,501033673,-0.8036098,-0.022276567,0.036713906,-0.59360534,-0.95200104,-1.7576457e-09,1.6729125e-10,-0.30609518,4
501533463,501532965,-0.8356698,-0.008320428,0.032834027,-0.5481867,-0.95200104,-1.7576457e-09,1.6729125e-10,-0.30609518,4
502037657,502037250,-0.85818243,0.0013239552,0.010304162,-0.5132398,-0.95200104,-1.7576457e-09,1.6729125e-10,-0.30609518,4
502536980,502536543,-0.883422,-0.010627593,0.02051005,-0.4680085,-0.95200104,-1.7576457e-09,1.6729125e-10,-0.30609518,4
503036249,503035851,-0.90571165,-0.0015173557,0.026737893,-0.4230474,-0.95200104,-1.7576457e-09,1.6729125e-10,-0.30609518,4
503535544,503535127,-0.93193257,-0.0050052176,0.012221422,-0.36239105,-0.95200104,-1.7576457e-09,1.6729125e-10,-0.30609518,4
504039857,504039412,-0.9674122,0.019262893,0.006081014,-0.25240025,-0.95200104,-1.7576457e-09,1.6729125e-10,-0.30609518,4
504539135,504538705,-0.99042606,-0.011659191,0.022678215,-0.13566904,-0.95200104,-1.7576457e-09,1.6729125e-10,-0.30609518,4
505033425,505033007,-0.99754506,0.014604576,0.029382205,-0.061865162,-0.95200104,-1.7576457e-09,1.6729125e-10,-0.30609518,4
505537742,505537289,-0.9989866,-0.011285502,0.040020876,-0.017229062,-0.95200104,-1.7576457e-09,1.6729125e-10,-0.30609518,4
506037032,506036586,-0.99860567,-0.006770491,0.04250562,0.03056591,-0.95200104,-1.7576457e-09,1.6729125e-10,-0.30609518,4
506536279,506535874,-0.99734694,0.013650755,0.03373451,0.06304621,-0.95200104,-1.7576457e-09,1.6729125e-10,-0.30609518,4
507035620,507035167,-0.9954018,0.0053771315,0.042350996,0.0857491,-0.95200104,-1.7576457e-09,1.6729125e-10,-0.30609518,4
507539872,507539457,-0.98966897,0.0073261745,0.034597024,0.13894185,-0.95200104,-1.7576457e-09,1.6729125e-10,-0.30609518,4
508034157,508033750,-0.9828627,-0.00067075144,0.034400687,0.18109997,-0.95200104,-1.7576457e-09,1.6729125e-10,-0.30609518,4
508533488,508533043,-0.9796393,-0.007964494,0.032383025,0.19797696,-0.95200104,-1.7576457e-09,1.6729125e-10,-0.30609518,4
509037752,509037328,-0.98061293,0.010441514,0.022738032,0.19435135,-0.95200104,-1.7576457e-09,1.6729125e-10,-0.30609518,4
509537116,509536624,-0.97831124,0.004779921,0.02889454,0.20505968,-0.95200104,-1.7576457e-09,1.6729125e-10,-0.30609518,4
510036323,510035915,-0.9778632,-0.015193061,0.031974368,0.20622937,-0.95200104,-1.7576457e-09,1.6729125e-10,-0.30609518,4
510535613,510535204,-0.97794926,-0.011603482,0.023472214,0.20719488,-0.95200104,-1.7576457e-09,1.6729125e-10,-0.30609518,4
511034953,511034496,-0.97982347,-0.006122935,0.021659892,0.19859348,-0.95200104,-1.7576457e-09,1.6729125e-10,-0.30609518,4
511534186,511533789,-0.9816011,-0.0002942699,0.0113527225,0.19060537,-0.95200104,-1.7576457e-09,1.6729125e-10,-0.30609518,4
512033545,512033081,-0.9818797,0.0047691427,0.012007581,0.18906456,-0.95200104,-1.7576457e-09,1.6729125e-10,-0.30609518,4
512537827,512537370,-0.9810674,0.003424439,0.02005529,0.19259517,-0.95200104,-1.7576457e-09,1.6729125e-10,-0.30609518,4
513037053,513036658,-0.98020935,-0.005734084,0.018100878,0.1970512,-0.95200104,-1.7576457e-09,1.6729125e-10,-0.30609518,4
513536355,513535952,-0.9805646,-0.009401128,0.022316383,0.19469646,-0.95200104,-1.7576457e-09,1.6729125e-10,-0.30609518,4
514035740,514035246,-0.9818368,0.0035874234,0.02278326,0.18832065,-0.95200104,-1.7576457e-09,1.6729125e-10,-0.30609518,4
514534939,514534535,-0.98227197,0.008060382,0.031188542,0.1846731,-0.95200104,-1.7576457e-09,1.6729125e-10,-0.30609518,4
515034228,515033826,-0.98278284,0.010725223,0.01675266,0.18369047,-0.95200104,-1.7576457e-09,1.6729125e-10,-0.30609518,4
515533642,515533122,-0.98385024,-0.012664435,0.024610972,0.17684078,-0.95200104,-1.7576457e-09,1.6729125e-10,-0.30609518,4
516037872,516037406,-0.98556376,-0.005908156,0.01644822,0.16840029,-0.95200104,-1.7576457e-09,1.6729125e-10,-0.30609518,4
516537166,516536696,-0.9863247,-0.007172811,0.008535586,0.16443652,-0.95200104,-1.7576457e-09,1.6729125e-10,-0.30609518,4
517036453,517035988,-0.98842543,-0.0007665084,0.028539618,0.14899732,-0.95200104,-1.7576457e-09,1.6729125e-10,-0.30609518,4
517535731,517535279,-0.99136347,-0.000757737,0.024985755,0.12873861,-0.95200104,-1.7576457e-09,1.6729125e-10,-0.30609518,4
518035011,518034572,-0.99372154,0.0024525572,0.017037466,0.11055007,-0.95200104,-1.7576457e-09,1.6729125e-10,-0.30609518,4
518534289,518533864,-0.99716294,-0.024651147,0.020658217,0.06805641,-0.95200104,-1.7576457e-09,1.6729125e-10,-0.30609518,4
519033581,519033164,-0.9997442,-0.0036673604,0.014548559,0.01692429,-0.95200104,-1.7576457e-09,1.6729125e-10,-0.30609518,4
519537860,519537442,-0.99964434,-0.007295384,0.020601116,-0.015284204,-0.95200104,-1.7576457e-09,1.6729125e-10,-0.30609518,4
520037133,520036731,-0.99813586,-0.0054218154,0.014218336,-0.05910443,-0.95200104,-1.7576457e-09,1.6729125e-10,-0.30609518,4
520536522,520536024,-0.9917138,-0.011942525,0.014020509,-0.12714012,-0.95200104,-1.7576457e-09,1.6729125e-10,-0.30609518,4
521035733,521035315,-0.9789904,-0.010268864,0.0115451785,-0.20332056,-0.95200104,-1.7576457e-09,1.6729125e-10,-0.30609518,4
521535057,521534608,-0.96482414,-0.013390017,0.006562792,-0.26247314,-0.95200104,-1.7576457e-09,1.6729125e-10,-0.30609518,4
522034413,522033899,-0.94579035,0.0005461908,0.0075282785,-0.32469013,-0.95200104,-1.7576457e-09,1.6729125e-10,-0.30609518,4
522533603,522533190,-0.91903245,-0.00091099006,0.0022447922,-0.3941744,-0.95200104,-1.7576457e-09,1.6729125e-10,-0.30609518,4
523032891,523032482,-0.88679343,-0.0018367352,-0.0045529064,-0.4621399,-0.95200104,-1.7576457e-09,1.6729125e-10,-0.30609518,4
523537184,523536767,-0.86221254,-0.0021446012,0.0031137492,-0.5065327,-0.95200104,-1.7576457e-09,1.6729125e-10,-0.30609518,4
524036507,524036059,-0.864156,-0.008709401,-0.0040850397,-0.50313205,-0.95200104,-1.7576457e-09,1.6729125e-10,-0.30609518,4
524535753,524535350,-0.8724593,-6.599649e-05,0.004668365,-0.4886645,-0.95200104,-1.7576457e-09,1.6729125e-10,-0.30609518,4
525035058,525034660,-0.8699275,0.008527137,0.0076552723,-0.49304646,-0.95200104,-1.7576457e-09,1.6729125e-10,-0.30609518,4
525534344,525533933,-0.8581472,0.015417068,0.01028024,-0.5130693,-0.95200104,-1.7576457e-09,1.6729125e-10,-0.30609518,4
526033694,526033226,-0.85258573,-0.001863883,-2.1527638e-05,-0.52258396,-0.95200104,-1.7576457e-09,1.6729125e-10,-0.30609518,4
526532961,526532517,-0.8532436,0.013750647,0.029570667,-0.52049196,-0.95200104,-1.7576457e-09,1.6729125e-10,-0.30609518,4
527037194,527036801,-0.86070645,-0.00070140784,0.04176996,-0.5073848,-0.95200104,-1.7576457e-09,1.6729125e-10,-0.30609518,4
527536539,527536093,-0.8622181,0.026088303,0.04621543,-0.50374967,-0.95200104,-1.7576457e-09,1.6729125e-10,-0.30609518,4
528035788,528035384,-0.8573934,-0.008846455,0.026933303,-0.5138802,-0.95200104,-1.7576457e-09,1.6729125e-10,-0.30609518,4
528535076,528534677,-0.8546349,0.0028750207,0.024521822,-0.51864225,-0.95200104,-1.7576457e-09,1.6729125e-10,-0.30609518,4
529039375,529038961,-0.8550155,-0.008981717,0.02030785,-0.518127,-0.95200104,-1.7576457e-09,1.6729125e-10,-0.30609518,4
529533677,529533259,-0.85568035,0.009028905,0.024094481,-0.51686466,-0.95200104,-1.7576457e-09,1.6729125e-10,-0.30609518,4
530032957,530032551,-0.8589069,0.009695085,0.023399284,-0.5115052,-0.95200104,-1.7576457e-09,1.6729125e-10,-0.30609518,4
530537232,530536835,-0.85876197,0.003017316,0.0180137,-0.5120492,-0.95200104,-1.7576457e-09,1.6729125e-10,-0.30609518,4
531036591,531036133,-0.8590893,-0.0025929303,0.021795213,-0.51135486,-0.95200104,-1.7576457e-09,1.6729125e-10,-0.30609518,4
531535876,531535419,-0.8601588,0.00297248,0.029562853,-0.5091602,-0.95200104,-1.7576457e-09,1.6729125e-10,-0.30609518,4
532035113,532034711,-0.8589313,-0.0034203497,0.025283402,-0.51145476,-0.95200104,-1.7576457e-09,1.6729125e-10,-0.30609518,4
532534408,532534002,-0.8591557,-0.006382614,0.025955562,-0.51101583,-0.95200104,-1.7576457e-09,1.6729125e-10,-0.30609518,4
533033765,533033295,-0.86507523,0.012107097,0.02240824,-0.50099534,-0.95200104,-1.7576457e-09,1.6729125e-10,-0.30609518,4
533533002,533532589,-0.8724375,-0.0018769614,0.022396835,-0.48820865,-0.95200104,-1.7576457e-09,1.6729125e-10,-0.30609518,4
534037380,534036871,-0.8704006,0.003645115,0.021906285,-0.49184316,-0.95200104,-1.7576457e-09,1.6729125e-10,-0.30609518,4
534536569,534536167,-0.8636992,0.0069220583,0.021819727,-0.5034875,-0.95200104,-1.7576457e-09,1.6729125e-10,-0.30609518,4
535035916,535035455,-0.8609064,0.0036807996,0.013449769,-0.50857234,-0.95200104,-1.7576457e-09,1.6729125e-10,-0.30609518,4
535535159,535534748,-0.8617684,-0.0031401499,0.01087566,-0.5071756,-0.95200104,-1.7576457e-09,1.6729125e-10,-0.30609518,4
536034470,536034061,-0.8608297,-0.00742355,0.017001417,-0.508555,-0.95200104,-1.7576457e-09,1.6729125e-10,-0.30609518,4
536533740,536533330,-0.8599276,-0.006224979,0.007336334,-0.5103254,-0.95200104,-1.7576457e-09,1.6729125e-10,-0.30609518,4
537033068,537032622,-0.8602777,-0.0069050286,0.013574223,-0.5095984,-0.95200104,-1.7576457e-09,1.6729125e-10,-0.30609518,4
537537309,537536908,-0.8619563,-0.006219092,0.010537041,-0.50683486,-0.95200104,-1.7576457e-09,1.6729125e-10,-0.30609518,4
