timestamp,timestamp_sample,states[0],states[1],states[2],states[3],states[4],states[5],states[6],states[7],states[8],states[9],states[10],states[11],states[12],states[13],states[14],states[15],states[16],states[17],states[18],states[19],states[20],states[21],states[22],states[23],covariances[0],covariances[1],covariances[2],covariances[3],covariances[4],covariances[5],covariances[6],covariances[7],covariances[8],covariances[9],covariances[10],covariances[11],covariances[12],covariances[13],covariances[14],covariances[15],covariances[16],covariances[17],covariances[18],covariances[19],covariances[20],covariances[21],covariances[22],covariances[23],n_states
294528091,294527664,-0.8340587,0.00043565946,-0.0064744735,0.5516377,-0.106106386,0.087040074,0.1638145,-0.04060833,0.040427197,-8.453277,-1.30458075e-05,1.0552902e-05,6.885934e-05,0.0001504521,-0.00037797724,-0.00046818456,0.27570605,0.024625888,0.25227934,-0.039137006,-0.0471046,-0.053153116,0.0,0.0,1.3977943e-05,4.50576e-06,4.5054067e-06,2.1312573e-05,0.015490845,0.015493978,0.015949365,0.047616076,0.047618583,0.25294104,2.053864e-11,2.053921e-11,3.2785354e-11,6.922635e-08,5.000036e-08,5e-08,0.0,0.0,0.0,0.0,0.0,0.0,0.0,0.0,24
295537712,295537072,-0.8325031,-0.00067018694,-0.0071907705,0.55397344,-0.19551763,0.14245746,0.19532293,-0.18254328,0.15457259,-8.395734,-1.3050783e-05,1.0619004e-05,6.6944216e-05,0.00015044356,-0.00037798053,-0.0004820855,0.27570605,0.024625888,0.25227934,-0.039137006,-0.0471046,-0.053153116,0.0,0.0,1.4006456e-05,5.3844938e-06,5.3840627e-06,2.1275693e-05,0.024510615,0.024619358,0.016044758,0.098137096,0.09816513,0.25721705,2.1340337e-11,2.1340986e-11,3.279287e-11,6.923421e-08,5.0008246e-08,5e-08,0.0,0.0,0.0,0.0,0.0,0.0,0.0,0.0,24
299531187,299530756,-0.84321153,0.021481773,0.0151648475,0.5369386,-0.68473566,0.42585424,0.11727525,-2.068152,1.430527,-8.829397,-1.3131048e-05,1.1026013e-05,5.259245e-05,0.000141953,-0.00038190655,-0.00061152887,0.27570605,0.024625888,0.25227934,-0.039137006,-0.0471046,-0.053153116,0.0,0.0,1.3527148e-05,1.0295109e-05,1.03055e-05,2.1905249e-05,0.12578899,0.12855601,0.015611114,1.4702733,1.4861246,0.25373352,2.4946703e-11,2.49475e-11,3.2864e-11,6.899255e-08,5.0001145e-08,5.0000093e-08,0.0,0.0,0.0,0.0,0.0,0.0,0.0,0.0,24
300536198,300535847,-0.84122366,0.01639224,0.0062652794,0.5404024,-0.4518279,0.17418665,0.113797285,-2.43941,1.5098498,-8.922587,-1.3296401e-05,1.1422422e-05,4.3441676e-05,0.00013215844,-0.00038687233,-0.0007067608,0.27570605,0.024625888,0.25227934,-0.039137006,-0.0471046,-0.053153116,0.0,0.0,1.39736485e-05,1.1345394e-05,1.1355395e-05,2.1505795e-05,0.16049571,0.16403301,0.015518093,2.280424,2.3087335,0.25146356,2.5552258e-11,2.5554387e-11,3.2874096e-11,6.8610355e-08,5.0000956e-08,5.000009e-08,0.0,0.0,0.0,0.0,0.0,0.0,0.0,0.0,24
301537401,301536736,-0.84010863,0.011183762,0.008741059,0.5422326,-0.36347687,0.0686457,0.056649473,-2.5438645,1.3826224,-9.123094,-1.3579538e-05,1.1845146e-05,3.299958e-05,0.000119215416,-0.00039419916,-0.0008164598,0.27570605,0.024625888,0.25227934,-0.039137006,-0.0471046,-0.053153116,0.0,0.0,1.4413083e-05,1.2141824e-05,1.215106e-05,2.1110347e-05,0.19186017,0.19583698,0.015509231,3.22754,3.2690024,0.24941412,2.5955507e-11,2.5962675e-11,3.2882412e-11,6.7973836e-08,5.0000594e-08,5e-08,0.0,0.0,0.0,0.0,0.0,0.0,0.0,0.0,24
303529775,303528989,-0.84254265,0.0069057606,-0.006549762,0.53854567,-0.5691998,0.41993678,0.17908345,-2.4534383,1.2654153,-9.384637,-1.436203e-05,1.2888401e-05,8.003389e-06,9.045206e-05,-0.0004123874,-0.0010832585,0.27570605,0.024625888,0.25227934,-0.039137006,-0.0471046,-0.053153116,0.0,0.0,1.5138247e-05,1.2929491e-05,1.2966583e-05,2.0423335e-05,0.22573204,0.22920504,0.015901487,4.9834623,5.037005,0.25042933,2.6267613e-11,2.6305999e-11,3.2880313e-11,6.611844e-08,5.0000157e-08,5e-08,0.0,0.0,0.0,0.0,0.0,0.0,0.0,0.0,24
305530536,305530163,-0.8662054,0.0101407375,0.005950495,0.4995498,-0.46362153,0.30976626,0.1962092,-2.3720002,1.3055112,-9.470356,-1.507181e-05,1.373792e-05,-1.39100985e-05,6.128284e-05,-0.00042898298,-0.001318157,0.27570605,0.024625888,0.25227934,-0.039137006,-0.0471046,-0.053153116,0.0,0.0,1.4223403e-05,1.3603624e-05,1.3697721e-05,2.1327549e-05,0.2393462,0.24157141,0.016724257,6.3459296,6.394434,0.2539948,2.659195e-11,2.6683105e-11,3.288098e-11,6.440203e-08,5.000135e-08,5.000009e-08,0.0,0.0,0.0,0.0,0.0,0.0,0.0,0.0,24
306531429,306530776,-0.87545824,0.009889116,0.005576306,0.48316032,-0.36077935,0.28305343,0.1494566,-2.1104734,1.1885467,-9.453009,-1.5435986e-05,1.4158063e-05,-2.3536018e-05,4.729703e-05,-0.00043642332,-0.0014206971,0.27570605,0.024625888,0.25227934,-0.039137006,-0.0471046,-0.053153116,0.0,0.0,1.3759828e-05,1.3851604e-05,1.3982274e-05,2.1666492e-05,0.23524967,0.23662913,0.017126568,6.5665374,6.60521,0.25381404,2.6722487e-11,2.6846986e-11,3.2853328e-11,6.3635966e-08,5.0001074e-08,5e-08,0.0,0.0,0.0,0.0,0.0,0.0,0.0,0.0,24
307532065,307531434,-0.87719023,0.009874818,0.0070913346,0.4799891,-0.25835815,0.23315144,0.24442057,-1.8114065,1.0706025,-9.571974,-1.575573e-05,1.45150125e-05,-3.2113618e-05,3.5391877e-05,-0.00044212936,-0.0015115134,0.27570605,0.024625888,0.25227934,-0.039137006,-0.0471046,-0.053153116,0.0,0.0,1.3709079e-05,1.4196041e-05,1.4372047e-05,2.1547577e-05,0.23040266,0.23113522,0.017707868,6.6403427,6.669107,0.25938925,2.6910245e-11,2.7067402e-11,3.2817183e-11,6.3037184e-08,5.0000835e-08,5e-08,0.0,0.0,0.0,0.0,0.0,0.0,0.0,0.0,24
308537398,308536601,-0.8940435,0.01888862,0.026365101,0.4468048,-0.014982969,0.026052386,0.06611956,-1.4587618,0.9001026,-9.651571,-1.6030877e-05,1.4826037e-05,-4.022072e-05,2.5898424e-05,-0.0004461506,-0.0015970528,0.27570605,0.024625888,0.25227934,-0.039137006,-0.0471046,-0.053153116,0.0,0.0,1.2526854e-05,1.4675692e-05,1.4871365e-05,2.2488057e-05,0.23030896,0.23054312,0.018184455,6.6490893,6.669183,0.26088277,2.7158182e-11,2.7345296e-11,3.2776126e-11,6.259589e-08,5.0000782e-08,5.000009e-08,0.0,0.0,0.0,0.0,0.0,0.0,0.0,0.0,24
309533267,309532752,-0.8890424,0.023017608,0.026250899,0.45649177,0.2589997,-0.16183786,0.34309563,-0.9610978,0.590177,-9.661625,-1.6277581e-05,1.5059196e-05,-4.862669e-05,1.8713354e-05,-0.00044835516,-0.0016858384,0.27570605,0.024625888,0.25227934,-0.039137006,-0.0471046,-0.053153116,0.0,0.0,1.2834726e-05,1.5168097e-05,1.5432053e-05,2.1827056e-05,0.22855446,0.22849353,0.018351503,6.5640984,6.5769024,0.26017836,2.7412773e-11,2.7626474e-11,3.270742e-11,6.228813e-08,5.0000335e-08,5.000009e-08,0.0,0.0,0.0,0.0,0.0,0.0,0.0,0.0,24
310538444,310538093,-0.8953703,0.013125876,0.020102862,0.44467476,0.524078,-0.33016562,0.21395785,-0.35683122,0.20997292,-9.797648,-1.6499182e-05,1.5191248e-05,-5.7989946e-05,1.3335119e-05,-0.00044866017,-0.0017859366,0.27570605,0.024625888,0.25227934,-0.039137006,-0.0471046,-0.053153116,0.0,0.0,1.2421539e-05,1.5760988e-05,1.6060985e-05,2.1932792e-05,0.23233873,0.23212144,0.018882187,6.5005374,6.5077276,0.26710984,2.7692128e-11,2.7928538e-11,3.2662827e-11,6.2088525e-08,5.0000178e-08,5.0000093e-08,0.0,0.0,0.0,0.0,0.0,0.0,0.0,0.0,24
315537348,315536760,0.9960813,-0.006379883,-0.02063419,-0.08576501,0.5722602,-0.09543133,0.7518102,1.687907,-0.47571468,-8.539651,-1.6139495e-05,1.4539821e-05,-7.219015e-05,2.2779337e-05,-0.00044659825,-0.0018395355,0.3384886,-9.023059e-09,0.17863959,-0.039137006,-0.0471046,-0.053153116,0.0,0.0,8.393531e-06,1.9699408e-05,1.9946048e-05,0.00011908192,0.20229654,0.20080341,0.046777643,6.011843,6.0076184,0.3026737,2.9360615e-11,2.964846e-11,3.585124e-11,6.181779e-08,5.000089e-08,5.0000086e-08,0.0,0.0,0.0,0.0,0.0,0.0,0.0,0.0,24
316533427,316532857,0.9957809,-0.0060507837,-0.029983757,-0.08651562,0.42539018,-0.2759501,0.92459077,1.6622868,-0.5168345,-8.372642,-1.5929432e-05,1.4322221e-05,-7.2170995e-05,3.0335612e-05,-0.00044716717,-0.001780152,0.3384886,-9.023059e-09,0.17863959,-0.039137006,-0.0471046,-0.053153116,0.0,0.0,7.292777e-06,2.052648e-05,2.07181e-05,9.608992e-05,0.22888723,0.22673118,0.05480886,5.8812103,5.8742723,0.3349349,2.983527e-11,3.0129833e-11,3.677e-11,6.175285e-08,5.0000533e-08,5e-08,0.0,0.0,0.0,0.0,0.0,0.0,0.0,0.0,24
318534750,318534221,0.9954233,0.0070489435,-0.024418216,-0.09212268,0.45739096,-0.11908679,0.50027597,1.5225625,-0.69648534,-8.601633,-1.557358e-05,1.3841749e-05,-6.991838e-05,4.5336572e-05,-0.0004502051,-0.001655719,0.3384886,-9.023059e-09,0.17863959,-0.039137006,-0.0471046,-0.053153116,0.0,0.0,4.8963957e-06,2.1532795e-05,2.1707248e-05,7.057651e-05,0.30455485,0.30153057,0.056652464,5.9487534,5.9340434,0.39075324,3.0982716e-11,3.1295758e-11,3.863721e-11,6.149973e-08,5.0000093e-08,5.000009e-08,0.0,0.0,0.0,0.0,0.0,0.0,0.0,0.0,24
319531019,319530327,0.99419427,0.0021930751,-0.028833106,-0.103642434,0.52010995,-0.032104414,0.7977635,1.6041697,-0.60304296,-8.691582,-1.5427378e-05,1.36590015e-05,-6.771619e-05,5.1542524e-05,-0.00045184267,-0.0016028424,0.3384886,-9.023059e-09,0.17863959,-0.039137006,-0.0471046,-0.053153116,0.0,0.0,4.012126e-06,2.1920136e-05,2.2065604e-05,6.2620165e-05,0.34804764,0.34492022,0.051763263,6.4971523,6.476716,0.4024841,3.169628e-11,3.2019977e-11,3.9524398e-11,6.134769e-08,5.000162e-08,5.0000292e-08,0.0,0.0,0.0,0.0,0.0,0.0,0.0,0.0,24
363540850,363536694,0.9632011,-0.013055951,-0.007182174,-0.2683685,-0.030729743,-0.5960232,0.47634658,0.2590705,-0.3871809,-7.526727,-1.2292049e-05,1.3031442e-05,-8.21237e-06,0.00010467442,-0.00046378546,-0.0009881392,0.34639034,0.0005856758,0.22669123,-0.04616181,-0.018793378,-0.0034315274,0.0,0.0,3.6794272e-06,1.8383516e-05,1.8563833e-05,3.732849e-05,0.34030202,0.34060356,0.010361032,7.476952,7.4809203,0.21436639,2.8744151e-11,2.8694458e-11,3.616288e-11,5.7686307e-08,5.0001084e-08,5.0007365e-08,0.0012588783,4.296077e-05,0.0012762437,0.0010301814,0.00040490393,0.0012720446,0.0,0.0,24
364537689,364532881,0.9208019,-0.020049436,-0.031249905,-0.38825944,-0.035245545,-0.5267092,0.8670924,0.13608925,-0.5419654,-7.5292892,-1.273534e-05,1.2797917e-05,-7.0909773e-06,0.00010162703,-0.00045669265,-0.0009796773,0.3493136,0.003085885,0.20956452,-0.065793954,-0.032537475,0.010529151,0.0,0.0,6.886205e-06,1.8208644e-05,1.8359087e-05,3.6965714e-05,0.33375025,0.33380073,0.01031548,7.376064,7.377577,0.21274342,2.8690491e-11,2.8642025e-11,3.7021646e-11,5.767854e-08,5.000025e-08,5.0008477e-08,0.0008396619,3.969888e-05,0.0012117891,0.0005830171,0.00035018113,0.0012113536,0.0,0.0,24
365536722,365533723,0.89063346,-0.023339214,-0.0040375697,-0.45410448,-0.4538611,-0.574484,0.8461517,-0.11225618,-0.5662129,-7.4303155,-1.3246931e-05,1.2253558e-05,-4.7710355e-06,9.373103e-05,-0.00044490208,-0.0009719356,0.3353314,0.0076244613,0.22535875,-0.06391919,-0.04219687,-0.0087015405,0.0,0.0,9.488103e-06,1.7915441e-05,1.8107929e-05,3.711659e-05,0.3303961,0.33012983,0.010422572,7.2799067,7.2780952,0.21499276,2.864411e-11,2.859085e-11,3.778055e-11,5.767409e-08,5.000002e-08,5.001071e-08,0.0005366602,3.6500838e-05,0.001160957,0.00033680914,0.0002762842,0.0011577457,0.0,0.0,24
366536268,366534143,0.8194348,-0.0060822936,-0.0048009413,-0.57312006,-0.44377294,-0.33269742,0.8586625,-0.5058265,-0.23584525,-7.3882527,-1.4204948e-05,1.1573109e-05,1.2512075e-07,8.213758e-05,-0.00041998163,-0.00096537475,0.3217509,0.016216429,0.2031459,-0.05185818,-0.056879632,0.008943764,0.0,0.0,1.4957944e-05,1.7543747e-05,1.7704127e-05,3.345559e-05,0.32753646,0.32641315,0.010426973,7.195302,7.183835,0.21370243,2.8588453e-11,2.8551323e-11,3.8150223e-11,5.7674384e-08,5e-08,5.0012716e-08,0.0002638456,3.2394462e-05,0.0011407139,0.000153176,0.00017128605,0.0011390494,0.0,0.0,24
368532923,368530944,0.63848245,-0.018851185,-0.013281283,-0.76929086,-0.46373966,0.0055199643,0.53644514,-0.9500637,0.59593564,-7.5495186,-1.5588146e-05,1.0763605e-05,1.0377647e-05,6.3115804e-05,-0.0003744737,-0.0009585024,0.30173343,0.031218464,0.19223914,-0.02401823,-0.074177235,0.014688889,0.0,0.0,2.7012074e-05,1.6465174e-05,1.6502012e-05,2.2566579e-05,0.32422066,0.320921,0.010651564,7.020478,6.986406,0.21448362,2.8441872e-11,2.8495135e-11,3.799645e-11,5.7660515e-08,5e-08,5.0017288e-08,7.973056e-05,2.4298364e-05,0.0011232378,4.7760255e-05,6.846751e-05,0.0011221456,0.0,0.0,24
369532096,369531595,0.5711006,-0.02512786,-0.010612984,-0.82042676,-0.36461204,0.027870312,0.41492277,-1.070577,0.765229,-7.665214,-1.6133275e-05,1.0716857e-05,1.2855862e-05,5.6884972e-05,-0.0003660605,-0.0009533041,0.30581054,0.033943914,0.18737279,-0.022341866,-0.08222656,0.017938918,0.0,0.0,3.076787e-05,1.6062539e-05,1.608722e-05,1.8685216e-05,0.34017074,0.33534437,0.010785462,7.4995112,7.4470773,0.21440877,2.8557478e-11,2.8699923e-11,3.769959e-11,5.76356e-08,5.0000093e-08,5.0019583e-08,4.8532565e-05,2.106673e-05,0.0011175084,3.1530602e-05,4.417924e-05,0.0011167644,0.0,0.0,24
370534427,370532250,0.49038684,-0.023849035,-0.019473871,-0.8709608,-0.35610664,0.0671633,0.74875885,-0.9940558,0.67773366,-7.7854786,-1.776897e-05,1.0980965e-05,9.385356e-06,5.381062e-05,-0.00037810113,-0.00095783063,0.30622208,0.029186549,0.18108849,-0.028880958,-0.07708214,0.020451602,0.0,0.0,3.533737e-05,1.5278842e-05,1.5291844e-05,1.4192284e-05,0.3342836,0.32863912,0.010835712,7.391382,7.331465,0.21305397,2.8461728e-11,2.8707715e-11,3.7528806e-11,5.7568204e-08,5e-08,5.00207e-08,3.387528e-05,1.8790446e-05,0.0011064459,2.3864288e-05,3.1582797e-05,0.0011052274,0.0,0.0,24
371533430,371532942,0.4978893,-0.0153656285,-0.014469592,-0.86698383,-0.16351444,-0.01780436,0.8866091,-0.8797725,0.5379955,-7.5173116,-1.8223793e-05,1.1218202e-05,6.0936263e-06,5.282581e-05,-0.00038132846,-0.0009584631,0.3070543,0.027870314,0.18337749,-0.031318016,-0.076180756,0.017669506,0.0,0.0,3.4411467e-05,1.4630323e-05,1.4726287e-05,1.3932112e-05,0.33050132,0.32527322,0.01081822,7.331421,7.274791,0.21305129,2.8540581e-11,2.8789159e-11,3.687921e-11,5.7442772e-08,5.0000715e-08,5.0021704e-08,0.0,0.0,0.0,0.0,0.0,0.0,0.0,0.0,24
407532028,407529260,0.5033464,-0.022379372,0.024215925,-0.8634555,-0.28876287,0.27012056,0.4690669,-0.7802557,0.11026643,-7.2880707,-1.182632e-05,1.1742499e-05,-1.4099334e-05,-0.00016510047,-0.00034683483,-0.00080036756,0.3040328,0.03270124,0.16467421,-0.035883624,-0.082371816,-0.0013619091,0.0,0.0,2.516482e-05,1.826257e-05,1.8227864e-05,1.0298919e-05,0.33371282,0.33391127,0.009495798,7.2273164,7.2289896,0.20593184,2.8546488e-11,2.8520169e-11,3.2375234e-11,5e-08,5e-08,5.0084083e-08,2.5861824e-05,1.6046626e-05,0.0005721966,1.954451e-05,2.4575524e-05,0.0005711675,0.0,0.0,24
408530255,408529863,0.40836358,-0.025974525,0.011767241,-0.9123739,-0.44101936,0.4628029,0.9020207,-0.9605008,0.562867,-7.404302,-1.1521458e-05,1.1524116e-05,-1.2561852e-05,-0.00016938808,-0.00035837674,-0.00079073186,0.30258843,0.034125272,0.17302024,-0.03649609,-0.0848362,0.003117663,0.0,0.0,2.8153881e-05,1.788179e-05,1.7842593e-05,7.4079635e-06,0.3247768,0.32492107,0.009487527,7.127267,7.1290116,0.20473279,2.8389296e-11,2.8359835e-11,3.2426693e-11,5.000009e-08,5.000009e-08,5.000009e-08,2.157894e-05,1.4189011e-05,0.00055038696,1.7139682e-05,2.091907e-05,0.0005486939,0.0,0.0,24
410535731,410531390,0.1099611,-0.008752038,0.029359348,-0.99346364,-0.60646594,0.81261045,0.8062598,-1.6584476,0.41908097,-7.084594,-1.163495e-05,1.4632448e-05,-1.6333583e-05,-0.00013682625,-0.0003683291,-0.00076041307,0.2966098,0.029802933,0.16939726,-0.03669349,-0.07840729,0.035168897,0.0,0.0,3.617975e-05,1.7364526e-05,1.7320426e-05,1.9333e-06,0.3334604,0.33345562,0.00962948,7.458839,7.4615407,0.20606136,2.842313e-11,2.8394764e-11,3.3311798e-11,5e-08,5e-08,5e-08,1.772933e-05,1.25096185e-05,0.00052643067,1.4910586e-05,1.7737299e-05,0.00052442023,0.0,0.0,24
411529633,411527443,-0.0138295535,-0.032057058,-0.0018992411,-0.99938864,-0.69518846,0.5314416,0.45249018,-1.6996543,0.11562829,-7.067151,-1.30993385e-05,1.7111877e-05,-2.2715032e-05,-0.00010554718,-0.00036521128,-0.0007465063,0.2942337,0.024140336,0.17400345,-0.04569682,-0.073184,0.042123586,0.0,0.0,3.8054208e-05,1.656282e-05,1.647452e-05,1.3721634e-06,0.33319575,0.3330673,0.009600216,7.370313,7.3732514,0.20513836,2.8389839e-11,2.8354803e-11,3.368122e-11,5e-08,5e-08,5e-08,1.5937807e-05,1.1798241e-05,0.0005195049,1.3617751e-05,1.5856733e-05,0.0005174803,0.0,0.0,24
413538222,413537589,-0.13031581,-0.03141525,-0.0017413333,-0.9909733,-0.8013289,0.017902436,0.98257333,-1.574923,-0.33516496,-7.067745,-1.6258846e-05,1.859806e-05,-3.0754833e-05,-6.989137e-05,-0.0003441629,-0.0007582789,0.2981997,0.017506579,0.16363709,-0.057089362,-0.077768475,0.06251039,0.0,0.0,3.914451e-05,1.5086794e-05,1.5044868e-05,2.1174135e-06,0.32384047,0.32335854,0.009428919,7.24041,7.2402797,0.20358238,2.8440725e-11,2.8359298e-11,3.415984e-11,5.0000423e-08,5.0000825e-08,5.0002214e-08,0.0,0.0,0.0,0.0,0.0,0.0,0.0,0.0,24
414534308,414533726,-0.1129819,-0.03932083,-0.01580988,-0.9926929,-0.8903673,-0.15411267,0.79311144,-1.7165353,-0.4111309,-7.123151,-1.668121e-05,1.8603938e-05,-2.7660506e-05,-6.098531e-05,-0.00034102486,-0.0007524658,0.2981997,0.017506579,0.16363709,-0.057089362,-0.077768475,0.06251039,0.0,0.0,3.8931677e-05,1.4593374e-05,1.4567896e-05,1.9018507e-06,0.32172254,0.32109165,0.009439216,7.1705675,7.168115,0.20560333,2.8538892e-11,2.8456371e-11,3.395808e-11,5.0000413e-08,5.0000725e-08,5.0007742e-08,0.0,0.0,0.0,0.0,0.0,0.0,0.0,0.0,24
415535774,415534414,-0.117578946,-0.039385464,-0.013496159,-0.9921905,-1.0607332,-0.63378006,0.90241486,-1.8878571,-0.84303606,-7.1123476,-1.7083928e-05,1.8532985e-05,-2.2079097e-05,-4.8631944e-05,-0.00033164857,-0.00074465794,0.2981997,0.017506579,0.16363709,-0.057089362,-0.077768475,0.06251039,0.0,0.0,3.8576796e-05,1.43078e-05,1.4308602e-05,1.8550696e-06,0.31674257,0.31608865,0.009399971,7.091669,7.088109,0.20413323,2.8673348e-11,2.8592014e-11,3.3791556e-11,5.000036e-08,5.0000544e-08,5.0013128e-08,0.0,0.0,0.0,0.0,0.0,0.0,0.0,0.0,24
416535681,416535012,-0.11677586,-0.035046484,0.002802633,-0.9925358,-1.1187736,-0.8977535,0.7775177,-2.1531708,-1.3631803,-7.0832753,-1.7427526e-05,1.8204331e-05,-1.924323e-05,-4.1180032e-05,-0.0003212323,-0.0007383011,0.2981997,0.017506579,0.16363709,-0.057089362,-0.077768475,0.06251039,0.0,0.0,3.8283582e-05,1.4160444e-05,1.41897635e-05,1.7992293e-06,0.3132216,0.31268662,0.009385988,7.002669,6.999016,0.20280953,2.8851685e-11,2.877198e-11,3.36572e-11,5.0000114e-08,5.0000235e-08,5.0018386e-08,0.0,0.0,0.0,0.0,0.0,0.0,0.0,0.0,24
417532421,417531146,-0.1123966,-0.029714301,-0.004289855,-0.9932098,-1.0115116,-0.92987347,0.7225055,-2.4423227,-1.8237741,-7.0597444,-1.7687882e-05,1.7768138e-05,-1.8608107e-05,-3.756826e-05,-0.00031068732,-0.0007335949,0.2981997,0.017506579,0.16363709,-0.057089362,-0.077768475,0.06251039,0.0,0.0,3.8065777e-05,1.4433795e-05,1.4486811e-05,1.7551966e-06,0.3226179,0.32233006,0.009412292,7.3926,7.3893313,0.20433751,2.921824e-11,2.914e-11,3.356311e-11,5.0001155e-08,5.0001354e-08,5.0023868e-08,0.0,0.0,0.0,0.0,0.0,0.0,0.0,0.0,24
418536927,418536424,-0.11095674,-0.026833862,-0.0022714846,-0.9934603,-0.8277942,-0.98507017,0.63745093,-2.421775,-2.0354133,-7.057557,-1.8083661e-05,1.7029683e-05,-2.3009197e-05,-4.0066046e-05,-0.00029871438,-0.0007316074,0.2981997,0.017506579,0.16363709,-0.057089362,-0.077768475,0.06251039,0.0,0.0,3.7723446e-05,1.4558483e-05,1.462838e-05,1.7981981e-06,0.32001862,0.32002985,0.009388653,7.3152742,7.313648,0.20378555,2.9498536e-11,2.9422558e-11,3.3459614e-11,5.0001162e-08,5.0001162e-08,5.00293e-08,0.0,0.0,0.0,0.0,0.0,0.0,0.0,0.0,24
457539249,457538634,0.1409569,-0.018189354,0.0021283696,-0.98984635,-0.3092552,0.07146091,0.32480788,-0.4730096,0.31824636,-7.686496,-1.3640015e-05,1.3282284e-05,-6.2694315e-05,-0.00011252766,-0.00028706985,-0.0005930292,0.2981997,0.017506579,0.16363709,-0.057089362,-0.077768475,0.06251039,0.0,0.0,3.381192e-05,1.8399363e-05,1.8410932e-05,2.593235e-06,0.33860853,0.33859888,0.010189581,7.335221,7.335106,0.2132856,2.8714866e-11,2.8700648e-11,3.2836716e-11,5.00009e-08,5.0000843e-08,5.031627e-08,0.0,0.0,0.0,0.0,0.0,0.0,0.0,0.0,24
460534146,460531519,-0.16491488,-0.030994305,0.013975432,-0.9857217,-1.0182076,1.6147937,0.107031025,-2.9368477,4.226232,-7.9523053,-2.9267412e-06,1.688657e-05,-2.8935838e-05,-5.3671647e-05,-0.00048601857,-0.00041840127,0.28339645,0.035700988,0.18247682,-0.039373484,-0.09714777,0.01262858,0.0,0.0,3.6535403e-05,1.7467775e-05,1.7562113e-05,1.604774e-06,0.3225782,0.32441095,0.010693347,7.0055146,7.0239944,0.21263526,2.8279063e-11,2.8236836e-11,3.2954837e-11,5e-08,5e-08,5.0110522e-08,1.1796893e-05,9.298296e-06,0.00026781368,1.0441916e-05,1.1734515e-05,0.00026653492,0.0,0.0,24
461534319,461532334,-0.21145275,-0.04893042,0.01893324,-0.9759791,-2.1418135,2.252478,0.23676717,-6.254731,6.711707,-8.304193,3.1763998e-06,2.236568e-05,-1.363785e-05,3.8117054e-05,-0.0006210231,-0.0002822905,0.26963717,0.044935044,0.20851421,-0.02372052,-0.10269745,-0.030730892,0.0,0.0,3.6257694e-05,1.7355613e-05,1.741504e-05,1.7857664e-06,0.3302352,0.33235574,0.0111621935,7.4069147,7.43206,0.2122394,2.8242877e-11,2.821616e-11,3.2756083e-11,5e-08,5e-08,5.0009366e-08,1.06216485e-05,8.61222e-06,0.0002562881,9.595549e-06,1.0791674e-05,0.00025404533,0.0,0.0,24
462531009,462528416,-0.33586857,-0.041902937,0.03861607,-0.9401837,-2.6282623,2.7612667,-0.0023141168,-8.711249,7.6871967,-8.506528,5.2265314e-06,2.7243743e-05,-3.9965325e-06,0.00012436726,-0.0007059776,-0.0001975938,0.25984767,0.04969745,0.22679688,-0.01317485,-0.10025817,-0.051046185,0.0,0.0,3.5757836e-05,1.6958607e-05,1.6929795e-05,3.1523475e-06,0.326828,0.3287092,0.012135674,7.298083,7.3210936,0.21677937,2.8069427e-11,2.8077308e-11,3.2968087e-11,5e-08,5e-08,5e-08,9.896172e-06,8.185194e-06,0.00024958953,9.121646e-06,1.0197797e-05,0.0002473427,0.0,0.0,24
464538904,464534051,-0.42858598,-0.054463245,0.024428936,-0.9015271,-2.592456,2.625121,0.013374473,-8.098905,7.326737,-8.965994,-7.2346836e-08,2.6091177e-05,-1.0997753e-07,0.00014399787,-0.0006893582,-0.00020735303,0.25814086,0.050595656,0.24229798,-0.010394108,-0.099605136,-0.04378688,0.0,0.0,3.571125e-05,1.5988546e-05,1.5838374e-05,5.4268394e-06,0.31922776,0.31940305,0.014145492,7.119204,7.1311584,0.22266415,2.7825011e-11,2.791641e-11,3.3443005e-11,5e-08,5e-08,5e-08,9.048614e-06,7.5899643e-06,0.00024210133,8.579231e-06,9.283357e-06,0.00023933628,0.0,0.0,24
465535668,465534684,-0.5009,-0.060141865,0.021318484,-0.86314994,-2.504367,2.5900993,0.15297319,-7.578148,7.282627,-8.871344,-2.048733e-06,2.4224393e-05,-1.252133e-06,0.00014470262,-0.00067361194,-0.00021657774,0.25893027,0.05043304,0.24178158,-0.01053,-0.100598454,-0.041013844,0.0,0.0,3.2720807e-05,1.5729765e-05,1.5567437e-05,7.65227e-06,0.31706658,0.3165144,0.014869551,7.0548925,7.0589685,0.23041037,2.792126e-11,2.8020773e-11,3.3066265e-11,5.0000533e-08,5.0000054e-08,5.0000327e-08,0.0,0.0,0.0,0.0,0.0,0.0,0.0,0.0,24
473535737,473535369,-0.6605039,-0.030534003,0.0071521867,-0.7501675,-1.7152903,0.1627894,0.14127319,-5.231262,3.2159128,-9.890938,-1.001332e-05,1.42152e-05,2.648782e-05,0.00022322129,-0.0004359747,-0.00017445131,0.25893027,0.05043304,0.24178158,-0.01053,-0.100598454,-0.041013844,0.0,0.0,2.1331321e-05,1.5602522e-05,1.5630649e-05,1.2098194e-05,0.31791124,0.3171519,0.014193202,7.0399714,7.0287566,0.2422432,2.978868e-11,2.9811223e-11,3.192054e-11,5.0000516e-08,5.0000263e-08,5.0016315e-08,0.0,0.0,0.0,0.0,0.0,0.0,0.0,0.0,24
474532804,474531474,-0.65853554,-0.029634753,0.015594294,-0.7518042,-1.6581578,0.038560607,-0.2058943,-5.129259,2.3778539,-10.148026,-9.678828e-06,1.333196e-05,3.49932e-05,0.00021506296,-0.00040184957,-0.00016328182,0.25893027,0.05043304,0.24178158,-0.01053,-0.100598454,-0.041013844,0.0,0.0,2.129532e-05,1.5858794e-05,1.589502e-05,1.1741473e-05,0.31769878,0.31720793,0.014203357,6.9554634,6.9469366,0.24390988,3.007014e-11,3.0089705e-11,3.1949967e-11,5.0000253e-08,5.0000253e-08,5.0019754e-08,0.0,0.0,0.0,0.0,0.0,0.0,0.0,0.0,24
475536986,475536494,-0.663466,-0.026099188,0.0147140715,-0.7476064,-1.559932,-0.02763284,-0.059288144,-5.019598,1.7375379,-10.29031,-9.196427e-06,1.2536216e-05,4.148672e-05,0.00020616665,-0.00037238182,-0.00015460765,0.25893027,0.05043304,0.24178158,-0.01053,-0.100598454,-0.041013844,0.0,0.0,2.0883479e-05,1.6201888e-05,1.6241505e-05,1.1747802e-05,0.31591496,0.3156937,0.014061592,6.9186444,6.9129567,0.24260627,3.0364794e-11,3.0382977e-11,3.1968695e-11,5.000007e-08,5.0000075e-08,5.0023907e-08,0.0,0.0,0.0,0.0,0.0,0.0,0.0,0.0,24
503538139,503536106,-0.9246616,-0.0028594753,0.008619054,-0.38068184,0.87050885,0.98449993,0.024059957,1.8985091,2.269553,-8.75125,-2.365023e-06,1.4985856e-05,0.00010638774,7.184548e-05,-0.00015860693,-0.00012648467,0.25850242,0.050400697,0.27593088,-0.010813076,-0.10031861,-0.0070505054,0.0,0.0,7.166549e-06,1.8064171e-05,1.7933702e-05,2.787691e-05,0.33403376,0.33543533,0.011639925,7.2720437,7.284297,0.22330934,2.8709033e-11,2.8730735e-11,3.2004403e-11,5.0000093e-08,5.0000093e-08,5.0150724e-08,8.708772e-06,7.325454e-06,0.00016510463,8.293099e-06,8.920802e-06,0.0001641091,0.0,0.0,24
506534044,506533638,-0.9975565,0.021109115,0.031277448,0.058797207,0.9267092,0.531858,0.1798566,1.3691611,2.0320387,-8.918649,-5.4500597e-06,1.3586601e-05,0.00010842601,5.1949624e-05,-0.00011342942,-9.601609e-05,0.25617537,0.05090931,0.28008384,-0.013023635,-0.09956218,0.0007375476,0.0,0.0,1.4608855e-06,1.4957571e-05,1.4413305e-05,3.3028547e-05,0.2973594,0.30302545,0.011327648,6.7966294,6.8421063,0.22212924,2.775601e-11,2.7688945e-11,3.1740832e-11,5.000009e-08,5.000009e-08,5.0000093e-08,6.894064e-06,6.036266e-06,0.00012240662,6.5958043e-06,7.292942e-06,0.00012356746,0.0,0.0,24
507530563,507529782,-0.9912343,0.009292426,0.043637827,0.124353826,1.236603,0.33569056,0.16353133,1.7987924,1.8269544,-8.969981,-5.8405e-06,1.4454925e-05,0.00010617604,3.1579406e-05,-9.9710756e-05,-7.610192e-05,0.25495037,0.04987553,0.2664004,-0.013566222,-0.101168945,-0.011842771,0.0,0.0,1.7458435e-06,1.4702257e-05,1.4066913e-05,3.34958e-05,0.3071789,0.31408912,0.011330012,7.176514,7.232885,0.22372425,2.8018454e-11,2.7887248e-11,3.2020265e-11,5.0000214e-08,5.0000423e-08,5.0000615e-08,0.0,0.0,0.0,0.0,0.0,0.0,0.0,0.0,24
508535222,508534746,-0.979904,-0.010112243,0.032975838,0.19646564,1.2680881,0.4950317,0.32178387,2.215275,1.9785998,-8.708706,-6.875708e-06,1.4585447e-05,0.00010020908,4.3616426e-05,-8.752674e-05,-7.488432e-05,0.25495037,0.04987553,0.2664004,-0.013566222,-0.101168945,-0.011842771,0.0,0.0,2.4518117e-06,1.4090262e-05,1.3736873e-05,3.276004e-05,0.3056711,0.31145355,0.011167472,7.1292086,7.179989,0.22235869,2.824246e-11,2.8117326e-11,3.198088e-11,5.000033e-08,5.000118e-08,5.000298e-08,0.0,0.0,0.0,0.0,0.0,0.0,0.0,0.0,24
509536045,509535681,-0.9790318,0.0018148562,0.030152163,0.20145541,1.1361395,0.6534071,0.12777802,2.4673262,2.2194006,-8.621295,-7.8248695e-06,1.4477504e-05,9.4892624e-05,5.32215e-05,-7.385805e-05,-7.319023e-05,0.25495037,0.04987553,0.2664004,-0.013566222,-0.101168945,-0.011842771,0.0,0.0,2.6343926e-06,1.3728271e-05,1.3434277e-05,3.26531e-05,0.3053279,0.30987853,0.010960464,7.0717673,7.1167884,0.22029035,2.8481944e-11,2.8368616e-11,3.1990497e-11,5.0000633e-08,5.000093e-08,5.0004598e-08,0.0,0.0,0.0,0.0,0.0,0.0,0.0,0.0,24
510532224,510531737,-0.97774374,-0.007870875,0.023545118,0.20832875,1.0207735,0.8846272,0.18031526,2.6025522,2.2870817,-8.755026,-8.32741e-06,1.3992914e-05,9.314779e-05,5.4876433e-05,-6.359152e-05,-7.297061e-05,0.25495037,0.04987553,0.2664004,-0.013566222,-0.101168945,-0.011842771,0.0,0.0,2.7544697e-06,1.34996635e-05,1.3313104e-05,3.258845e-05,0.30338898,0.30679023,0.010751232,7.017948,7.056629,0.21792941,2.8752016e-11,2.8651654e-11,3.1992575e-11,5.0000704e-08,5.000081e-08,5.0006165e-08,0.0,0.0,0.0,0.0,0.0,0.0,0.0,0.0,24
524527372,524526882,-0.8696047,-0.0044879755,-0.0048979027,-0.49370396,-1.4327546,0.25882965,0.0010070222,-2.6385977,2.30588,-8.609835,-3.4340408e-06,1.1685354e-05,8.2983635e-05,-3.7437236e-05,7.555087e-05,-5.4575135e-05,0.25495037,0.04987553,0.2664004,-0.013566222,-0.101168945,-0.011842771,0.0,0.0,1.22720085e-05,1.7802045e-05,1.7812754e-05,3.817171e-05,0.35851425,0.35865796,0.01010624,7.3870397,7.382086,0.2101465,3.2941826e-11,3.2941767e-11,3.6478928e-11,5.0001418e-08,5.0001088e-08,5.0055736e-08,6.6504513e-06,5.512033e-06,0.00012071005,6.3322345e-06,7.0557817e-06,0.000122012745,0.0,0.0,24
525532396,525531905,-0.858914,0.017326208,0.0041151713,-0.51181024,-0.08396475,-0.49467915,0.11353395,0.928852,0.6979857,-8.934358,-1.1065636e-07,2.1927357e-05,7.6036915e-05,0.00012071289,0.0001766836,-0.00011644713,0.26109582,0.04879462,0.21183945,-0.011778509,-0.1075879,-0.0678378,0.0,0.0,1.147803e-05,1.684178e-05,1.6630294e-05,3.3879627e-05,0.3432172,0.34730935,0.010063599,7.256872,7.2928076,0.20933822,3.232054e-11,3.1949967e-11,3.4408084e-11,5.0000395e-08,5.000005e-08,5.000028e-08,0.0,0.0,0.0,0.0,0.0,0.0,0.0,0.0,24
526534224,526532775,-0.85103667,0.008016095,0.017115625,-0.5247661,-0.14459723,-0.7052771,0.05783853,0.5627028,0.00070079294,-9.147224,-3.885008e-07,2.191176e-05,7.2507624e-05,0.000118943324,0.00018423724,-0.00011230567,0.26109582,0.04879462,0.21183945,-0.011778509,-0.1075879,-0.0678378,0.0,0.0,1.16419205e-05,1.6763373e-05,1.6490614e-05,3.272263e-05,0.34597084,0.34992027,0.010177521,7.2396774,7.2749705,0.21168493,3.2149932e-11,3.1840825e-11,3.3964626e-11,5.0000807e-08,5.0000132e-08,5.0004424e-08,0.0,0.0,0.0,0.0,0.0,0.0,0.0,0.0,24
527533535,527533163,-0.8615235,0.024013866,0.04236313,-0.50537705,0.37347987,-0.7212587,0.28938207,0.49810866,-0.5709503,-9.085296,-7.4498183e-07,2.1937272e-05,6.9202084e-05,0.00011600462,0.00018986395,-0.000108219516,0.26109582,0.04879462,0.21183945,-0.011778509,-0.1075879,-0.0678378,0.0,0.0,1.0534674e-05,1.6806553e-05,1.6453609e-05,3.2994023e-05,0.34341553,0.3475302,0.010137329,7.2053795,7.2408137,0.21042705,3.1951074e-11,3.1690994e-11,3.3639286e-11,5.0000416e-08,5.0000114e-08,5.000891e-08,0.0,0.0,0.0,0.0,0.0,0.0,0.0,0.0,24
547532636,547532289,-0.8712561,-0.018865446,0.013944347,-0.49026775,0.027830891,0.42998454,-0.013626367,1.1674283,0.53599393,-9.311968,-1.1721324e-05,1.536455e-05,2.6305308e-05,-6.3159973e-06,8.775631e-05,-6.3748674e-05,0.26109582,0.04879462,0.21183945,-0.011778509,-0.1075879,-0.0678378,0.0,0.0,7.858979e-06,1.9996329e-05,1.998027e-05,2.7954782e-05,0.3643877,0.36494145,0.010904452,7.6792545,7.686744,0.21765612,3.05128e-11,3.0523726e-11,3.2612142e-11,5.0001894e-08,5.000268e-08,5.0102443e-08,0.0,0.0,0.0,0.0,0.0,0.0,0.0,0.0,24
548537945,548537384,-0.8655954,-0.013645574,0.02440032,-0.4999632,0.13252068,0.40546697,0.31147143,0.8537535,0.71694255,-9.351995,-1.1918013e-05,1.5070199e-05,2.3658422e-05,-4.441725e-06,8.890659e-05,-6.299003e-05,0.26109582,0.04879462,0.21183945,-0.011778509,-0.1075879,-0.0678378,0.0,0.0,8.128346e-06,1.9906967e-05,1.9874533e-05,2.7600217e-05,0.35867438,0.35913676,0.010885353,7.610228,7.6168523,0.21659108,3.0295384e-11,3.0303416e-11,3.2659105e-11,5.000749e-08,5.0007674e-08,5.0108984e-08,0.0,0.0,0.0,0.0,0.0,0.0,0.0,0.0,24
549534010,549533514,-0.8662779,-0.01779065,0.017993566,-0.4989214,0.21997021,0.57932127,0.15955229,0.750473,0.93133265,-9.2690735,-1.2055037e-05,1.4790208e-05,2.0952608e-05,-2.074915e-06,9.013893e-05,-6.2424755e-05,0.26109582,0.04879462,0.21183945,-0.011778509,-0.1075879,-0.0678378,0.0,0.0,8.060952e-06,1.9790034e-05,1.9771565e-05,2.7585547e-05,0.35735175,0.3577267,0.010920777,7.541078,7.5467916,0.21560363,3.008356e-11,3.0089254e-11,3.2703795e-11,5.001183e-08,5.0010808e-08,5.0115595e-08,0.0,0.0,0.0,0.0,0.0,0.0,0.0,0.0,24
550530323,550529676,-0.8634862,-0.019260548,0.004151167,-0.5039877,0.12908565,0.6460796,0.1474178,0.66716677,1.1484265,-9.224808,-1.2136369e-05,1.4478307e-05,1.9020294e-05,-5.8264754e-07,9.1420465e-05,-6.2086576e-05,0.26109582,0.04879462,0.21183945,-0.011778509,-0.1075879,-0.0678378,0.0,0.0,8.208686e-06,1.9641117e-05,1.9636605e-05,2.7350705e-05,0.35335788,0.3536443,0.01100453,7.4479623,7.4527283,0.21772832,2.986962e-11,2.9873284e-11,3.27358e-11,5.001012e-08,5.0007284e-08,5.0122356e-08,0.0,0.0,0.0,0.0,0.0,0.0,0.0,0.0,24
