timestamp,last_instance_change,instance_changed_count,accel_device_id,baro_device_id,gyro_device_id,mag_device_id,combined_test_ratio[0],combined_test_ratio[1],combined_test_ratio[2],combined_test_ratio[3],combined_test_ratio[4],combined_test_ratio[5],combined_test_ratio[6],combined_test_ratio[7],combined_test_ratio[8],relative_test_ratio[0],relative_test_ratio[1],relative_test_ratio[2],relative_test_ratio[3],relative_test_ratio[4],relative_test_ratio[5],relative_test_ratio[6],relative_test_ratio[7],relative_test_ratio[8],accumulated_gyro_error[0],accumulated_gyro_error[1],accumulated_gyro_error[2],accumulated_gyro_error[3],accumulated_accel_error[0],accumulated_accel_error[1],accumulated_accel_error[2],accumulated_accel_error[3],primary_instance,instances_available,healthy[0],healthy[1],healthy[2],healthy[3],healthy[4],healthy[5],healthy[6],healthy[7],healthy[8],gyro_fault_detected,accel_fault_detected
293163858,204529915,3,3932170,3997730,3932170,396825,0.016480688,0.007820861,nan,nan,nan,nan,nan,nan,nan,0.0,1.0,nan,nan,nan,nan,nan,nan,nan,0.0,0.0,nan,nan,0.0,0.0,nan,nan,0,2,1,1,0,0,0,0,0,0,0,0,0
294172609,204529915,3,3932170,3997730,3932170,396825,0.026679358,0.0253484,nan,nan,nan,nan,nan,nan,nan,0.0,1.0,nan,nan,nan,nan,nan,nan,nan,0.0,0.0,nan,nan,0.0,0.0,nan,nan,0,2,1,1,0,0,0,0,0,0,0,0,0
295176103,204529915,3,3932170,3997730,3932170,396825,0.00915475,0.0076775076,nan,nan,nan,nan,nan,nan,nan,0.0,1.0,nan,nan,nan,nan,nan,nan,nan,0.0,0.0,nan,nan,0.0,0.0,nan,nan,0,2,1,1,0,0,0,0,0,0,0,0,0
296184760,204529915,3,3932170,3997730,3932170,396825,0.00923843,0.010176713,nan,nan,nan,nan,nan,nan,nan,0.0,1.0,nan,nan,nan,nan,nan,nan,nan,0.0,0.0,nan,nan,0.0,0.0,nan,nan,0,2,1,1,0,0,0,0,0,0,0,0,0
297193453,204529915,3,3932170,3997730,3932170,396825,0.031315107,0.028206602,nan,nan,nan,nan,nan,nan,nan,0.0,1.0,nan,nan,nan,nan,nan,nan,nan,0.0,0.0,nan,nan,0.0,0.0,nan,nan,0,2,1,1,0,0,0,0,0,0,0,0,0
298202007,204529915,3,3932170,3997730,3932170,396825,0.02220006,0.019884214,nan,nan,nan,nan,nan,nan,nan,0.0,1.0,nan,nan,nan,nan,nan,nan,nan,0.0,0.0,nan,nan,0.0,0.0,nan,nan,0,2,1,1,0,0,0,0,0,0,0,0,0
299205604,204529915,3,3932170,3997730,3932170,396825,0.017871672,0.030948037,nan,nan,nan,nan,nan,nan,nan,0.0,1.0,nan,nan,nan,nan,nan,nan,nan,0.0,0.0,nan,nan,0.0,0.0,nan,nan,0,2,1,1,0,0,0,0,0,0,0,0,0
300214079,204529915,3,3932170,3997730,3932170,396825,0.023625154,0.038345747,nan,nan,nan,nan,nan,nan,nan,0.0,1.0,nan,nan,nan,nan,nan,nan,nan,0.0,0.0,nan,nan,0.0,0.0,nan,nan,0,2,1,1,0,0,0,0,0,0,0,0,0
301222827,204529915,3,3932170,3997730,3932170,396825,0.011178888,0.042179167,nan,nan,nan,nan,nan,nan,nan,0.0,1.0,nan,nan,nan,nan,nan,nan,nan,0.0,0.0,nan,nan,0.0,0.0,nan,nan,0,2,1,1,0,0,0,0,0,0,0,0,0
302231540,204529915,3,3932170,3997730,3932170,396825,0.018268263,0.04223395,nan,nan,nan,nan,nan,nan,nan,0.0,1.0,nan,nan,nan,nan,nan,nan,nan,0.0,0.0,nan,nan,0.0,0.0,nan,nan,0,2,1,1,0,0,0,0,0,0,0,0,0
303235098,204529915,3,3932170,3997730,3932170,396825,0.020660447,0.04178218,nan,nan,nan,nan,nan,nan,nan,0.0,1.0,nan,nan,nan,nan,nan,nan,nan,0.0,0.0,nan,nan,0.0,0.0,nan,nan,0,2,1,1,0,0,0,0,0,0,0,0,0
304243492,204529915,3,3932170,3997730,3932170,396825,0.02002011,0.04179079,nan,nan,nan,nan,nan,nan,nan,0.0,1.0,nan,nan,nan,nan,nan,nan,nan,0.0,0.0,nan,nan,0.0,0.0,nan,nan,0,2,1,1,0,0,0,0,0,0,0,0,0
305252109,204529915,3,3932170,3997730,3932170,396825,0.018127086,0.040099684,nan,nan,nan,nan,nan,nan,nan,0.0,1.0,nan,nan,nan,nan,nan,nan,nan,0.0,0.0,nan,nan,0.0,0.0,nan,nan,0,2,1,1,0,0,0,0,0,0,0,0,0
306255789,204529915,3,3932170,3997730,3932170,396825,0.016168742,0.036320213,nan,nan,nan,nan,nan,nan,nan,0.0,1.0,nan,nan,nan,nan,nan,nan,nan,0.0,0.0,nan,nan,0.0,0.0,nan,nan,0,2,1,1,0,0,0,0,0,0,0,0,0
307264517,204529915,3,3932170,3997730,3932170,396825,0.0142026665,0.03177287,nan,nan,nan,nan,nan,nan,nan,0.0,1.0,nan,nan,nan,nan,nan,nan,nan,0.0,0.0,nan,nan,0.0,0.0,nan,nan,0,2,1,1,0,0,0,0,0,0,0,0,0
308273152,204529915,3,3932170,3997730,3932170,396825,0.012829867,0.02641224,nan,nan,nan,nan,nan,nan,nan,0.0,1.0,nan,nan,nan,nan,nan,nan,nan,0.0,0.0,nan,nan,0.0,0.0,nan,nan,0,2,1,1,0,0,0,0,0,0,0,0,0
309281613,204529915,3,3932170,3997730,3932170,396825,0.016511861,0.018569373,nan,nan,nan,nan,nan,nan,nan,0.0,1.0,nan,nan,nan,nan,nan,nan,nan,0.0,0.0,nan,nan,0.0,0.0,nan,nan,0,2,1,1,0,0,0,0,0,0,0,0,0
310285230,204529915,3,3932170,3997730,3932170,396825,0.017340982,0.010633491,nan,nan,nan,nan,nan,nan,nan,0.0,1.0,nan,nan,nan,nan,nan,nan,nan,0.0,0.0,nan,nan,0.0,0.0,nan,nan,0,2,1,1,0,0,0,0,0,0,0,0,0
311294210,204529915,3,3932170,3997730,3932170,396825,0.022407873,0.0057366635,nan,nan,nan,nan,nan,nan,nan,0.0,1.0,nan,nan,nan,nan,nan,nan,nan,0.0,0.0,nan,nan,0.0,0.0,nan,nan,0,2,1,1,0,0,0,0,0,0,0,0,0
312297654,204529915,3,3932170,3997730,3932170,396825,0.027313389,0.01639736,nan,nan,nan,nan,nan,nan,nan,0.0,1.0,nan,nan,nan,nan,nan,nan,nan,0.0,0.0,nan,nan,0.0,0.0,nan,nan,0,2,1,1,0,0,0,0,0,0,0,0,0
313306073,204529915,3,3932170,3997730,3932170,396825,0.04122468,0.040217884,nan,nan,nan,nan,nan,nan,nan,0.0,1.0,nan,nan,nan,nan,nan,nan,nan,0.0,0.0,nan,nan,0.0,0.0,nan,nan,0,2,1,1,0,0,0,0,0,0,0,0,0
314314707,204529915,3,3932170,3997730,3932170,396825,0.05326783,0.051315915,nan,nan,nan,nan,nan,nan,nan,0.0,1.0,nan,nan,nan,nan,nan,nan,nan,0.0,0.0,nan,nan,0.0,0.0,nan,nan,0,2,1,1,0,0,0,0,0,0,0,0,0
315323552,204529915,3,3932170,3997730,3932170,396825,0.08141225,0.078192286,nan,nan,nan,nan,nan,nan,nan,0.0,1.0,nan,nan,nan,nan,nan,nan,nan,0.0,0.0,nan,nan,0.0,0.0,nan,nan,0,2,1,1,0,0,0,0,0,0,0,0,0
316327042,204529915,3,3932170,3997730,3932170,396825,0.08390673,0.09522088,nan,nan,nan,nan,nan,nan,nan,0.0,1.0,nan,nan,nan,nan,nan,nan,nan,0.0,0.0,nan,nan,0.0,0.0,nan,nan,0,2,1,1,0,0,0,0,0,0,0,0,0
317330636,204529915,3,3932170,3997730,3932170,396825,0.08225743,0.07875566,nan,nan,nan,nan,nan,nan,nan,0.0,1.0,nan,nan,nan,nan,nan,nan,nan,0.0,0.0,nan,nan,0.0,0.0,nan,nan,0,2,1,1,0,0,0,0,0,0,0,0,0
318339371,204529915,3,3932170,3997730,3932170,396825,0.07392117,0.07153817,nan,nan,nan,nan,nan,nan,nan,0.0,1.0,nan,nan,nan,nan,nan,nan,nan,0.0,0.0,nan,nan,0.0,0.0,nan,nan,0,2,1,1,0,0,0,0,0,0,0,0,0
319347771,204529915,3,3932170,3997730,3932170,396825,0.072193064,0.07162471,nan,nan,nan,nan,nan,nan,nan,0.0,1.0,nan,nan,nan,nan,nan,nan,nan,0.0,0.0,nan,nan,0.0,0.0,nan,nan,0,2,1,1,0,0,0,0,0,0,0,0,0
320356617,204529915,3,3932170,3997730,3932170,396825,0.07218751,0.072312154,nan,nan,nan,nan,nan,nan,nan,0.0,1.0,nan,nan,nan,nan,nan,nan,nan,0.0,0.0,nan,nan,0.0,0.0,nan,nan,0,2,1,1,0,0,0,0,0,0,0,0,0
321365077,204529915,3,3932170,3997730,3932170,396825,0.060099106,0.06690377,nan,nan,nan,nan,nan,nan,nan,0.0,1.0,nan,nan,nan,nan,nan,nan,nan,0.0,0.0,nan,nan,0.0,0.0,nan,nan,0,2,1,1,0,0,0,0,0,0,0,0,0
322373758,204529915,3,3932170,3997730,3932170,396825,0.046980795,0.054804865,nan,nan,nan,nan,nan,nan,nan,0.0,1.0,nan,nan,nan,nan,nan,nan,nan,0.0,0.0,nan,nan,0.0,0.0,nan,nan,0,2,1,1,0,0,0,0,0,0,0,0,0
323382462,204529915,3,3932170,3997730,3932170,396825,0.048080828,0.04784693,nan,nan,nan,nan,nan,nan,nan,0.0,1.0,nan,nan,nan,nan,nan,nan,nan,0.0,0.0,nan,nan,0.0,0.0,nan,nan,0,2,1,1,0,0,0,0,0,0,0,0,0
324386044,204529915,3,3932170,3997730,3932170,396825,0.046714384,0.046194334,nan,nan,nan,nan,nan,nan,nan,0.0,1.0,nan,nan,nan,nan,nan,nan,nan,0.0,0.0,nan,nan,0.0,0.0,nan,nan,0,2,1,1,0,0,0,0,0,0,0,0,0
325394581,204529915,3,3932170,3997730,3932170,396825,0.05784435,0.056996286,nan,nan,nan,nan,nan,nan,nan,0.0,1.0,nan,nan,nan,nan,nan,nan,nan,0.0,0.0,nan,nan,0.0,0.0,nan,nan,0,2,1,1,0,0,0,0,0,0,0,0,0
326403138,204529915,3,3932170,3997730,3932170,396825,0.060527615,0.059558615,nan,nan,nan,nan,nan,nan,nan,0.0,1.0,nan,nan,nan,nan,nan,nan,nan,0.0,0.0,nan,nan,0.0,0.0,nan,nan,0,2,1,1,0,0,0,0,0,0,0,0,0
327406729,204529915,3,3932170,3997730,3932170,396825,0.0563628,0.055315588,nan,nan,nan,nan,nan,nan,nan,0.0,1.0,nan,nan,nan,nan,nan,nan,nan,0.0,0.0,nan,nan,0.0,0.0,nan,nan,0,2,1,1,0,0,0,0,0,0,0,0,0
328415613,204529915,3,3932170,3997730,3932170,396825,0.064375,0.06305326,nan,nan,nan,nan,nan,nan,nan,0.0,1.0,nan,nan,nan,nan,nan,nan,nan,0.0,0.0,nan,nan,0.0,0.0,nan,nan,0,2,1,1,0,0,0,0,0,0,0,0,0
329424071,204529915,3,3932170,3997730,3932170,396825,0.07428826,0.072660014,nan,nan,nan,nan,nan,nan,nan,0.0,1.0,nan,nan,nan,nan,nan,nan,nan,0.0,0.0,nan,nan,0.0,0.0,nan,nan,0,2,1,1,0,0,0,0,0,0,0,0,0
330432581,204529915,3,3932170,3997730,3932170,396825,0.07255054,0.07071226,nan,nan,nan,nan,nan,nan,nan,0.0,1.0,nan,nan,nan,nan,nan,nan,nan,0.0,0.0,nan,nan,0.0,0.0,nan,nan,0,2,1,1,0,0,0,0,0,0,0,0,0
331436230,204529915,3,3932170,3997730,3932170,396825,0.07155247,0.07449037,nan,nan,nan,nan,nan,nan,nan,0.0,1.0,nan,nan,nan,nan,nan,nan,nan,0.0,0.0,nan,nan,0.0,0.0,nan,nan,0,2,1,1,0,0,0,0,0,0,0,0,0
332445099,204529915,3,3932170,3997730,3932170,396825,0.07069765,0.06709213,nan,nan,nan,nan,nan,nan,nan,0.0,1.0,nan,nan,nan,nan,nan,nan,nan,0.0,0.0,nan,nan,0.0,0.0,nan,nan,0,2,1,1,0,0,0,0,0,0,0,0,0
333453541,204529915,3,3932170,3997730,3932170,396825,0.060029894,0.060494676,nan,nan,nan,nan,nan,nan,nan,0.0,1.0,nan,nan,nan,nan,nan,nan,nan,0.0,0.0,nan,nan,0.0,0.0,nan,nan,0,2,1,1,0,0,0,0,0,0,0,0,0
334461976,204529915,3,3932170,3997730,3932170,396825,0.08540941,0.08615292,nan,nan,nan,nan,nan,nan,nan,0.0,1.0,nan,nan,nan,nan,nan,nan,nan,0.0,0.0,nan,nan,0.0,0.0,nan,nan,0,2,1,1,0,0,0,0,0,0,0,0,0
335465599,204529915,3,3932170,3997730,3932170,396825,0.08029463,0.08129374,nan,nan,nan,nan,nan,nan,nan,0.0,1.0,nan,nan,nan,nan,nan,nan,nan,0.0,0.0,nan,nan,0.0,0.0,nan,nan,0,2,1,1,0,0,0,0,0,0,0,0,0
336474579,204529915,3,3932170,3997730,3932170,396825,0.08723357,0.088219635,nan,nan,nan,nan,nan,nan,nan,0.0,1.0,nan,nan,nan,nan,nan,nan,nan,0.0,0.0,nan,nan,0.0,0.0,nan,nan,0,2,1,1,0,0,0,0,0,0,0,0,0
337483065,204529915,3,3932170,3997730,3932170,396825,0.09183887,0.082624614,nan,nan,nan,nan,nan,nan,nan,0.0,1.0,nan,nan,nan,nan,nan,nan,nan,0.0,0.0,nan,nan,0.0,0.0,nan,nan,0,2,1,1,0,0,0,0,0,0,0,0,0
338491440,204529915,3,3932170,3997730,3932170,396825,0.09700326,0.09750252,nan,nan,nan,nan,nan,nan,nan,0.0,1.0,nan,nan,nan,nan,nan,nan,nan,0.0,0.0,nan,nan,0.0,0.0,nan,nan,0,2,1,1,0,0,0,0,0,0,0,0,0
339495200,204529915,3,3932170,3997730,3932170,396825,0.09213396,0.091776215,nan,nan,nan,nan,nan,nan,nan,0.0,1.0,nan,nan,nan,nan,nan,nan,nan,0.0,0.0,nan,nan,0.0,0.0,nan,nan,0,2,1,1,0,0,0,0,0,0,0,0,0
340503955,204529915,3,3932170,3997730,3932170,396825,0.09812672,0.09717328,nan,nan,nan,nan,nan,nan,nan,0.0,1.0,nan,nan,nan,nan,nan,nan,nan,0.0,0.0,nan,nan,0.0,0.0,nan,nan,0,2,1,1,0,0,0,0,0,0,0,0,0
341512505,204529915,3,3932170,3997730,3932170,396825,0.09630165,0.09393562,nan,nan,nan,nan,nan,nan,nan,0.0,1.0,nan,nan,nan,nan,nan,nan,nan,0.0,0.0,nan,nan,0.0,0.0,nan,nan,0,2,1,1,0,0,0,0,0,0,0,0,0
342516017,204529915,3,3932170,3997730,3932170,396825,0.100418635,0.09759124,nan,nan,nan,nan,nan,nan,nan,0.0,1.0,nan,nan,nan,nan,nan,nan,nan,0.0,0.0,nan,nan,0.0,0.0,nan,nan,0,2,1,1,0,0,0,0,0,0,0,0,0
343524618,204529915,3,3932170,3997730,3932170,396825,0.11753692,0.113750115,nan,nan,nan,nan,nan,nan,nan,0.0,1.0,nan,nan,nan,nan,nan,nan,nan,0.0,0.0,nan,nan,0.0,0.0,nan,nan,0,2,1,1,0,0,0,0,0,0,0,0,0
344533431,204529915,3,3932170,3997730,3932170,396825,0.11466721,0.11067655,nan,nan,nan,nan,nan,nan,nan,0.0,1.0,nan,nan,nan,nan,nan,nan,nan,0.0,0.0,nan,nan,0.0,0.0,nan,nan,0,2,1,1,0,0,0,0,0,0,0,0,0
347554143,204529915,3,3932170,3997730,3932170,396825,0.12664579,0.12271771,nan,nan,nan,nan,nan,nan,nan,0.0,1.0,nan,nan,nan,nan,nan,nan,nan,0.0,0.0,nan,nan,0.0,0.0,nan,nan,0,2,1,1,0,0,0,0,0,0,0,0,0
348562825,204529915,3,3932170,3997730,3932170,396825,0.11347591,0.10968187,nan,nan,nan,nan,nan,nan,nan,0.0,1.0,nan,nan,nan,nan,nan,nan,nan,0.0,0.0,nan,nan,0.0,0.0,nan,nan,0,2,1,1,0,0,0,0,0,0,0,0,0
349566419,204529915,3,3932170,3997730,3932170,396825,0.122561604,0.118608356,nan,nan,nan,nan,nan,nan,nan,0.0,1.0,nan,nan,nan,nan,nan,nan,nan,0.0,0.0,nan,nan,0.0,0.0,nan,nan,0,2,1,1,0,0,0,0,0,0,0,0,0
350575043,204529915,3,3932170,3997730,3932170,396825,0.12954059,0.1257523,nan,nan,nan,nan,nan,nan,nan,0.0,1.0,nan,nan,nan,nan,nan,nan,nan,0.0,0.0,nan,nan,0.0,0.0,nan,nan,0,2,1,1,0,0,0,0,0,0,0,0,0
351583538,204529915,3,3932170,3997730,3932170,396825,0.12810612,0.12460832,nan,nan,nan,nan,nan,nan,nan,0.0,1.0,nan,nan,nan,nan,nan,nan,nan,0.0,0.0,nan,nan,0.0,0.0,nan,nan,0,2,1,1,0,0,0,0,0,0,0,0,0
352587218,204529915,3,3932170,3997730,3932170,396825,0.13835917,0.13539338,nan,nan,nan,nan,nan,nan,nan,0.0,1.0,nan,nan,nan,nan,nan,nan,nan,0.0,0.0,nan,nan,0.0,0.0,nan,nan,0,2,1,1,0,0,0,0,0,0,0,0,0
353595968,204529915,3,3932170,3997730,3932170,396825,0.13011406,0.13010392,nan,nan,nan,nan,nan,nan,nan,0.0,1.0,nan,nan,nan,nan,nan,nan,nan,0.0,0.0,nan,nan,0.0,0.0,nan,nan,0,2,1,1,0,0,0,0,0,0,0,0,0
354604514,204529915,3,3932170,3997730,3932170,396825,0.12856477,0.12656473,nan,nan,nan,nan,nan,nan,nan,0.0,1.0,nan,nan,nan,nan,nan,nan,nan,0.0,0.0,nan,nan,0.0,0.0,nan,nan,0,2,1,1,0,0,0,0,0,0,0,0,0
355613012,204529915,3,3932170,3997730,3932170,396825,0.13997774,0.13682681,nan,nan,nan,nan,nan,nan,nan,0.0,1.0,nan,nan,nan,nan,nan,nan,nan,0.0,0.0,nan,nan,0.0,0.0,nan,nan,0,2,1,1,0,0,0,0,0,0,0,0,0
356621725,204529915,3,3932170,3997730,3932170,396825,0.13297975,0.12886697,nan,nan,nan,nan,nan,nan,nan,0.0,1.0,nan,nan,nan,nan,nan,nan,nan,0.0,0.0,nan,nan,0.0,0.0,nan,nan,0,2,1,1,0,0,0,0,0,0,0,0,0
357625452,204529915,3,3932170,3997730,3932170,396825,0.12492424,0.120644875,nan,nan,nan,nan,nan,nan,nan,0.0,1.0,nan,nan,nan,nan,nan,nan,nan,0.0,0.0,nan,nan,0.0,0.0,nan,nan,0,2,1,1,0,0,0,0,0,0,0,0,0
358633920,204529915,3,3932170,3997730,3932170,396825,0.12607099,0.13103546,nan,nan,nan,nan,nan,nan,nan,0.0,1.0,nan,nan,nan,nan,nan,nan,nan,0.0,0.0,nan,nan,0.0,0.0,nan,nan,0,2,1,1,0,0,0,0,0,0,0,0,0
359642457,204529915,3,3932170,3997730,3932170,396825,0.12815805,0.12415513,nan,nan,nan,nan,nan,nan,nan,0.0,1.0,nan,nan,nan,nan,nan,nan,nan,0.0,0.0,nan,nan,0.0,0.0,nan,nan,0,2,1,1,0,0,0,0,0,0,0,0,0
360651286,204529915,3,3932170,3997730,3932170,396825,0.13719559,0.13329318,nan,nan,nan,nan,nan,nan,nan,0.0,1.0,nan,nan,nan,nan,nan,nan,nan,0.0,0.0,nan,nan,0.0,0.0,nan,nan,0,2,1,1,0,0,0,0,0,0,0,0,0
361654849,204529915,3,3932170,3997730,3932170,396825,0.13018762,0.12764962,nan,nan,nan,nan,nan,nan,nan,0.0,1.0,nan,nan,nan,nan,nan,nan,nan,0.0,0.0,nan,nan,0.0,0.0,nan,nan,0,2,1,1,0,0,0,0,0,0,0,0,0
362658464,204529915,3,3932170,3997730,3932170,396825,0.13785288,0.13638707,nan,nan,nan,nan,nan,nan,nan,0.0,1.0,nan,nan,nan,nan,nan,nan,nan,0.0,0.0,nan,nan,0.0,0.0,nan,nan,0,2,1,1,0,0,0,0,0,0,0,0,0
363668452,204529915,3,3932170,3997730,3932170,396825,0.12977996,0.124823935,nan,nan,nan,nan,nan,nan,nan,0.0,1.0,nan,nan,nan,nan,nan,nan,nan,0.0,0.0,nan,nan,0.0,0.0,nan,nan,0,2,1,1,0,0,0,0,0,0,0,0,0
364675443,204529915,3,3932170,3997730,3932170,396825,0.13111621,0.1314152,nan,nan,nan,nan,nan,nan,nan,0.0,1.0,nan,nan,nan,nan,nan,nan,nan,0.0,0.0,nan,nan,0.0,0.0,nan,nan,0,2,1,1,0,0,0,0,0,0,0,0,0
365685823,204529915,3,3932170,3997730,3932170,396825,0.12434944,0.12622562,nan,nan,nan,nan,nan,nan,nan,0.0,1.0,nan,nan,nan,nan,nan,nan,nan,0.0,0.0,nan,nan,0.0,0.0,nan,nan,0,2,1,1,0,0,0,0,0,0,0,0,0
366694405,204529915,3,3932170,3997730,3932170,396825,0.12196016,0.124461256,nan,nan,nan,nan,nan,nan,nan,0.0,1.0,nan,nan,nan,nan,nan,nan,nan,0.0,0.0,nan,nan,0.0,0.0,nan,nan,0,2,1,1,0,0,0,0,0,0,0,0,0
367697999,204529915,3,3932170,3997730,3932170,396825,0.12981527,0.13191384,nan,nan,nan,nan,nan,nan,nan,0.0,1.0,nan,nan,nan,nan,nan,nan,nan,0.0,0.0,nan,nan,0.0,0.0,nan,nan,0,2,1,1,0,0,0,0,0,0,0,0,0
368704909,204529915,3,3932170,3997730,3932170,396825,0.11929589,0.114410035,nan,nan,nan,nan,nan,nan,nan,0.0,1.0,nan,nan,nan,nan,nan,nan,nan,0.0,0.0,nan,nan,0.0,0.0,nan,nan,0,2,1,1,0,0,0,0,0,0,0,0,0
369713494,204529915,3,3932170,3997730,3932170,396825,0.11446341,0.11524548,nan,nan,nan,nan,nan,nan,nan,0.0,1.0,nan,nan,nan,nan,nan,nan,nan,0.0,0.0,nan,nan,0.0,0.0,nan,nan,0,2,1,1,0,0,0,0,0,0,0,0,0
370718931,204529915,3,3932170,3997730,3932170,396825,0.12925655,0.12804218,nan,nan,nan,nan,nan,nan,nan,0.0,1.0,nan,nan,nan,nan,nan,nan,nan,0.0,0.0,nan,nan,0.0,0.0,nan,nan,0,2,1,1,0,0,0,0,0,0,0,0,0
371725853,204529915,3,3932170,3997730,3932170,396825,0.11899289,0.11612748,nan,nan,nan,nan,nan,nan,nan,0.0,1.0,nan,nan,nan,nan,nan,nan,nan,0.0,0.0,nan,nan,0.0,0.0,nan,nan,0,2,1,1,0,0,0,0,0,0,0,0,0
372734321,204529915,3,3932170,3997730,3932170,396825,0.120412804,0.11753265,nan,nan,nan,nan,nan,nan,nan,0.0,1.0,nan,nan,nan,nan,nan,nan,nan,0.0,0.0,nan,nan,0.0,0.0,nan,nan,0,2,1,1,0,0,0,0,0,0,0,0,0
373743061,204529915,3,3932170,3997730,3932170,396825,0.1377753,0.13945208,nan,nan,nan,nan,nan,nan,nan,0.0,1.0,nan,nan,nan,nan,nan,nan,nan,0.0,0.0,nan,nan,0.0,0.0,nan,nan,0,2,1,1,0,0,0,0,0,0,0,0,0
374751709,204529915,3,3932170,3997730,3932170,396825,0.13642704,0.13511263,nan,nan,nan,nan,nan,nan,nan,0.0,1.0,nan,nan,nan,nan,nan,nan,nan,0.0,0.0,nan,nan,0.0,0.0,nan,nan,0,2,1,1,0,0,0,0,0,0,0,0,0
375755309,204529915,3,3932170,3997730,3932170,396825,0.14625293,0.14488684,nan,nan,nan,nan,nan,nan,nan,0.0,1.0,nan,nan,nan,nan,nan,nan,nan,0.0,0.0,nan,nan,0.0,0.0,nan,nan,0,2,1,1,0,0,0,0,0,0,0,0,0
376763742,204529915,3,3932170,3997730,3932170,396825,0.15559383,0.15517178,nan,nan,nan,nan,nan,nan,nan,0.0,1.0,nan,nan,nan,nan,nan,nan,nan,0.0,0.0,nan,nan,0.0,0.0,nan,nan,0,2,1,1,0,0,0,0,0,0,0,0,0
377772339,204529915,3,3932170,3997730,3932170,396825,0.13658893,0.13682103,nan,nan,nan,nan,nan,nan,nan,0.0,1.0,nan,nan,nan,nan,nan,nan,nan,0.0,0.0,nan,nan,0.0,0.0,nan,nan,0,2,1,1,0,0,0,0,0,0,0,0,0
378776067,204529915,3,3932170,3997730,3932170,396825,0.1460942,0.14755738,nan,nan,nan,nan,nan,nan,nan,0.0,1.0,nan,nan,nan,nan,nan,nan,nan,0.0,0.0,nan,nan,0.0,0.0,nan,nan,0,2,1,1,0,0,0,0,0,0,0,0,0
379784746,204529915,3,3932170,3997730,3932170,396825,0.15090883,0.15235397,nan,nan,nan,nan,nan,nan,nan,0.0,1.0,nan,nan,nan,nan,nan,nan,nan,0.0,0.0,nan,nan,0.0,0.0,nan,nan,0,2,1,1,0,0,0,0,0,0,0,0,0
380793202,204529915,3,3932170,3997730,3932170,396825,0.13546512,0.13754025,nan,nan,nan,nan,nan,nan,nan,0.0,1.0,nan,nan,nan,nan,nan,nan,nan,0.0,0.0,nan,nan,0.0,0.0,nan,nan,0,2,1,1,0,0,0,0,0,0,0,0,0
381801861,204529915,3,3932170,3997730,3932170,396825,0.1439147,0.14672118,nan,nan,nan,nan,nan,nan,nan,0.0,1.0,nan,nan,nan,nan,nan,nan,nan,0.0,0.0,nan,nan,0.0,0.0,nan,nan,0,2,1,1,0,0,0,0,0,0,0,0,0
382805493,204529915,3,3932170,3997730,3932170,396825,0.1423135,0.14462568,nan,nan,nan,nan,nan,nan,nan,0.0,1.0,nan,nan,nan,nan,nan,nan,nan,0.0,0.0,nan,nan,0.0,0.0,nan,nan,0,2,1,1,0,0,0,0,0,0,0,0,0
383814127,204529915,3,3932170,3997730,3932170,396825,0.13382778,0.13593388,nan,nan,nan,nan,nan,nan,nan,0.0,1.0,nan,nan,nan,nan,nan,nan,nan,0.0,0.0,nan,nan,0.0,0.0,nan,nan,0,2,1,1,0,0,0,0,0,0,0,0,0
384822643,204529915,3,3932170,3997730,3932170,396825,0.12726909,0.1290602,nan,nan,nan,nan,nan,nan,nan,0.0,1.0,nan,nan,nan,nan,nan,nan,nan,0.0,0.0,nan,nan,0.0,0.0,nan,nan,0,2,1,1,0,0,0,0,0,0,0,0,0
385831223,204529915,3,3932170,3997730,3932170,396825,0.13151559,0.13289863,nan,nan,nan,nan,nan,nan,nan,0.0,1.0,nan,nan,nan,nan,nan,nan,nan,0.0,0.0,nan,nan,0.0,0.0,nan,nan,0,2,1,1,0,0,0,0,0,0,0,0,0
386834974,204529915,3,3932170,3997730,3932170,396825,0.13370168,0.13437846,nan,nan,nan,nan,nan,nan,nan,0.0,1.0,nan,nan,nan,nan,nan,nan,nan,0.0,0.0,nan,nan,0.0,0.0,nan,nan,0,2,1,1,0,0,0,0,0,0,0,0,0
387843484,204529915,3,3932170,3997730,3932170,396825,0.11590132,0.11539014,nan,nan,nan,nan,nan,nan,nan,0.0,1.0,nan,nan,nan,nan,nan,nan,nan,0.0,0.0,nan,nan,0.0,0.0,nan,nan,0,2,1,1,0,0,0,0,0,0,0,0,0
388852068,204529915,3,3932170,3997730,3932170,396825,0.121127054,0.119863845,nan,nan,nan,nan,nan,nan,nan,0.0,1.0,nan,nan,nan,nan,nan,nan,nan,0.0,0.0,nan,nan,0.0,0.0,nan,nan,0,2,1,1,0,0,0,0,0,0,0,0,0
389855796,204529915,3,3932170,3997730,3932170,396825,0.1286648,0.12634033,nan,nan,nan,nan,nan,nan,nan,0.0,1.0,nan,nan,nan,nan,nan,nan,nan,0.0,0.0,nan,nan,0.0,0.0,nan,nan,0,2,1,1,0,0,0,0,0,0,0,0,0
390864209,204529915,3,3932170,3997730,3932170,396825,0.13308841,0.12994616,nan,nan,nan,nan,nan,nan,nan,0.0,1.0,nan,nan,nan,nan,nan,nan,nan,0.0,0.0,nan,nan,0.0,0.0,nan,nan,0,2,1,1,0,0,0,0,0,0,0,0,0
391872944,204529915,3,3932170,3997730,3932170,396825,0.11371771,0.11049693,nan,nan,nan,nan,nan,nan,nan,0.0,1.0,nan,nan,nan,nan,nan,nan,nan,0.0,0.0,nan,nan,0.0,0.0,nan,nan,0,2,1,1,0,0,0,0,0,0,0,0,0
392876606,204529915,3,3932170,3997730,3932170,396825,0.1162731,0.11268233,nan,nan,nan,nan,nan,nan,nan,0.0,1.0,nan,nan,nan,nan,nan,nan,nan,0.0,0.0,nan,nan,0.0,0.0,nan,nan,0,2,1,1,0,0,0,0,0,0,0,0,0
393885014,204529915,3,3932170,3997730,3932170,396825,0.13456199,0.13176829,nan,nan,nan,nan,nan,nan,nan,0.0,1.0,nan,nan,nan,nan,nan,nan,nan,0.0,0.0,nan,nan,0.0,0.0,nan,nan,0,2,1,1,0,0,0,0,0,0,0,0,0
394893620,204529915,3,3932170,3997730,3932170,396825,0.13019672,0.12789904,nan,nan,nan,nan,nan,nan,nan,0.0,1.0,nan,nan,nan,nan,nan,nan,nan,0.0,0.0,nan,nan,0.0,0.0,nan,nan,0,2,1,1,0,0,0,0,0,0,0,0,0
395902406,204529915,3,3932170,3997730,3932170,396825,0.12829864,0.1269173,nan,nan,nan,nan,nan,nan,nan,0.0,1.0,nan,nan,nan,nan,nan,nan,nan,0.0,0.0,nan,nan,0.0,0.0,nan,nan,0,2,1,1,0,0,0,0,0,0,0,0,0
396905974,204529915,3,3932170,3997730,3932170,396825,0.14856294,0.14864865,nan,nan,nan,nan,nan,nan,nan,0.0,1.0,nan,nan,nan,nan,nan,nan,nan,0.0,0.0,nan,nan,0.0,0.0,nan,nan,0,2,1,1,0,0,0,0,0,0,0,0,0
397914423,204529915,3,3932170,3997730,3932170,396825,0.14970711,0.15041359,nan,nan,nan,nan,nan,nan,nan,0.0,1.0,nan,nan,nan,nan,nan,nan,nan,0.0,0.0,nan,nan,0.0,0.0,nan,nan,0,2,1,1,0,0,0,0,0,0,0,0,0
398923005,204529915,3,3932170,3997730,3932170,396825,0.15421705,0.15550849,nan,nan,nan,nan,nan,nan,nan,0.0,1.0,nan,nan,nan,nan,nan,nan,nan,0.0,0.0,nan,nan,0.0,0.0,nan,nan,0,2,1,1,0,0,0,0,0,0,0,0,0
399931883,204529915,3,3932170,3997730,3932170,396825,0.1485821,0.14943951,nan,nan,nan,nan,nan,nan,nan,0.0,1.0,nan,nan,nan,nan,nan,nan,nan,0.0,0.0,nan,nan,0.0,0.0,nan,nan,0,2,1,1,0,0,0,0,0,0,0,0,0
400935411,204529915,3,3932170,3997730,3932170,396825,0.15197909,0.15400599,nan,nan,nan,nan,nan,nan,nan,0.0,1.0,nan,nan,nan,nan,nan,nan,nan,0.0,0.0,nan,nan,0.0,0.0,nan,nan,0,2,1,1,0,0,0,0,0,0,0,0,0
401943826,204529915,3,3932170,3997730,3932170,396825,0.1384477,0.14195502,nan,nan,nan,nan,nan,nan,nan,0.0,1.0,nan,nan,nan,nan,nan,nan,nan,0.0,0.0,nan,nan,0.0,0.0,nan,nan,0,2,1,1,0,0,0,0,0,0,0,0,0
402952570,204529915,3,3932170,3997730,3932170,396825,0.14715053,0.15096462,nan,nan,nan,nan,nan,nan,nan,0.0,1.0,nan,nan,nan,nan,nan,nan,nan,0.0,0.0,nan,nan,0.0,0.0,nan,nan,0,2,1,1,0,0,0,0,0,0,0,0,0
403956159,204529915,3,3932170,3997730,3932170,396825,0.13749768,0.14084542,nan,nan,nan,nan,nan,nan,nan,0.0,1.0,nan,nan,nan,nan,nan,nan,nan,0.0,0.0,nan,nan,0.0,0.0,nan,nan,0,2,1,1,0,0,0,0,0,0,0,0,0
404964868,204529915,3,3932170,3997730,3932170,396825,0.13472337,0.14107594,nan,nan,nan,nan,nan,nan,nan,0.0,1.0,nan,nan,nan,nan,nan,nan,nan,0.0,0.0,nan,nan,0.0,0.0,nan,nan,0,2,1,1,0,0,0,0,0,0,0,0,0
405973212,204529915,3,3932170,3997730,3932170,396825,0.13098828,0.13750447,nan,nan,nan,nan,nan,nan,nan,0.0,1.0,nan,nan,nan,nan,nan,nan,nan,0.0,0.0,nan,nan,0.0,0.0,nan,nan,0,2,1,1,0,0,0,0,0,0,0,0,0
406981828,204529915,3,3932170,3997730,3932170,396825,0.12953119,0.13635859,nan,nan,nan,nan,nan,nan,nan,0.0,1.0,nan,nan,nan,nan,nan,nan,nan,0.0,0.0,nan,nan,0.0,0.0,nan,nan,0,2,1,1,0,0,0,0,0,0,0,0,0
407992052,204529915,3,3932170,3997730,3932170,396825,0.12301944,0.13020223,nan,nan,nan,nan,nan,nan,nan,0.0,1.0,nan,nan,nan,nan,nan,nan,nan,0.0,0.0,nan,nan,0.0,0.0,nan,nan,0,2,1,1,0,0,0,0,0,0,0,0,0
408995698,204529915,3,3932170,3997730,3932170,396825,0.12753078,0.13408922,nan,nan,nan,nan,nan,nan,nan,0.0,1.0,nan,nan,nan,nan,nan,nan,nan,0.0,0.0,nan,nan,0.0,0.0,nan,nan,0,2,1,1,0,0,0,0,0,0,0,0,0
410002715,204529915,3,3932170,3997730,3932170,396825,0.12864274,0.13730817,nan,nan,nan,nan,nan,nan,nan,0.0,1.0,nan,nan,nan,nan,nan,nan,nan,0.0,0.0,nan,nan,0.0,0.0,nan,nan,0,2,1,1,0,0,0,0,0,0,0,0,0
411002842,204529915,3,3932170,3997730,3932170,396825,0.12253016,0.12703142,nan,nan,nan,nan,nan,nan,nan,0.0,1.0,nan,nan,nan,nan,nan,nan,nan,0.0,0.0,nan,nan,0.0,0.0,nan,nan,0,2,1,1,0,0,0,0,0,0,0,0,0
412004895,204529915,3,3932170,3997730,3932170,396825,0.12289323,0.12692533,nan,nan,nan,nan,nan,nan,nan,0.0,1.0,nan,nan,nan,nan,nan,nan,nan,0.0,0.0,nan,nan,0.0,0.0,nan,nan,0,2,1,1,0,0,0,0,0,0,0,0,0
413005445,204529915,3,3932170,3997730,3932170,396825,0.13454808,0.13892165,nan,nan,nan,nan,nan,nan,nan,0.0,1.0,nan,nan,nan,nan,nan,nan,nan,0.0,0.0,nan,nan,0.0,0.0,nan,nan,0,2,1,1,0,0,0,0,0,0,0,0,0
414012024,204529915,3,3932170,3997730,3932170,396825,0.13130315,0.13546333,nan,nan,nan,nan,nan,nan,nan,0.0,1.0,nan,nan,nan,nan,nan,nan,nan,0.0,0.0,nan,nan,0.0,0.0,nan,nan,0,2,1,1,0,0,0,0,0,0,0,0,0
415015706,204529915,3,3932170,3997730,3932170,396825,0.1174991,0.12235114,nan,nan,nan,nan,nan,nan,nan,0.0,1.0,nan,nan,nan,nan,nan,nan,nan,0.0,0.0,nan,nan,0.0,0.0,nan,nan,0,2,1,1,0,0,0,0,0,0,0,0,0
417032975,204529915,3,3932170,3997730,3932170,396825,0.12560183,0.1307451,nan,nan,nan,nan,nan,nan,nan,0.0,1.0,nan,nan,nan,nan,nan,nan,nan,0.0,0.0,nan,nan,0.0,0.0,nan,nan,0,2,1,1,0,0,0,0,0,0,0,0,0
418041429,204529915,3,3932170,3997730,3932170,396825,0.1225942,0.12695605,nan,nan,nan,nan,nan,nan,nan,0.0,1.0,nan,nan,nan,nan,nan,nan,nan,0.0,0.0,nan,nan,0.0,0.0,nan,nan,0,2,1,1,0,0,0,0,0,0,0,0,0
419045002,204529915,3,3932170,3997730,3932170,396825,0.1315196,0.13535856,nan,nan,nan,nan,nan,nan,nan,0.0,1.0,nan,nan,nan,nan,nan,nan,nan,0.0,0.0,nan,nan,0.0,0.0,nan,nan,0,2,1,1,0,0,0,0,0,0,0,0,0
420053591,204529915,3,3932170,3997730,3932170,396825,0.12225964,0.12536775,nan,nan,nan,nan,nan,nan,nan,0.0,1.0,nan,nan,nan,nan,nan,nan,nan,0.0,0.0,nan,nan,0.0,0.0,nan,nan,0,2,1,1,0,0,0,0,0,0,0,0,0
421062356,204529915,3,3932170,3997730,3932170,396825,0.13043328,0.13247924,nan,nan,nan,nan,nan,nan,nan,0.0,1.0,nan,nan,nan,nan,nan,nan,nan,0.0,0.0,nan,nan,0.0,0.0,nan,nan,0,2,1,1,0,0,0,0,0,0,0,0,0
422065923,204529915,3,3932170,3997730,3932170,396825,0.1209942,0.12217196,nan,nan,nan,nan,nan,nan,nan,0.0,1.0,nan,nan,nan,nan,nan,nan,nan,0.0,0.0,nan,nan,0.0,0.0,nan,nan,0,2,1,1,0,0,0,0,0,0,0,0,0
423074489,204529915,3,3932170,3997730,3932170,396825,0.11371662,0.12352534,nan,nan,nan,nan,nan,nan,nan,0.0,1.0,nan,nan,nan,nan,nan,nan,nan,0.0,0.0,nan,nan,0.0,0.0,nan,nan,0,2,1,1,0,0,0,0,0,0,0,0,0
424082960,204529915,3,3932170,3997730,3932170,396825,0.12889427,0.12987602,nan,nan,nan,nan,nan,nan,nan,0.0,1.0,nan,nan,nan,nan,nan,nan,nan,0.0,0.0,nan,nan,0.0,0.0,nan,nan,0,2,1,1,0,0,0,0,0,0,0,0,0
425086519,204529915,3,3932170,3997730,3932170,396825,0.119034015,0.11990406,nan,nan,nan,nan,nan,nan,nan,0.0,1.0,nan,nan,nan,nan,nan,nan,nan,0.0,0.0,nan,nan,0.0,0.0,nan,nan,0,2,1,1,0,0,0,0,0,0,0,0,0
426095408,204529915,3,3932170,3997730,3932170,396825,0.10049943,0.10026235,nan,nan,nan,nan,nan,nan,nan,0.0,1.0,nan,nan,nan,nan,nan,nan,nan,0.0,0.0,nan,nan,0.0,0.0,nan,nan,0,2,1,1,0,0,0,0,0,0,0,0,0
427103795,204529915,3,3932170,3997730,3932170,396825,0.10679465,0.105797425,nan,nan,nan,nan,nan,nan,nan,0.0,1.0,nan,nan,nan,nan,nan,nan,nan,0.0,0.0,nan,nan,0.0,0.0,nan,nan,0,2,1,1,0,0,0,0,0,0,0,0,0
428112376,204529915,3,3932170,3997730,3932170,396825,0.09652178,0.09561882,nan,nan,nan,nan,nan,nan,nan,0.0,1.0,nan,nan,nan,nan,nan,nan,nan,0.0,0.0,nan,nan,0.0,0.0,nan,nan,0,2,1,1,0,0,0,0,0,0,0,0,0
429121114,204529915,3,3932170,3997730,3932170,396825,0.11384117,0.10370148,nan,nan,nan,nan,nan,nan,nan,0.0,1.0,nan,nan,nan,nan,nan,nan,nan,0.0,0.0,nan,nan,0.0,0.0,nan,nan,0,2,1,1,0,0,0,0,0,0,0,0,0
430124655,204529915,3,3932170,3997730,3932170,396825,0.09657799,0.095406,nan,nan,nan,nan,nan,nan,nan,0.0,1.0,nan,nan,nan,nan,nan,nan,nan,0.0,0.0,nan,nan,0.0,0.0,nan,nan,0,2,1,1,0,0,0,0,0,0,0,0,0
431133137,204529915,3,3932170,3997730,3932170,396825,0.0901642,0.087913826,nan,nan,nan,nan,nan,nan,nan,0.0,1.0,nan,nan,nan,nan,nan,nan,nan,0.0,0.0,nan,nan,0.0,0.0,nan,nan,0,2,1,1,0,0,0,0,0,0,0,0,0
432141731,204529915,3,3932170,3997730,3932170,396825,0.07518251,0.0721791,nan,nan,nan,nan,nan,nan,nan,0.0,1.0,nan,nan,nan,nan,nan,nan,nan,0.0,0.0,nan,nan,0.0,0.0,nan,nan,0,2,1,1,0,0,0,0,0,0,0,0,0
433145403,204529915,3,3932170,3997730,3932170,396825,0.06889664,0.065371655,nan,nan,nan,nan,nan,nan,nan,0.0,1.0,nan,nan,nan,nan,nan,nan,nan,0.0,0.0,nan,nan,0.0,0.0,nan,nan,0,2,1,1,0,0,0,0,0,0,0,0,0
434154189,204529915,3,3932170,3997730,3932170,396825,0.06802543,0.050496507,nan,nan,nan,nan,nan,nan,nan,0.0,1.0,nan,nan,nan,nan,nan,nan,nan,0.0,0.0,nan,nan,0.0,0.0,nan,nan,0,2,1,1,0,0,0,0,0,0,0,0,0
435162439,204529915,3,3932170,3997730,3932170,396825,0.05663385,0.053650323,nan,nan,nan,nan,nan,nan,nan,0.0,1.0,nan,nan,nan,nan,nan,nan,nan,0.0,0.0,nan,nan,0.0,0.0,nan,nan,0,2,1,1,0,0,0,0,0,0,0,0,0
436171095,204529915,3,3932170,3997730,3932170,396825,0.045938276,0.04220291,nan,nan,nan,nan,nan,nan,nan,0.0,1.0,nan,nan,nan,nan,nan,nan,nan,0.0,0.0,nan,nan,0.0,0.0,nan,nan,0,2,1,1,0,0,0,0,0,0,0,0,0
437174694,204529915,3,3932170,3997730,3932170,396825,0.051670443,0.046877336,nan,nan,nan,nan,nan,nan,nan,0.0,1.0,nan,nan,nan,nan,nan,nan,nan,0.0,0.0,nan,nan,0.0,0.0,nan,nan,0,2,1,1,0,0,0,0,0,0,0,0,0
438183384,204529915,3,3932170,3997730,3932170,396825,0.052869704,0.04827113,nan,nan,nan,nan,nan,nan,nan,0.0,1.0,nan,nan,nan,nan,nan,nan,nan,0.0,0.0,nan,nan,0.0,0.0,nan,nan,0,2,1,1,0,0,0,0,0,0,0,0,0
439191881,204529915,3,3932170,3997730,3932170,396825,0.06663846,0.048324212,nan,nan,nan,nan,nan,nan,nan,0.0,1.0,nan,nan,nan,nan,nan,nan,nan,0.0,0.0,nan,nan,0.0,0.0,nan,nan,0,2,1,1,0,0,0,0,0,0,0,0,0
440200458,204529915,3,3932170,3997730,3932170,396825,0.060119774,0.057467274,nan,nan,nan,nan,nan,nan,nan,0.0,1.0,nan,nan,nan,nan,nan,nan,nan,0.0,0.0,nan,nan,0.0,0.0,nan,nan,0,2,1,1,0,0,0,0,0,0,0,0,0
441204050,204529915,3,3932170,3997730,3932170,396825,0.065244615,0.06386366,nan,nan,nan,nan,nan,nan,nan,0.0,1.0,nan,nan,nan,nan,nan,nan,nan,0.0,0.0,nan,nan,0.0,0.0,nan,nan,0,2,1,1,0,0,0,0,0,0,0,0,0
442212821,204529915,3,3932170,3997730,3932170,396825,0.0717459,0.07044437,nan,nan,nan,nan,nan,nan,nan,0.0,1.0,nan,nan,nan,nan,nan,nan,nan,0.0,0.0,nan,nan,0.0,0.0,nan,nan,0,2,1,1,0,0,0,0,0,0,0,0,0
443221144,204529915,3,3932170,3997730,3932170,396825,0.05668625,0.055971373,nan,nan,nan,nan,nan,nan,nan,0.0,1.0,nan,nan,nan,nan,nan,nan,nan,0.0,0.0,nan,nan,0.0,0.0,nan,nan,0,2,1,1,0,0,0,0,0,0,0,0,0
444224858,204529915,3,3932170,3997730,3932170,396825,0.07321984,0.06802925,nan,nan,nan,nan,nan,nan,nan,0.0,1.0,nan,nan,nan,nan,nan,nan,nan,0.0,0.0,nan,nan,0.0,0.0,nan,nan,0,2,1,1,0,0,0,0,0,0,0,0,0
445233307,204529915,3,3932170,3997730,3932170,396825,0.06509561,0.06589088,nan,nan,nan,nan,nan,nan,nan,0.0,1.0,nan,nan,nan,nan,nan,nan,nan,0.0,0.0,nan,nan,0.0,0.0,nan,nan,0,2,1,1,0,0,0,0,0,0,0,0,0
446242082,204529915,3,3932170,3997730,3932170,396825,0.07298618,0.07573846,nan,nan,nan,nan,nan,nan,nan,0.0,1.0,nan,nan,nan,nan,nan,nan,nan,0.0,0.0,nan,nan,0.0,0.0,nan,nan,0,2,1,1,0,0,0,0,0,0,0,0,0
447245625,204529915,3,3932170,3997730,3932170,396825,0.090320796,0.09492359,nan,nan,nan,nan,nan,nan,nan,0.0,1.0,nan,nan,nan,nan,nan,nan,nan,0.0,0.0,nan,nan,0.0,0.0,nan,nan,0,2,1,1,0,0,0,0,0,0,0,0,0
448254062,204529915,3,3932170,3997730,3932170,396825,0.0989559,0.10407763,nan,nan,nan,nan,nan,nan,nan,0.0,1.0,nan,nan,nan,nan,nan,nan,nan,0.0,0.0,nan,nan,0.0,0.0,nan,nan,0,2,1,1,0,0,0,0,0,0,0,0,0
449262660,204529915,3,3932170,3997730,3932170,396825,0.09952227,0.10538297,nan,nan,nan,nan,nan,nan,nan,0.0,1.0,nan,nan,nan,nan,nan,nan,nan,0.0,0.0,nan,nan,0.0,0.0,nan,nan,0,2,1,1,0,0,0,0,0,0,0,0,0
450271343,204529915,3,3932170,3997730,3932170,396825,0.103687614,0.10974054,nan,nan,nan,nan,nan,nan,nan,0.0,1.0,nan,nan,nan,nan,nan,nan,nan,0.0,0.0,nan,nan,0.0,0.0,nan,nan,0,2,1,1,0,0,0,0,0,0,0,0,0
451275006,204529915,3,3932170,3997730,3932170,396825,0.10348703,0.10945136,nan,nan,nan,nan,nan,nan,nan,0.0,1.0,nan,nan,nan,nan,nan,nan,nan,0.0,0.0,nan,nan,0.0,0.0,nan,nan,0,2,1,1,0,0,0,0,0,0,0,0,0
452283396,204529915,3,3932170,3997730,3932170,396825,0.10366571,0.10962279,nan,nan,nan,nan,nan,nan,nan,0.0,1.0,nan,nan,nan,nan,nan,nan,nan,0.0,0.0,nan,nan,0.0,0.0,nan,nan,0,2,1,1,0,0,0,0,0,0,0,0,0
453291963,204529915,3,3932170,3997730,3932170,396825,0.10507136,0.11084671,nan,nan,nan,nan,nan,nan,nan,0.0,1.0,nan,nan,nan,nan,nan,nan,nan,0.0,0.0,nan,nan,0.0,0.0,nan,nan,0,2,1,1,0,0,0,0,0,0,0,0,0
454295680,204529915,3,3932170,3997730,3932170,396825,0.10274968,0.108055845,nan,nan,nan,nan,nan,nan,nan,0.0,1.0,nan,nan,nan,nan,nan,nan,nan,0.0,0.0,nan,nan,0.0,0.0,nan,nan,0,2,1,1,0,0,0,0,0,0,0,0,0
455304271,204529915,3,3932170,3997730,3932170,396825,0.10875673,0.11344062,nan,nan,nan,nan,nan,nan,nan,0.0,1.0,nan,nan,nan,nan,nan,nan,nan,0.0,0.0,nan,nan,0.0,0.0,nan,nan,0,2,1,1,0,0,0,0,0,0,0,0,0
456312782,204529915,3,3932170,3997730,3932170,396825,0.12867442,0.13228151,nan,nan,nan,nan,nan,nan,nan,0.0,1.0,nan,nan,nan,nan,nan,nan,nan,0.0,0.0,nan,nan,0.0,0.0,nan,nan,0,2,1,1,0,0,0,0,0,0,0,0,0
457316373,204529915,3,3932170,3997730,3932170,396825,0.11320599,0.116373755,nan,nan,nan,nan,nan,nan,nan,0.0,1.0,nan,nan,nan,nan,nan,nan,nan,0.0,0.0,nan,nan,0.0,0.0,nan,nan,0,2,1,1,0,0,0,0,0,0,0,0,0
458324916,204529915,3,3932170,3997730,3932170,396825,0.098845646,0.10155776,nan,nan,nan,nan,nan,nan,nan,0.0,1.0,nan,nan,nan,nan,nan,nan,nan,0.0,0.0,nan,nan,0.0,0.0,nan,nan,0,2,1,1,0,0,0,0,0,0,0,0,0
459333653,204529915,3,3932170,3997730,3932170,396825,0.09241167,0.09527745,nan,nan,nan,nan,nan,nan,nan,0.0,1.0,nan,nan,nan,nan,nan,nan,nan,0.0,0.0,nan,nan,0.0,0.0,nan,nan,0,2,1,1,0,0,0,0,0,0,0,0,0
460333814,204529915,3,3932170,3997730,3932170,396825,0.09009221,0.09184871,nan,nan,nan,nan,nan,nan,nan,0.0,1.0,nan,nan,nan,nan,nan,nan,nan,0.0,0.0,nan,nan,0.0,0.0,nan,nan,0,2,1,1,0,0,0,0,0,0,0,0,0
461337474,204529915,3,3932170,3997730,3932170,396825,0.10831268,0.09660793,nan,nan,nan,nan,nan,nan,nan,0.0,1.0,nan,nan,nan,nan,nan,nan,nan,0.0,0.0,nan,nan,0.0,0.0,nan,nan,0,2,1,1,0,0,0,0,0,0,0,0,0
462345873,204529915,3,3932170,3997730,3932170,396825,0.13808818,0.13197272,nan,nan,nan,nan,nan,nan,nan,0.0,1.0,nan,nan,nan,nan,nan,nan,nan,0.0,0.0,nan,nan,0.0,0.0,nan,nan,0,2,1,1,0,0,0,0,0,0,0,0,0
463352826,204529915,3,3932170,3997730,3932170,396825,0.15764913,0.15267171,nan,nan,nan,nan,nan,nan,nan,0.0,1.0,nan,nan,nan,nan,nan,nan,nan,0.0,0.0,nan,nan,0.0,0.0,nan,nan,0,2,1,1,0,0,0,0,0,0,0,0,0
464356410,204529915,3,3932170,3997730,3932170,396825,0.13925403,0.14139453,nan,nan,nan,nan,nan,nan,nan,0.0,1.0,nan,nan,nan,nan,nan,nan,nan,0.0,0.0,nan,nan,0.0,0.0,nan,nan,0,2,1,1,0,0,0,0,0,0,0,0,0
465365173,204529915,3,3932170,3997730,3932170,396825,0.1289709,0.1278153,nan,nan,nan,nan,nan,nan,nan,0.0,1.0,nan,nan,nan,nan,nan,nan,nan,0.0,0.0,nan,nan,0.0,0.0,nan,nan,0,2,1,1,0,0,0,0,0,0,0,0,0
466373675,204529915,3,3932170,3997730,3932170,396825,0.12715018,0.12544253,nan,nan,nan,nan,nan,nan,nan,0.0,1.0,nan,nan,nan,nan,nan,nan,nan,0.0,0.0,nan,nan,0.0,0.0,nan,nan,0,2,1,1,0,0,0,0,0,0,0,0,0
467382081,204529915,3,3932170,3997730,3932170,396825,0.12164204,0.11945917,nan,nan,nan,nan,nan,nan,nan,0.0,1.0,nan,nan,nan,nan,nan,nan,nan,0.0,0.0,nan,nan,0.0,0.0,nan,nan,0,2,1,1,0,0,0,0,0,0,0,0,0
468385753,204529915,3,3932170,3997730,3932170,396825,0.1121825,0.1125704,nan,nan,nan,nan,nan,nan,nan,0.0,1.0,nan,nan,nan,nan,nan,nan,nan,0.0,0.0,nan,nan,0.0,0.0,nan,nan,0,2,1,1,0,0,0,0,0,0,0,0,0
469394361,204529915,3,3932170,3997730,3932170,396825,0.101424664,0.10453164,nan,nan,nan,nan,nan,nan,nan,0.0,1.0,nan,nan,nan,nan,nan,nan,nan,0.0,0.0,nan,nan,0.0,0.0,nan,nan,0,2,1,1,0,0,0,0,0,0,0,0,0
470403102,204529915,3,3932170,3997730,3932170,396825,0.089040324,0.098061085,nan,nan,nan,nan,nan,nan,nan,0.0,1.0,nan,nan,nan,nan,nan,nan,nan,0.0,0.0,nan,nan,0.0,0.0,nan,nan,0,2,1,1,0,0,0,0,0,0,0,0,0
471411400,204529915,3,3932170,3997730,3932170,396825,0.07839828,0.0951521,nan,nan,nan,nan,nan,nan,nan,0.0,1.0,nan,nan,nan,nan,nan,nan,nan,0.0,0.0,nan,nan,0.0,0.0,nan,nan,0,2,1,1,0,0,0,0,0,0,0,0,0
473423694,204529915,3,3932170,3997730,3932170,396825,0.06731254,0.08792278,nan,nan,nan,nan,nan,nan,nan,0.0,1.0,nan,nan,nan,nan,nan,nan,nan,0.0,0.0,nan,nan,0.0,0.0,nan,nan,0,2,1,1,0,0,0,0,0,0,0,0,0
474432346,204529915,3,3932170,3997730,3932170,396825,0.066120304,0.087553866,nan,nan,nan,nan,nan,nan,nan,0.0,1.0,nan,nan,nan,nan,nan,nan,nan,0.0,0.0,nan,nan,0.0,0.0,nan,nan,0,2,1,1,0,0,0,0,0,0,0,0,0
475435936,204529915,3,3932170,3997730,3932170,396825,0.06431577,0.08700428,nan,nan,nan,nan,nan,nan,nan,0.0,1.0,nan,nan,nan,nan,nan,nan,nan,0.0,0.0,nan,nan,0.0,0.0,nan,nan,0,2,1,1,0,0,0,0,0,0,0,0,0
476444345,204529915,3,3932170,3997730,3932170,396825,0.06266009,0.08501458,nan,nan,nan,nan,nan,nan,nan,0.0,1.0,nan,nan,nan,nan,nan,nan,nan,0.0,0.0,nan,nan,0.0,0.0,nan,nan,0,2,1,1,0,0,0,0,0,0,0,0,0
477452998,204529915,3,3932170,3997730,3932170,396825,0.07299796,0.087627076,nan,nan,nan,nan,nan,nan,nan,0.0,1.0,nan,nan,nan,nan,nan,nan,nan,0.0,0.0,nan,nan,0.0,0.0,nan,nan,0,2,1,1,0,0,0,0,0,0,0,0,0
478461577,204529915,3,3932170,3997730,3932170,396825,0.070623465,0.08811598,nan,nan,nan,nan,nan,nan,nan,0.0,1.0,nan,nan,nan,nan,nan,nan,nan,0.0,0.0,nan,nan,0.0,0.0,nan,nan,0,2,1,1,0,0,0,0,0,0,0,0,0
479465161,204529915,3,3932170,3997730,3932170,396825,0.059991293,0.08252748,nan,nan,nan,nan,nan,nan,nan,0.0,1.0,nan,nan,nan,nan,nan,nan,nan,0.0,0.0,nan,nan,0.0,0.0,nan,nan,0,2,1,1,0,0,0,0,0,0,0,0,0
480473642,204529915,3,3932170,3997730,3932170,396825,0.051988125,0.07319816,nan,nan,nan,nan,nan,nan,nan,0.0,1.0,nan,nan,nan,nan,nan,nan,nan,0.0,0.0,nan,nan,0.0,0.0,nan,nan,0,2,1,1,0,0,0,0,0,0,0,0,0
481482237,204529915,3,3932170,3997730,3932170,396825,0.045083717,0.06541455,nan,nan,nan,nan,nan,nan,nan,0.0,1.0,nan,nan,nan,nan,nan,nan,nan,0.0,0.0,nan,nan,0.0,0.0,nan,nan,0,2,1,1,0,0,0,0,0,0,0,0,0
482490833,204529915,3,3932170,3997730,3932170,396825,0.0373551,0.05686249,nan,nan,nan,nan,nan,nan,nan,0.0,1.0,nan,nan,nan,nan,nan,nan,nan,0.0,0.0,nan,nan,0.0,0.0,nan,nan,0,2,1,1,0,0,0,0,0,0,0,0,0
483499270,204529915,3,3932170,3997730,3932170,396825,0.03672468,0.049321763,nan,nan,nan,nan,nan,nan,nan,0.0,1.0,nan,nan,nan,nan,nan,nan,nan,0.0,0.0,nan,nan,0.0,0.0,nan,nan,0,2,1,1,0,0,0,0,0,0,0,0,0
484507971,204529915,3,3932170,3997730,3932170,396825,0.0377663,0.042785827,nan,nan,nan,nan,nan,nan,nan,0.0,1.0,nan,nan,nan,nan,nan,nan,nan,0.0,0.0,nan,nan,0.0,0.0,nan,nan,0,2,1,1,0,0,0,0,0,0,0,0,0
485516614,204529915,3,3932170,3997730,3932170,396825,0.035399694,0.037482303,nan,nan,nan,nan,nan,nan,nan,0.0,1.0,nan,nan,nan,nan,nan,nan,nan,0.0,0.0,nan,nan,0.0,0.0,nan,nan,0,2,1,1,0,0,0,0,0,0,0,0,0
486525152,204529915,3,3932170,3997730,3932170,396825,0.038920883,0.042145785,nan,nan,nan,nan,nan,nan,nan,0.0,1.0,nan,nan,nan,nan,nan,nan,nan,0.0,0.0,nan,nan,0.0,0.0,nan,nan,0,2,1,1,0,0,0,0,0,0,0,0,0
487533646,204529915,3,3932170,3997730,3932170,396825,0.049225315,0.053857908,nan,nan,nan,nan,nan,nan,nan,0.0,1.0,nan,nan,nan,nan,nan,nan,nan,0.0,0.0,nan,nan,0.0,0.0,nan,nan,0,2,1,1,0,0,0,0,0,0,0,0,0
490554343,204529915,3,3932170,3997730,3932170,396825,0.0318304,0.03932005,nan,nan,nan,nan,nan,nan,nan,0.0,1.0,nan,nan,nan,nan,nan,nan,nan,0.0,0.0,nan,nan,0.0,0.0,nan,nan,0,2,1,1,0,0,0,0,0,0,0,0,0
491562893,204529915,3,3932170,3997730,3932170,396825,0.03874578,0.046585497,nan,nan,nan,nan,nan,nan,nan,0.0,1.0,nan,nan,nan,nan,nan,nan,nan,0.0,0.0,nan,nan,0.0,0.0,nan,nan,0,2,1,1,0,0,0,0,0,0,0,0,0
492571754,204529915,3,3932170,3997730,3932170,396825,0.040745284,0.048890464,nan,nan,nan,nan,nan,nan,nan,0.0,1.0,nan,nan,nan,nan,nan,nan,nan,0.0,0.0,nan,nan,0.0,0.0,nan,nan,0,2,1,1,0,0,0,0,0,0,0,0,0
493575242,204529915,3,3932170,3997730,3932170,396825,0.036024123,0.04514421,nan,nan,nan,nan,nan,nan,nan,0.0,1.0,nan,nan,nan,nan,nan,nan,nan,0.0,0.0,nan,nan,0.0,0.0,nan,nan,0,2,1,1,0,0,0,0,0,0,0,0,0
494578890,204529915,3,3932170,3997730,3932170,396825,0.028178465,0.03728264,nan,nan,nan,nan,nan,nan,nan,0.0,1.0,nan,nan,nan,nan,nan,nan,nan,0.0,0.0,nan,nan,0.0,0.0,nan,nan,0,2,1,1,0,0,0,0,0,0,0,0,0
495587256,204529915,3,3932170,3997730,3932170,396825,0.025656037,0.034510046,nan,nan,nan,nan,nan,nan,nan,0.0,1.0,nan,nan,nan,nan,nan,nan,nan,0.0,0.0,nan,nan,0.0,0.0,nan,nan,0,2,1,1,0,0,0,0,0,0,0,0,0
496595718,204529915,3,3932170,3997730,3932170,396825,0.025107043,0.033587057,nan,nan,nan,nan,nan,nan,nan,0.0,1.0,nan,nan,nan,nan,nan,nan,nan,0.0,0.0,nan,nan,0.0,0.0,nan,nan,0,2,1,1,0,0,0,0,0,0,0,0,0
497604422,204529915,3,3932170,3997730,3932170,396825,0.024709342,0.03293263,nan,nan,nan,nan,nan,nan,nan,0.0,1.0,nan,nan,nan,nan,nan,nan,nan,0.0,0.0,nan,nan,0.0,0.0,nan,nan,0,2,1,1,0,0,0,0,0,0,0,0,0
498613076,204529915,3,3932170,3997730,3932170,396825,0.033970967,0.036566906,nan,nan,nan,nan,nan,nan,nan,0.0,1.0,nan,nan,nan,nan,nan,nan,nan,0.0,0.0,nan,nan,0.0,0.0,nan,nan,0,2,1,1,0,0,0,0,0,0,0,0,0
499621509,204529915,3,3932170,3997730,3932170,396825,0.028454086,0.031241387,nan,nan,nan,nan,nan,nan,nan,0.0,1.0,nan,nan,nan,nan,nan,nan,nan,0.0,0.0,nan,nan,0.0,0.0,nan,nan,0,2,1,1,0,0,0,0,0,0,0,0,0
500625109,204529915,3,3932170,3997730,3932170,396825,0.030256858,0.02888329,nan,nan,nan,nan,nan,nan,nan,0.0,1.0,nan,nan,nan,nan,nan,nan,nan,0.0,0.0,nan,nan,0.0,0.0,nan,nan,0,2,1,1,0,0,0,0,0,0,0,0,0
501633709,204529915,3,3932170,3997730,3932170,396825,0.038460527,0.032869775,nan,nan,nan,nan,nan,nan,nan,0.0,1.0,nan,nan,nan,nan,nan,nan,nan,0.0,0.0,nan,nan,0.0,0.0,nan,nan,0,2,1,1,0,0,0,0,0,0,0,0,0
502642368,204529915,3,3932170,3997730,3932170,396825,0.0434848,0.039039493,nan,nan,nan,nan,nan,nan,nan,0.0,1.0,nan,nan,nan,nan,nan,nan,nan,0.0,0.0,nan,nan,0.0,0.0,nan,nan,0,2,1,1,0,0,0,0,0,0,0,0,0
503645800,204529915,3,3932170,3997730,3932170,396825,0.043946598,0.037473604,nan,nan,nan,nan,nan,nan,nan,0.0,1.0,nan,nan,nan,nan,nan,nan,nan,0.0,0.0,nan,nan,0.0,0.0,nan,nan,0,2,1,1,0,0,0,0,0,0,0,0,0
504646034,204529915,3,3932170,3997730,3932170,396825,0.04199849,0.036993504,nan,nan,nan,nan,nan,nan,nan,0.0,1.0,nan,nan,nan,nan,nan,nan,nan,0.0,0.0,nan,nan,0.0,0.0,nan,nan,0,2,1,1,0,0,0,0,0,0,0,0,0
505652965,204529915,3,3932170,3997730,3932170,396825,0.040147517,0.03636561,nan,nan,nan,nan,nan,nan,nan,0.0,1.0,nan,nan,nan,nan,nan,nan,nan,0.0,0.0,nan,nan,0.0,0.0,nan,nan,0,2,1,1,0,0,0,0,0,0,0,0,0
506653158,204529915,3,3932170,3997730,3932170,396825,0.03694117,0.035205077,nan,nan,nan,nan,nan,nan,nan,0.0,1.0,nan,nan,nan,nan,nan,nan,nan,0.0,0.0,nan,nan,0.0,0.0,nan,nan,0,2,1,1,0,0,0,0,0,0,0,0,0
507655127,204529915,3,3932170,3997730,3932170,396825,0.044339254,0.04306952,nan,nan,nan,nan,nan,nan,nan,0.0,1.0,nan,nan,nan,nan,nan,nan,nan,0.0,0.0,nan,nan,0.0,0.0,nan,nan,0,2,1,1,0,0,0,0,0,0,0,0,0
508663730,204529915,3,3932170,3997730,3932170,396825,0.05333337,0.045118954,nan,nan,nan,nan,nan,nan,nan,0.0,1.0,nan,nan,nan,nan,nan,nan,nan,0.0,0.0,nan,nan,0.0,0.0,nan,nan,0,2,1,1,0,0,0,0,0,0,0,0,0
509672422,204529915,3,3932170,3997730,3932170,396825,0.05399074,0.049803346,nan,nan,nan,nan,nan,nan,nan,0.0,1.0,nan,nan,nan,nan,nan,nan,nan,0.0,0.0,nan,nan,0.0,0.0,nan,nan,0,2,1,1,0,0,0,0,0,0,0,0,0
510680999,204529915,3,3932170,3997730,3932170,396825,0.052669793,0.046591543,nan,nan,nan,nan,nan,nan,nan,0.0,1.0,nan,nan,nan,nan,nan,nan,nan,0.0,0.0,nan,nan,0.0,0.0,nan,nan,0,2,1,1,0,0,0,0,0,0,0,0,0
511684553,204529915,3,3932170,3997730,3932170,396825,0.050221156,0.04415838,nan,nan,nan,nan,nan,nan,nan,0.0,1.0,nan,nan,nan,nan,nan,nan,nan,0.0,0.0,nan,nan,0.0,0.0,nan,nan,0,2,1,1,0,0,0,0,0,0,0,0,0
512692954,204529915,3,3932170,3997730,3932170,396825,0.0470696,0.042955052,nan,nan,nan,nan,nan,nan,nan,0.0,1.0,nan,nan,nan,nan,nan,nan,nan,0.0,0.0,nan,nan,0.0,0.0,nan,nan,0,2,1,1,0,0,0,0,0,0,0,0,0
513701763,204529915,3,3932170,3997730,3932170,396825,0.039895337,0.038179986,nan,nan,nan,nan,nan,nan,nan,0.0,1.0,nan,nan,nan,nan,nan,nan,nan,0.0,0.0,nan,nan,0.0,0.0,nan,nan,0,2,1,1,0,0,0,0,0,0,0,0,0
514705230,204529915,3,3932170,3997730,3932170,396825,0.031247683,0.040468384,nan,nan,nan,nan,nan,nan,nan,0.0,1.0,nan,nan,nan,nan,nan,nan,nan,0.0,0.0,nan,nan,0.0,0.0,nan,nan,0,2,1,1,0,0,0,0,0,0,0,0,0
515708752,204529915,3,3932170,3997730,3932170,396825,0.037834093,0.04337609,nan,nan,nan,nan,nan,nan,nan,0.0,1.0,nan,nan,nan,nan,nan,nan,nan,0.0,0.0,nan,nan,0.0,0.0,nan,nan,0,2,1,1,0,0,0,0,0,0,0,0,0
516717284,204529915,3,3932170,3997730,3932170,396825,0.031756036,0.046904843,nan,nan,nan,nan,nan,nan,nan,0.0,1.0,nan,nan,nan,nan,nan,nan,nan,0.0,0.0,nan,nan,0.0,0.0,nan,nan,0,2,1,1,0,0,0,0,0,0,0,0,0
517726007,204529915,3,3932170,3997730,3932170,396825,0.040056016,0.051649883,nan,nan,nan,nan,nan,nan,nan,0.0,1.0,nan,nan,nan,nan,nan,nan,nan,0.0,0.0,nan,nan,0.0,0.0,nan,nan,0,2,1,1,0,0,0,0,0,0,0,0,0
518729499,204529915,3,3932170,3997730,3932170,396825,0.03843741,0.0530757,nan,nan,nan,nan,nan,nan,nan,0.0,1.0,nan,nan,nan,nan,nan,nan,nan,0.0,0.0,nan,nan,0.0,0.0,nan,nan,0,2,1,1,0,0,0,0,0,0,0,0,0
519738101,204529915,3,3932170,3997730,3932170,396825,0.05048321,0.05547828,nan,nan,nan,nan,nan,nan,nan,0.0,1.0,nan,nan,nan,nan,nan,nan,nan,0.0,0.0,nan,nan,0.0,0.0,nan,nan,0,2,1,1,0,0,0,0,0,0,0,0,0
520746532,204529915,3,3932170,3997730,3932170,396825,0.05289463,0.05532789,nan,nan,nan,nan,nan,nan,nan,0.0,1.0,nan,nan,nan,nan,nan,nan,nan,0.0,0.0,nan,nan,0.0,0.0,nan,nan,0,2,1,1,0,0,0,0,0,0,0,0,0
521755134,204529915,3,3932170,3997730,3932170,396825,0.041712157,0.05461678,nan,nan,nan,nan,nan,nan,nan,0.0,1.0,nan,nan,nan,nan,nan,nan,nan,0.0,0.0,nan,nan,0.0,0.0,nan,nan,0,2,1,1,0,0,0,0,0,0,0,0,0
523772336,204529915,3,3932170,3997730,3932170,396825,0.04068315,0.04469626,nan,nan,nan,nan,nan,nan,nan,0.0,1.0,nan,nan,nan,nan,nan,nan,nan,0.0,0.0,nan,nan,0.0,0.0,nan,nan,0,2,1,1,0,0,0,0,0,0,0,0,0
524772585,204529915,3,3932170,3997730,3932170,396825,0.041785322,0.041097052,nan,nan,nan,nan,nan,nan,nan,0.0,1.0,nan,nan,nan,nan,nan,nan,nan,0.0,0.0,nan,nan,0.0,0.0,nan,nan,0,2,1,1,0,0,0,0,0,0,0,0,0
525774547,204529915,3,3932170,3997730,3932170,396825,0.03997503,0.03812693,nan,nan,nan,nan,nan,nan,nan,0.0,1.0,nan,nan,nan,nan,nan,nan,nan,0.0,0.0,nan,nan,0.0,0.0,nan,nan,0,2,1,1,0,0,0,0,0,0,0,0,0
526782983,204529915,3,3932170,3997730,3932170,396825,0.043976367,0.042208977,nan,nan,nan,nan,nan,nan,nan,0.0,1.0,nan,nan,nan,nan,nan,nan,nan,0.0,0.0,nan,nan,0.0,0.0,nan,nan,0,2,1,1,0,0,0,0,0,0,0,0,0
527791739,204529915,3,3932170,3997730,3932170,396825,0.042760592,0.03208,nan,nan,nan,nan,nan,nan,nan,0.0,1.0,nan,nan,nan,nan,nan,nan,nan,0.0,0.0,nan,nan,0.0,0.0,nan,nan,0,2,1,1,0,0,0,0,0,0,0,0,0
528800347,204529915,3,3932170,3997730,3932170,396825,0.05117122,0.03809261,nan,nan,nan,nan,nan,nan,nan,0.0,1.0,nan,nan,nan,nan,nan,nan,nan,0.0,0.0,nan,nan,0.0,0.0,nan,nan,0,2,1,1,0,0,0,0,0,0,0,0,0
529803912,204529915,3,3932170,3997730,3932170,396825,0.059648294,0.039759405,nan,nan,nan,nan,nan,nan,nan,0.0,1.0,nan,nan,nan,nan,nan,nan,nan,0.0,0.0,nan,nan,0.0,0.0,nan,nan,0,2,1,1,0,0,0,0,0,0,0,0,0
530812296,204529915,3,3932170,3997730,3932170,396825,0.06740922,0.028347472,nan,nan,nan,nan,nan,nan,nan,0.0,1.0,nan,nan,nan,nan,nan,nan,nan,0.0,0.0,nan,nan,0.0,0.0,nan,nan,0,2,1,1,0,0,0,0,0,0,0,0,0
531820848,204529915,3,3932170,3997730,3932170,396825,0.07281773,0.045476437,nan,nan,nan,nan,nan,nan,nan,0.0,1.0,nan,nan,nan,nan,nan,nan,nan,0.0,0.0,nan,nan,0.0,0.0,nan,nan,0,2,1,1,0,0,0,0,0,0,0,0,0
532824374,204529915,3,3932170,3997730,3932170,396825,0.07790083,0.047946855,nan,nan,nan,nan,nan,nan,nan,0.0,1.0,nan,nan,nan,nan,nan,nan,nan,0.0,0.0,nan,nan,0.0,0.0,nan,nan,0,2,1,1,0,0,0,0,0,0,0,0,0
533833164,204529915,3,3932170,3997730,3932170,396825,0.0811319,0.042680867,nan,nan,nan,nan,nan,nan,nan,0.0,1.0,nan,nan,nan,nan,nan,nan,nan,0.0,0.0,nan,nan,0.0,0.0,nan,nan,0,2,1,1,0,0,0,0,0,0,0,0,0
534836740,204529915,3,3932170,3997730,3932170,396825,0.084170006,0.04737991,nan,nan,nan,nan,nan,nan,nan,0.0,1.0,nan,nan,nan,nan,nan,nan,nan,0.0,0.0,nan,nan,0.0,0.0,nan,nan,0,2,1,1,0,0,0,0,0,0,0,0,0
535845166,204529915,3,3932170,3997730,3932170,396825,0.086426355,0.051257674,nan,nan,nan,nan,nan,nan,nan,0.0,1.0,nan,nan,nan,nan,nan,nan,nan,0.0,0.0,nan,nan,0.0,0.0,nan,nan,0,2,1,1,0,0,0,0,0,0,0,0,0
536853706,204529915,3,3932170,3997730,3932170,396825,0.08545091,0.05242312,nan,nan,nan,nan,nan,nan,nan,0.0,1.0,nan,nan,nan,nan,nan,nan,nan,0.0,0.0,nan,nan,0.0,0.0,nan,nan,0,2,1,1,0,0,0,0,0,0,0,0,0
537862326,204529915,3,3932170,3997730,3932170,396825,0.08171505,0.051739603,nan,nan,nan,nan,nan,nan,nan,0.0,1.0,nan,nan,nan,nan,nan,nan,nan,0.0,0.0,nan,nan,0.0,0.0,nan,nan,0,2,1,1,0,0,0,0,0,0,0,0,0
538870942,204529915,3,3932170,3997730,3932170,396825,0.07760324,0.049845442,nan,nan,nan,nan,nan,nan,nan,0.0,1.0,nan,nan,nan,nan,nan,nan,nan,0.0,0.0,nan,nan,0.0,0.0,nan,nan,0,2,1,1,0,0,0,0,0,0,0,0,0
539874393,204529915,3,3932170,3997730,3932170,396825,0.072114296,0.04771951,nan,nan,nan,nan,nan,nan,nan,0.0,1.0,nan,nan,nan,nan,nan,nan,nan,0.0,0.0,nan,nan,0.0,0.0,nan,nan,0,2,1,1,0,0,0,0,0,0,0,0,0
540882994,204529915,3,3932170,3997730,3932170,396825,0.06721011,0.045870442,nan,nan,nan,nan,nan,nan,nan,0.0,1.0,nan,nan,nan,nan,nan,nan,nan,0.0,0.0,nan,nan,0.0,0.0,nan,nan,0,2,1,1,0,0,0,0,0,0,0,0,0
541891665,204529915,3,3932170,3997730,3932170,396825,0.061638415,0.04356847,nan,nan,nan,nan,nan,nan,nan,0.0,1.0,nan,nan,nan,nan,nan,nan,nan,0.0,0.0,nan,nan,0.0,0.0,nan,nan,0,2,1,1,0,0,0,0,0,0,0,0,0
542900073,204529915,3,3932170,3997730,3932170,396825,0.055578332,0.04066172,nan,nan,nan,nan,nan,nan,nan,0.0,1.0,nan,nan,nan,nan,nan,nan,nan,0.0,0.0,nan,nan,0.0,0.0,nan,nan,0,2,1,1,0,0,0,0,0,0,0,0,0
543903768,204529915,3,3932170,3997730,3932170,396825,0.048813596,0.035697307,nan,nan,nan,nan,nan,nan,nan,0.0,1.0,nan,nan,nan,nan,nan,nan,nan,0.0,0.0,nan,nan,0.0,0.0,nan,nan,0,2,1,1,0,0,0,0,0,0,0,0,0
544912304,204529915,3,3932170,3997730,3932170,396825,0.042253442,0.03284817,nan,nan,nan,nan,nan,nan,nan,0.0,1.0,nan,nan,nan,nan,nan,nan,nan,0.0,0.0,nan,nan,0.0,0.0,nan,nan,0,2,1,1,0,0,0,0,0,0,0,0,0
545915828,204529915,3,3932170,3997730,3932170,396825,0.03479652,0.028458646,nan,nan,nan,nan,nan,nan,nan,0.0,1.0,nan,nan,nan,nan,nan,nan,nan,0.0,0.0,nan,nan,0.0,0.0,nan,nan,0,2,1,1,0,0,0,0,0,0,0,0,0
547932959,204529915,3,3932170,3997730,3932170,396825,0.024477713,0.017752849,nan,nan,nan,nan,nan,nan,nan,0.0,1.0,nan,nan,nan,nan,nan,nan,nan,0.0,0.0,nan,nan,0.0,0.0,nan,nan,0,2,1,1,0,0,0,0,0,0,0,0,0
548941814,204529915,3,3932170,3997730,3932170,396825,0.012136171,0.013276419,nan,nan,nan,nan,nan,nan,nan,0.0,1.0,nan,nan,nan,nan,nan,nan,nan,0.0,0.0,nan,nan,0.0,0.0,nan,nan,0,2,1,1,0,0,0,0,0,0,0,0,0
549945114,204529915,3,3932170,3997730,3932170,396825,0.011819035,0.0163028,nan,nan,nan,nan,nan,nan,nan,0.0,1.0,nan,nan,nan,nan,nan,nan,nan,0.0,0.0,nan,nan,0.0,0.0,nan,nan,0,2,1,1,0,0,0,0,0,0,0,0,0
550953954,204529915,3,3932170,3997730,3932170,396825,0.015695663,0.020070005,nan,nan,nan,nan,nan,nan,nan,0.0,1.0,nan,nan,nan,nan,nan,nan,nan,0.0,0.0,nan,nan,0.0,0.0,nan,nan,0,2,1,1,0,0,0,0,0,0,0,0,0
551962279,204529915,3,3932170,3997730,3932170,396825,0.015507036,0.020530127,nan,nan,nan,nan,nan,nan,nan,0.0,1.0,nan,nan,nan,nan,nan,nan,nan,0.0,0.0,nan,nan,0.0,0.0,nan,nan,0,2,1,1,0,0,0,0,0,0,0,0,0
552970855,204529915,3,3932170,3997730,3932170,396825,0.026332704,0.020604655,nan,nan,nan,nan,nan,nan,nan,0.0,1.0,nan,nan,nan,nan,nan,nan,nan,0.0,0.0,nan,nan,0.0,0.0,nan,nan,0,2,1,1,0,0,0,0,0,0,0,0,0
553974442,204529915,3,3932170,3997730,3932170,396825,0.01786544,0.020179052,nan,nan,nan,nan,nan,nan,nan,0.0,1.0,nan,nan,nan,nan,nan,nan,nan,0.0,0.0,nan,nan,0.0,0.0,nan,nan,0,2,1,1,0,0,0,0,0,0,0,0,0
554977994,204529915,3,3932170,3997730,3932170,396825,0.03165312,0.024993679,nan,nan,nan,nan,nan,nan,nan,0.0,1.0,nan,nan,nan,nan,nan,nan,nan,0.0,0.0,nan,nan,0.0,0.0,nan,nan,0,2,1,1,0,0,0,0,0,0,0,0,0
555986769,204529915,3,3932170,3997730,3932170,396825,0.037276585,0.030694213,nan,nan,nan,nan,nan,nan,nan,0.0,1.0,nan,nan,nan,nan,nan,nan,nan,0.0,0.0,nan,nan,0.0,0.0,nan,nan,0,2,1,1,0,0,0,0,0,0,0,0,0
556995201,204529915,3,3932170,3997730,3932170,396825,0.03350017,0.026604742,nan,nan,nan,nan,nan,nan,nan,0.0,1.0,nan,nan,nan,nan,nan,nan,nan,0.0,0.0,nan,nan,0.0,0.0,nan,nan,0,2,1,1,0,0,0,0,0,0,0,0,0
558003797,204529915,3,3932170,3997730,3932170,396825,0.04447466,0.036969554,nan,nan,nan,nan,nan,nan,nan,0.0,1.0,nan,nan,nan,nan,nan,nan,nan,0.0,0.0,nan,nan,0.0,0.0,nan,nan,0,2,1,1,0,0,0,0,0,0,0,0,0
559012439,204529915,3,3932170,3997730,3932170,396825,0.045904938,0.03775827,nan,nan,nan,nan,nan,nan,nan,0.0,1.0,nan,nan,nan,nan,nan,nan,nan,0.0,0.0,nan,nan,0.0,0.0,nan,nan,0,2,1,1,0,0,0,0,0,0,0,0,0
560016002,204529915,3,3932170,3997730,3932170,396825,0.030056352,0.020911392,nan,nan,nan,nan,nan,nan,nan,0.0,1.0,nan,nan,nan,nan,nan,nan,nan,0.0,0.0,nan,nan,0.0,0.0,nan,nan,0,2,1,1,0,0,0,0,0,0,0,0,0
561024501,204529915,3,3932170,3997730,3932170,396825,0.04489649,0.03430353,nan,nan,nan,nan,nan,nan,nan,0.0,1.0,nan,nan,nan,nan,nan,nan,nan,0.0,0.0,nan,nan,0.0,0.0,nan,nan,0,2,1,1,0,0,0,0,0,0,0,0,0
562033061,204529915,3,3932170,3997730,3932170,396825,0.045587145,0.03425339,nan,nan,nan,nan,nan,nan,nan,0.0,1.0,nan,nan,nan,nan,nan,nan,nan,0.0,0.0,nan,nan,0.0,0.0,nan,nan,0,2,1,1,0,0,0,0,0,0,0,0,0
563036621,204529915,3,3932170,3997730,3932170,396825,0.054407325,0.042213317,nan,nan,nan,nan,nan,nan,nan,0.0,1.0,nan,nan,nan,nan,nan,nan,nan,0.0,0.0,nan,nan,0.0,0.0,nan,nan,0,2,1,1,0,0,0,0,0,0,0,0,0
564045300,204529915,3,3932170,3997730,3932170,396825,0.07485596,0.049845316,nan,nan,nan,nan,nan,nan,nan,0.0,1.0,nan,nan,nan,nan,nan,nan,nan,0.0,0.0,nan,nan,0.0,0.0,nan,nan,0,2,1,1,0,0,0,0,0,0,0,0,0
565053762,204529915,3,3932170,3997730,3932170,396825,0.083843604,0.05431946,nan,nan,nan,nan,nan,nan,nan,0.0,1.0,nan,nan,nan,nan,nan,nan,nan,0.0,0.0,nan,nan,0.0,0.0,nan,nan,0,2,1,1,0,0,0,0,0,0,0,0,0
