timestamp,timestamp_sample,gps_hvel[0],gps_hvel[1],gps_vvel,gps_hpos[0],gps_hpos[1],gps_vpos,ev_hvel[0],ev_hvel[1],ev_vvel,ev_hpos[0],ev_hpos[1],ev_vpos,rng_vpos,baro_vpos,aux_hvel[0],aux_hvel[1],aux_vvel,flow[0],flow[1],heading,mag_field[0],mag_field[1],mag_field[2],drag[0],drag[1],airspeed,beta,hagl
293536311,293535766,0.0,0.0,0.0,0.3020537,0.3020568,0.0,0.0,0.0,0.0,0.0,0.0,0.0,0.0,12.5083475,0.0,0.0,nan,0.0,0.0,0.09013694,0.002505522,0.0025107213,0.0025098454,0.0,0.0,0.0,0.0,0.0
294032834,294031582,0.0,0.0,0.0,0.30219683,0.30219993,0.0,0.0,0.0,0.0,0.0,0.0,0.0,0.0,12.508017,0.0,0.0,nan,0.0,0.0,0.09013684,0.002505522,0.0025107213,0.0025098454,0.0,0.0,0.0,0.0,0.0
294528112,294527664,0.0,0.0,0.0,0.30199856,0.30200157,0.0,0.0,0.0,0.0,0.0,0.0,0.0,0.0,12.508274,0.0,0.0,nan,0.0,0.0,0.09013685,0.002505522,0.0025107213,0.0025098454,0.0,0.0,0.0,0.0,0.0
295037520,295036952,0.0,0.0,0.0,100.062935,100.062935,0.0,0.0,0.0,0.0,0.0,0.0,0.0,0.0,12.507982,0.0,0.0,nan,0.0,0.0,0.09013695,0.002505522,0.0025107213,0.0025098454,0.0,0.0,0.0,0.0,0.0
295537733,295537072,0.0,0.0,0.0,100.09157,100.09159,0.0,0.0,0.0,0.0,0.0,0.0,0.0,0.0,12.508607,0.0,0.0,nan,0.0,0.0,0.090137005,0.002505522,0.0025107213,0.0025098454,0.0,0.0,0.0,0.0,0.0
296033687,296033076,0.0,0.0,0.0,100.13019,100.13027,0.0,0.0,0.0,0.0,0.0,0.0,0.0,0.0,12.506818,0.0,0.0,nan,0.0,0.0,0.09013703,0.002505522,0.0025107213,0.0025098454,0.0,0.0,0.0,0.0,0.0
296534513,296533219,0.0,0.0,0.0,100.21667,100.217064,0.0,0.0,0.0,0.0,0.0,0.0,0.0,0.0,12.507497,0.0,0.0,nan,0.0,0.0,0.090137124,0.002505522,0.0025107213,0.0025098454,0.0,0.0,0.0,0.0,0.0
297029784,297029197,0.0,0.0,0.0,100.29534,100.2962,0.0,0.0,0.0,0.0,0.0,0.0,0.0,0.0,12.50707,0.0,0.0,nan,0.0,0.0,0.090137295,0.002505522,0.0025107213,0.0025098454,0.0,0.0,0.0,0.0,0.0
297538914,297538498,0.0,0.0,0.0,100.45715,100.45938,0.0,0.0,0.0,0.0,0.0,0.0,0.0,0.0,12.507225,0.0,0.0,nan,0.0,0.0,0.09013736,0.002505522,0.0025107213,0.0025098454,0.0,0.0,0.0,0.0,0.0
298034596,298034206,0.0,0.0,0.0,100.6021,100.60587,0.0,0.0,0.0,0.0,0.0,0.0,0.0,0.0,12.506796,0.0,0.0,nan,0.0,0.0,0.09013738,0.002505522,0.0025107213,0.0025098454,0.0,0.0,0.0,0.0,0.0
298535226,298534623,0.0,0.0,0.0,100.78082,100.78677,0.0,0.0,0.0,0.0,0.0,0.0,0.0,0.0,12.505929,0.0,0.0,nan,0.0,0.0,0.090137295,0.002505522,0.0025107213,0.0025098454,0.0,0.0,0.0,0.0,0.0
299036282,299034860,0.0,0.0,0.0,101.112076,101.12259,0.0,0.0,0.0,0.0,0.0,0.0,0.0,0.0,12.506493,0.0,0.0,nan,0.0,0.0,0.0901374,0.002505522,0.0025107213,0.0025098454,0.0,0.0,0.0,0.0,0.0
299531208,299530756,0.0,0.0,0.0,101.38573,101.40033,0.0,0.0,0.0,0.0,0.0,0.0,0.0,0.0,12.507076,0.0,0.0,nan,0.0,0.0,0.09013734,0.002505522,0.0025107213,0.0025098454,0.0,0.0,0.0,0.0,0.0
300036174,300035517,0.0,0.0,0.0,101.848885,101.87068,0.0,0.0,0.0,0.0,0.0,0.0,0.0,0.0,12.505192,0.0,0.0,nan,0.0,0.0,0.09013731,0.002505522,0.0025107213,0.0025098454,0.0,0.0,0.0,0.0,0.0
300536221,300535847,0.0,0.0,0.0,102.203674,102.23102,0.0,0.0,0.0,0.0,0.0,0.0,0.0,0.0,12.505727,0.0,0.0,nan,0.0,0.0,0.09013727,0.002505522,0.0025107213,0.0025098454,0.0,0.0,0.0,0.0,0.0
301032201,301031667,0.0,0.0,0.0,102.60053,102.633965,0.0,0.0,0.0,0.0,0.0,0.0,0.0,0.0,12.505314,0.0,0.0,nan,0.0,0.0,0.090137154,0.002505522,0.0025107213,0.0025098454,0.0,0.0,0.0,0.0,0.0
301537423,301536736,0.0,0.0,0.0,103.224464,103.26677,0.0,0.0,0.0,0.0,0.0,0.0,0.0,0.0,12.504598,0.0,0.0,nan,0.0,0.0,0.09013707,0.002505522,0.0025107213,0.0025098454,0.0,0.0,0.0,0.0,0.0
302037618,302036876,0.0,0.0,0.0,103.6482,103.695816,0.0,0.0,0.0,0.0,0.0,0.0,0.0,0.0,12.5054035,0.0,0.0,nan,0.0,0.0,0.09013691,0.002505522,0.0025107213,0.0025098454,0.0,0.0,0.0,0.0,0.0
302533386,302532860,0.0,0.0,0.0,104.266,104.319824,0.0,0.0,0.0,0.0,0.0,0.0,0.0,0.0,12.505203,0.0,0.0,nan,0.0,0.0,0.090136856,0.002505522,0.0025107213,0.0025098454,0.0,0.0,0.0,0.0,0.0
303033616,303032980,0.0,0.0,0.0,104.66348,104.7202,0.0,0.0,0.0,0.0,0.0,0.0,0.0,0.0,12.5060005,0.0,0.0,nan,0.0,0.0,0.09013666,0.002505522,0.0025107213,0.0025098454,0.0,0.0,0.0,0.0,0.0
303529796,303528989,0.0,0.0,0.0,105.20055,105.25923,0.0,0.0,0.0,0.0,0.0,0.0,0.0,0.0,12.504651,0.0,0.0,nan,0.0,0.0,0.090136304,0.002505522,0.0025107213,0.0025098454,0.0,0.0,0.0,0.0,0.0
304039028,304038281,0.0,0.0,0.0,105.545204,105.60407,0.0,0.0,0.0,0.0,0.0,0.0,0.0,0.0,12.505763,0.0,0.0,nan,0.0,0.0,0.0901362,0.002505522,0.0025107213,0.0025098454,0.0,0.0,0.0,0.0,0.0
304539263,304538520,0.0,0.0,0.0,105.85028,105.90818,0.0,0.0,0.0,0.0,0.0,0.0,0.0,0.0,12.505879,0.0,0.0,nan,0.0,0.0,0.09013594,0.002505522,0.0025107213,0.0025098454,0.0,0.0,0.0,0.0,0.0
305034913,305034414,0.0,0.0,0.0,106.18586,106.240135,0.0,0.0,0.0,0.0,0.0,0.0,0.0,0.0,12.505854,0.0,0.0,nan,0.0,0.0,0.09013559,0.002505522,0.0025107213,0.0025098454,0.0,0.0,0.0,0.0,0.0
305530557,305530163,0.0,0.0,0.0,106.37027,106.42144,0.0,0.0,0.0,0.0,0.0,0.0,0.0,0.0,12.5072975,0.0,0.0,nan,0.0,0.0,0.09013529,0.002505522,0.0025107213,0.0025098454,0.0,0.0,0.0,0.0,0.0
306032029,306030547,0.0,0.0,0.0,106.59365,106.63949,0.0,0.0,0.0,0.0,0.0,0.0,0.0,0.0,12.507775,0.0,0.0,nan,0.0,0.0,0.090134926,0.002505522,0.0025107213,0.0025098454,0.0,0.0,0.0,0.0,0.0
306531451,306530776,0.0,0.0,0.0,106.69722,106.73908,0.0,0.0,0.0,0.0,0.0,0.0,0.0,0.0,12.509184,0.0,0.0,nan,0.0,0.0,0.090134546,0.002505522,0.0025107213,0.0025098454,0.0,0.0,0.0,0.0,0.0
307027100,307026731,0.0,0.0,0.0,106.81793,106.853714,0.0,0.0,0.0,0.0,0.0,0.0,0.0,0.0,12.50992,0.0,0.0,nan,0.0,0.0,0.090134114,0.002505522,0.0025107213,0.0025098454,0.0,0.0,0.0,0.0,0.0
307532089,307531434,0.0,0.0,0.0,106.86202,106.89377,0.0,0.0,0.0,0.0,0.0,0.0,0.0,0.0,12.510694,0.0,0.0,nan,0.0,0.0,0.09013362,0.002505522,0.0025107213,0.0025098454,0.0,0.0,0.0,0.0,0.0
308036913,308036275,0.0,0.0,0.0,106.88911,106.915115,0.0,0.0,0.0,0.0,0.0,0.0,0.0,0.0,12.511277,0.0,0.0,nan,0.0,0.0,0.09013286,0.002505522,0.0025107213,0.0025098454,0.0,0.0,0.0,0.0,0.0
308537421,308536601,0.0,0.0,0.0,106.90113,106.923546,0.0,0.0,0.0,0.0,0.0,0.0,0.0,0.0,12.51326,0.0,0.0,nan,0.0,0.0,0.09013236,0.002505522,0.0025107213,0.0025098454,0.0,0.0,0.0,0.0,0.0
309033260,309032678,0.0,0.0,0.0,106.90561,106.924675,0.0,0.0,0.0,0.0,0.0,0.0,0.0,0.0,12.513909,0.0,0.0,nan,0.0,0.0,0.09013169,0.002505522,0.0025107213,0.0025098454,0.0,0.0,0.0,0.0,0.0
309533314,309532752,0.0,0.0,0.0,106.92894,106.94349,0.0,0.0,0.0,0.0,0.0,0.0,0.0,0.0,12.5147085,0.0,0.0,nan,0.0,0.0,0.0901309,0.002505522,0.0025107213,0.0025098454,0.0,0.0,0.0,0.0,0.0
310029155,310028789,0.0,0.0,0.0,106.93757,106.949394,0.0,0.0,0.0,0.0,0.0,0.0,0.0,0.0,12.517687,0.0,0.0,nan,0.0,0.0,0.09013021,0.002505522,0.0025107213,0.0025098454,0.0,0.0,0.0,0.0,0.0
310538467,310538093,0.0,0.0,0.0,106.904945,106.91316,0.0,0.0,0.0,0.0,0.0,0.0,0.0,0.0,12.517381,0.0,0.0,nan,0.0,0.0,0.090129256,0.002505522,0.0025107213,0.0025098454,0.0,0.0,0.0,0.0,0.0
311029689,311029279,0.0,0.0,0.0,106.91384,106.919975,0.0,0.0,0.0,0.0,0.0,0.0,0.0,0.0,12.519017,0.0,0.0,nan,0.0,0.0,0.090128414,0.002505522,0.0025107213,0.0025098454,0.0,0.0,0.0,0.0,0.0
312034914,312034402,0.0,0.0,0.0,106.86614,106.868164,0.0,0.0,0.0,0.0,0.0,0.0,0.0,0.0,12.519377,0.0,0.0,nan,0.0,0.0,0.093929015,0.002505522,0.0025107213,0.0025098454,0.0,0.0,0.0,0.0,0.0
312530831,312530423,0.0,0.0,0.0,106.82582,106.82669,0.0,0.0,0.0,0.0,0.0,0.0,0.0,0.0,12.519997,0.0,0.0,nan,0.0,0.0,0.09191948,0.002505522,0.0025107213,0.0025098454,0.0,0.0,0.0,0.0,0.0
313031511,313030551,0.0,0.0,0.0,106.71465,106.71427,0.0,0.0,0.0,0.0,0.0,0.0,0.0,0.0,12.520417,0.0,0.0,nan,0.0,0.0,0.09128881,0.002505522,0.0025107213,0.0025098454,0.0,0.0,0.0,0.0,0.0
313526941,313526508,0.0,0.0,0.0,106.632095,106.63108,0.0,0.0,0.0,0.0,0.0,0.0,0.0,0.0,12.520883,0.0,0.0,nan,0.0,0.0,0.09097066,0.002505522,0.0025107213,0.0025098454,0.0,0.0,0.0,0.0,0.0
314036362,314035798,0.0,0.0,0.0,106.5032,106.501366,0.0,0.0,0.0,0.0,0.0,0.0,0.0,0.0,12.524846,0.0,0.0,nan,0.0,0.0,0.09077234,0.002505522,0.0025107213,0.0025098454,0.0,0.0,0.0,0.0,0.0
314531923,314531540,0.0,0.0,0.0,106.39519,106.392815,0.0,0.0,0.0,0.0,0.0,0.0,0.0,0.0,12.531314,0.0,0.0,nan,0.0,0.0,0.09064629,0.002505522,0.0025107213,0.0025098454,0.0,0.0,0.0,0.0,0.0
315036965,315036376,0.0,0.0,0.0,106.28205,106.278656,0.0,0.0,0.0,0.0,0.0,0.0,0.0,0.0,12.542576,0.0,0.0,nan,0.0,0.0,0.09055276,0.002505522,0.0025107213,0.0025098454,0.0,0.0,0.0,0.0,0.0
315537370,315536760,0.0,0.0,0.0,106.21441,106.21016,0.0,0.0,0.0,0.0,0.0,0.0,0.0,0.0,12.558531,0.0,0.0,nan,0.0,0.0,0.09048335,0.002505522,0.0025107213,0.0025098454,0.0,0.0,0.0,0.0,0.0
316037474,316037035,0.0,0.0,0.0,106.17833,106.17298,0.0,0.0,0.0,0.0,0.0,0.0,0.0,0.0,12.575431,0.0,0.0,nan,0.0,0.0,0.09043193,0.002505522,0.0025107213,0.0025098454,0.0,0.0,0.0,0.0,0.0
316533449,316532857,0.0,0.0,0.0,106.13688,106.12955,0.0,0.0,0.0,0.0,0.0,0.0,0.0,0.0,12.59435,0.0,0.0,nan,0.0,0.0,0.090389125,0.002505522,0.0025107213,0.0025098454,0.0,0.0,0.0,0.0,0.0
317038299,317037913,0.0,0.0,0.0,106.12822,106.11934,0.0,0.0,0.0,0.0,0.0,0.0,0.0,0.0,12.6114435,0.0,0.0,nan,0.0,0.0,0.090355754,0.002505522,0.0025107213,0.0025098454,0.0,0.0,0.0,0.0,0.0
317538544,317538024,0.0,0.0,0.0,106.14667,106.13516,0.0,0.0,0.0,0.0,0.0,0.0,0.0,0.0,12.629185,0.0,0.0,nan,0.0,0.0,0.09032799,0.002505522,0.0025107213,0.0025098454,0.0,0.0,0.0,0.0,0.0
318038881,318038401,0.0,0.0,0.0,106.190895,106.17744,0.0,0.0,0.0,0.0,0.0,0.0,0.0,0.0,12.643669,0.0,0.0,nan,0.0,0.0,0.0903037,0.002505522,0.0025107213,0.0025098454,0.0,0.0,0.0,0.0,0.0
318534771,318534221,0.0,0.0,0.0,106.30292,106.286446,0.0,0.0,0.0,0.0,0.0,0.0,0.0,0.0,12.651002,0.0,0.0,nan,0.0,0.0,0.09028379,0.002505522,0.0025107213,0.0025098454,0.0,0.0,0.0,0.0,0.0
319030687,319030183,0.0,0.0,0.0,106.39384,106.37547,0.0,0.0,0.0,0.0,0.0,0.0,0.0,0.0,12.652598,0.0,0.0,nan,0.0,0.0,0.09026655,0.002505522,0.0025107213,0.0025098454,0.0,0.0,0.0,0.0,0.0
319531041,319530327,0.0,0.0,0.0,106.498276,106.4782,0.0,0.0,0.0,0.0,0.0,0.0,0.0,0.0,12.65588,0.0,0.0,nan,0.0,0.0,0.09025111,0.002505522,0.0025107213,0.0025098454,0.0,0.0,0.0,0.0,0.0
320027342,320026317,0.0,0.0,0.0,106.66283,106.64076,0.0,0.0,0.0,0.0,0.0,0.0,0.0,0.0,12.652552,0.0,0.0,nan,0.0,0.0,0.09023816,0.002505522,0.0025107213,0.0025098454,0.0,0.0,0.0,0.0,0.0
320536690,320535616,0.0,0.0,0.0,106.79143,106.76845,0.0,0.0,0.0,0.0,0.0,0.0,0.0,0.0,12.650907,0.0,0.0,nan,0.0,0.0,0.09022633,0.002505522,0.0025107213,0.0025098454,0.0,0.0,0.0,0.0,0.0
321036516,321035869,0.0,0.0,0.0,107.00578,106.98216,0.0,0.0,0.0,0.0,0.0,0.0,0.0,0.0,12.643994,0.0,0.0,nan,0.0,0.0,0.090216376,0.002505522,0.0025107213,0.0025098454,0.0,0.0,0.0,0.0,0.0
322032481,322031974,0.0,0.0,0.0,107.321335,107.299095,0.0,0.0,0.0,0.0,0.0,0.0,0.0,0.0,12.630088,0.0,0.0,nan,0.0,0.0,0.09019938,0.002505522,0.0025107213,0.0025098454,0.0,0.0,0.0,0.0,0.0
322528520,322527904,0.0,0.0,0.0,107.46738,107.44632,0.0,0.0,0.0,0.0,0.0,0.0,0.0,0.0,12.624723,0.0,0.0,nan,0.0,0.0,0.090192504,0.002505522,0.0025107213,0.0025098454,0.0,0.0,0.0,0.0,0.0
323033518,323032636,0.0,0.0,0.0,107.57696,107.55858,0.0,0.0,0.0,0.0,0.0,0.0,0.0,0.0,12.61571,0.0,0.0,nan,0.0,0.0,0.09018599,0.002505522,0.0025107213,0.0025098454,0.0,0.0,0.0,0.0,0.0
323538321,323537754,0.0,0.0,0.0,107.6958,107.679306,0.0,0.0,0.0,0.0,0.0,0.0,0.0,0.0,12.610253,0.0,0.0,nan,0.0,0.0,0.09018028,0.002505522,0.0025107213,0.0025098454,0.0,0.0,0.0,0.0,0.0
324038441,324037800,0.0,0.0,0.0,107.73809,107.723755,0.0,0.0,0.0,0.0,0.0,0.0,0.0,0.0,12.601289,0.0,0.0,nan,0.0,0.0,0.09017535,0.002505522,0.0025107213,0.0025098454,0.0,0.0,0.0,0.0,0.0
324538691,324538128,0.0,0.0,0.0,107.87009,107.858986,0.0,0.0,0.0,0.0,0.0,0.0,0.0,0.0,12.594192,0.0,0.0,nan,0.0,0.0,0.09017067,0.002505522,0.0025107213,0.0025098454,0.0,0.0,0.0,0.0,0.0
325038843,325038458,0.0,0.0,0.0,107.90994,107.90104,0.0,0.0,0.0,0.0,0.0,0.0,0.0,0.0,12.588985,0.0,0.0,nan,0.0,0.0,0.09016662,0.002505522,0.0025107213,0.0025098454,0.0,0.0,0.0,0.0,0.0
326039698,326039309,0.0,0.0,0.0,107.942955,107.939064,0.0,0.0,0.0,0.0,0.0,0.0,0.0,0.0,12.574797,0.0,0.0,nan,0.0,0.0,0.090159476,0.002505522,0.0025107213,0.0025098454,0.0,0.0,0.0,0.0,0.0
326526674,326526135,0.0,0.0,0.0,107.958275,107.95695,0.0,0.0,0.0,0.0,0.0,0.0,0.0,0.0,12.568869,0.0,0.0,nan,0.0,0.0,0.09015649,0.002505522,0.0025107213,0.0025098454,0.0,0.0,0.0,0.0,0.0
327035875,327035435,0.0,0.0,0.0,107.947754,107.947876,0.0,0.0,0.0,0.0,0.0,0.0,0.0,0.0,12.563555,0.0,0.0,nan,0.0,0.0,0.0901537,0.002505522,0.0025107213,0.0025098454,0.0,0.0,0.0,0.0,0.0
327536829,327535595,0.0,0.0,0.0,107.93086,107.932236,0.0,0.0,0.0,0.0,0.0,0.0,0.0,0.0,12.558254,0.0,0.0,nan,0.0,0.0,0.09015131,0.002505522,0.0025107213,0.0025098454,0.0,0.0,0.0,0.0,0.0
328032157,328031586,0.0,0.0,0.0,107.93789,107.94081,0.0,0.0,0.0,0.0,0.0,0.0,0.0,0.0,12.554545,0.0,0.0,nan,0.0,0.0,0.09014917,0.002505522,0.0025107213,0.0025098454,0.0,0.0,0.0,0.0,0.0
328532389,328531748,0.0,0.0,0.0,107.87783,107.88145,0.0,0.0,0.0,0.0,0.0,0.0,0.0,0.0,12.548519,0.0,0.0,nan,0.0,0.0,0.09014727,0.002505522,0.0025107213,0.0025098454,0.0,0.0,0.0,0.0,0.0
329037144,329036629,0.0,0.0,0.0,107.87295,107.877335,0.0,0.0,0.0,0.0,0.0,0.0,0.0,0.0,12.544396,0.0,0.0,nan,0.0,0.0,0.09014551,0.002505522,0.0025107213,0.0025098454,0.0,0.0,0.0,0.0,0.0
329537447,329537010,0.0,0.0,0.0,107.83592,107.84053,0.0,0.0,0.0,0.0,0.0,0.0,0.0,0.0,12.540161,0.0,0.0,nan,0.0,0.0,0.09014412,0.002505522,0.0025107213,0.0025098454,0.0,0.0,0.0,0.0,0.0
330024425,330023845,0.0,0.0,0.0,107.77157,107.776184,0.0,0.0,0.0,0.0,0.0,0.0,0.0,0.0,12.537309,0.0,0.0,nan,0.0,0.0,0.09014285,0.002505522,0.0025107213,0.0025098454,0.0,0.0,0.0,0.0,0.0
330533725,330533151,0.0,0.0,0.0,107.74319,107.74763,0.0,0.0,0.0,0.0,0.0,0.0,0.0,0.0,12.533861,0.0,0.0,nan,0.0,0.0,0.0901418,0.002505522,0.0025107213,0.0025098454,0.0,0.0,0.0,0.0,0.0
331038571,331037899,0.0,0.0,0.0,107.66736,107.67123,0.0,0.0,0.0,0.0,0.0,0.0,0.0,0.0,12.529178,0.0,0.0,nan,0.0,0.0,0.09014075,0.002505522,0.0025107213,0.0025098454,0.0,0.0,0.0,0.0,0.0
331534353,331533721,0.0,0.0,0.0,107.64667,107.65003,0.0,0.0,0.0,0.0,0.0,0.0,0.0,0.0,12.52625,0.0,0.0,nan,0.0,0.0,0.090139955,0.002505522,0.0025107213,0.0025098454,0.0,0.0,0.0,0.0,0.0
332034465,332034095,0.0,0.0,0.0,107.628174,107.63092,0.0,0.0,0.0,0.0,0.0,0.0,0.0,0.0,12.523177,0.0,0.0,nan,0.0,0.0,0.09013934,0.002505522,0.0025107213,0.0025098454,0.0,0.0,0.0,0.0,0.0
332535624,332534380,0.0,0.0,0.0,107.64965,107.651245,0.0,0.0,0.0,0.0,0.0,0.0,0.0,0.0,12.521439,0.0,0.0,nan,0.0,0.0,0.090138786,0.002505522,0.0025107213,0.0025098454,0.0,0.0,0.0,0.0,0.0
333026527,333025960,0.0,0.0,0.0,107.637955,107.63866,0.0,0.0,0.0,0.0,0.0,0.0,0.0,0.0,12.518835,0.0,0.0,nan,0.0,0.0,0.090138406,0.002505522,0.0025107213,0.0025098454,0.0,0.0,0.0,0.0,0.0
333535844,333535266,0.0,0.0,0.0,107.61245,107.61171,0.0,0.0,0.0,0.0,0.0,0.0,0.0,0.0,12.515777,0.0,0.0,nan,0.0,0.0,0.0901381,0.002505522,0.0025107213,0.0025098454,0.0,0.0,0.0,0.0,0.0
334035882,334035365,0.0,0.0,0.0,107.60977,107.608,0.0,0.0,0.0,0.0,0.0,0.0,0.0,0.0,12.514575,0.0,0.0,nan,0.0,0.0,0.09013796,0.002505522,0.0025107213,0.0025098454,0.0,0.0,0.0,0.0,0.0
334533189,334531402,0.0,0.0,0.0,107.62525,107.62188,0.0,0.0,0.0,0.0,0.0,0.0,0.0,0.0,12.511941,0.0,0.0,nan,0.0,0.0,0.090137914,0.002505522,0.0025107213,0.0025098454,0.0,0.0,0.0,0.0,0.0
335032321,335031561,0.0,0.0,0.0,107.63133,107.62689,0.0,0.0,0.0,0.0,0.0,0.0,0.0,0.0,12.511071,0.0,0.0,nan,0.0,0.0,0.090137936,0.002505522,0.0025107213,0.0025098454,0.0,0.0,0.0,0.0,0.0
335527896,335527522,0.0,0.0,0.0,107.61468,107.60922,0.0,0.0,0.0,0.0,0.0,0.0,0.0,0.0,12.50837,0.0,0.0,nan,0.0,0.0,0.09013792,0.002505522,0.0025107213,0.0025098454,0.0,0.0,0.0,0.0,0.0
336037287,336036826,0.0,0.0,0.0,107.62371,107.616714,0.0,0.0,0.0,0.0,0.0,0.0,0.0,0.0,12.50727,0.0,0.0,nan,0.0,0.0,0.090138,0.002505522,0.0025107213,0.0025098454,0.0,0.0,0.0,0.0,0.0
337034502,337032960,0.0,0.0,0.0,107.68625,107.6768,0.0,0.0,0.0,0.0,0.0,0.0,0.0,0.0,12.504391,0.0,0.0,nan,0.0,0.0,0.09013839,0.002505522,0.0025107213,0.0025098454,0.0,0.0,0.0,0.0,0.0
337533818,337533204,0.0,0.0,0.0,107.70397,107.69373,0.0,0.0,0.0,0.0,0.0,0.0,0.0,0.0,12.503442,0.0,0.0,nan,0.0,0.0,0.090138614,0.002505522,0.0025107213,0.0025098454,0.0,0.0,0.0,0.0,0.0
338038534,338037997,0.0,0.0,0.0,107.75233,107.74091,0.0,0.0,0.0,0.0,0.0,0.0,0.0,0.0,12.50219,0.0,0.0,nan,0.0,0.0,0.09013882,0.002505522,0.0025107213,0.0025098454,0.0,0.0,0.0,0.0,0.0
338534188,338533816,0.0,0.0,0.0,107.7773,107.76519,0.0,0.0,0.0,0.0,0.0,0.0,0.0,0.0,12.50107,0.0,0.0,nan,0.0,0.0,0.09013912,0.002505522,0.0025107213,0.0025098454,0.0,0.0,0.0,0.0,0.0
339034594,339034145,0.0,0.0,0.0,107.797905,107.78524,0.0,0.0,0.0,0.0,0.0,0.0,0.0,0.0,12.4994335,0.0,0.0,nan,0.0,0.0,0.09013934,0.002505522,0.0025107213,0.0025098454,0.0,0.0,0.0,0.0,0.0
340035765,340035097,0.0,0.0,0.0,107.87074,107.857056,0.0,0.0,0.0,0.0,0.0,0.0,0.0,0.0,12.499197,0.0,0.0,nan,0.0,0.0,0.090140134,0.002505522,0.0025107213,0.0025098454,0.0,0.0,0.0,0.0,0.0
340531218,340530692,0.0,0.0,0.0,107.88084,107.86699,0.0,0.0,0.0,0.0,0.0,0.0,0.0,0.0,12.498065,0.0,0.0,nan,0.0,0.0,0.09014054,0.002505522,0.0025107213,0.0025098454,0.0,0.0,0.0,0.0,0.0
341036039,341035459,0.0,0.0,0.0,107.92474,107.910736,0.0,0.0,0.0,0.0,0.0,0.0,0.0,0.0,12.495725,0.0,0.0,nan,0.0,0.0,0.09014088,0.002505522,0.0025107213,0.0025098454,0.0,0.0,0.0,0.0,0.0
341532575,341531280,0.0,0.0,0.0,107.962524,107.94847,0.0,0.0,0.0,0.0,0.0,0.0,0.0,0.0,12.495731,0.0,0.0,nan,0.0,0.0,0.0901413,0.002505522,0.0025107213,0.0025098454,0.0,0.0,0.0,0.0,0.0
342027738,342027348,0.0,0.0,0.0,107.94049,107.9267,0.0,0.0,0.0,0.0,0.0,0.0,0.0,0.0,12.494668,0.0,0.0,nan,0.0,0.0,0.09014173,0.002505522,0.0025107213,0.0025098454,0.0,0.0,0.0,0.0,0.0
342537186,342536670,0.0,0.0,0.0,107.9686,107.955124,0.0,0.0,0.0,0.0,0.0,0.0,0.0,0.0,12.494149,0.0,0.0,nan,0.0,0.0,0.090142146,0.002505522,0.0025107213,0.0025098454,0.0,0.0,0.0,0.0,0.0
343037286,343036773,0.0,0.0,0.0,108.00257,107.98935,0.0,0.0,0.0,0.0,0.0,0.0,0.0,0.0,12.493997,0.0,0.0,nan,0.0,0.0,0.09014274,0.002505522,0.0025107213,0.0025098454,0.0,0.0,0.0,0.0,0.0
343533201,343532776,0.0,0.0,0.0,107.97342,107.96067,0.0,0.0,0.0,0.0,0.0,0.0,0.0,0.0,12.491743,0.0,0.0,nan,0.0,0.0,0.09014312,0.002505522,0.0025107213,0.0025098454,0.0,0.0,0.0,0.0,0.0
344034107,344032923,0.0,0.0,0.0,108.0189,108.00668,0.0,0.0,0.0,0.0,0.0,0.0,0.0,0.0,12.491637,0.0,0.0,nan,0.0,0.0,0.09014369,0.002505522,0.0025107213,0.0025098454,0.0,0.0,0.0,0.0,0.0
344529407,344528916,0.0,0.0,0.0,108.0128,108.00109,0.0,0.0,0.0,0.0,0.0,0.0,0.0,0.0,12.490635,0.0,0.0,nan,0.0,0.0,0.09014418,0.002505522,0.0025107213,0.0025098454,0.0,0.0,0.0,0.0,0.0
345038739,345038215,0.0,0.0,0.0,108.01735,108.00642,0.0,0.0,0.0,0.0,0.0,0.0,0.0,0.0,12.4901085,0.0,0.0,nan,0.0,0.0,0.0901447,0.002505522,0.0025107213,0.0025098454,0.0,0.0,0.0,0.0,0.0
345539064,345538415,0.0,0.0,0.0,108.00709,107.99671,0.0,0.0,0.0,0.0,0.0,0.0,0.0,0.0,12.489112,0.0,0.0,nan,0.0,0.0,0.09014518,0.002505522,0.0025107213,0.0025098454,0.0,0.0,0.0,0.0,0.0
346034716,346034330,0.0,0.0,0.0,107.96567,107.955925,0.0,0.0,0.0,0.0,0.0,0.0,0.0,0.0,12.48728,0.0,0.0,nan,0.0,0.0,0.090145655,0.002505522,0.0025107213,0.0025098454,0.0,0.0,0.0,0.0,0.0
346539689,346539071,0.0,0.0,0.0,107.988754,107.97981,0.0,0.0,0.0,0.0,0.0,0.0,0.0,0.0,12.487535,0.0,0.0,nan,0.0,0.0,0.090146154,0.002505522,0.0025107213,0.0025098454,0.0,0.0,0.0,0.0,0.0
347039939,347039404,0.0,0.0,0.0,107.972786,107.96442,0.0,0.0,0.0,0.0,0.0,0.0,0.0,0.0,12.486524,0.0,0.0,nan,0.0,0.0,0.0901466,0.002505522,0.0025107213,0.0025098454,0.0,0.0,0.0,0.0,0.0
347535658,347535220,0.0,0.0,0.0,107.99507,107.98747,0.0,0.0,0.0,0.0,0.0,0.0,0.0,0.0,12.485562,0.0,0.0,nan,0.0,0.0,0.09014722,0.002505522,0.0025107213,0.0025098454,0.0,0.0,0.0,0.0,0.0
348031475,348031042,0.0,0.0,0.0,107.94688,107.93991,0.0,0.0,0.0,0.0,0.0,0.0,0.0,0.0,12.484263,0.0,0.0,nan,0.0,0.0,0.09014762,0.002505522,0.0025107213,0.0025098454,0.0,0.0,0.0,0.0,0.0
348536317,348535901,0.0,0.0,0.0,107.96422,107.95807,0.0,0.0,0.0,0.0,0.0,0.0,0.0,0.0,12.483286,0.0,0.0,nan,0.0,0.0,0.09014803,0.002505522,0.0025107213,0.0025098454,0.0,0.0,0.0,0.0,0.0
349032884,349031699,0.0,0.0,0.0,107.94013,107.93456,0.0,0.0,0.0,0.0,0.0,0.0,0.0,0.0,12.483137,0.0,0.0,nan,0.0,0.0,0.090148635,0.002505522,0.0025107213,0.0025098454,0.0,0.0,0.0,0.0,0.0
349537095,349536540,0.0,0.0,0.0,107.92013,107.91511,0.0,0.0,0.0,0.0,0.0,0.0,0.0,0.0,12.48187,0.0,0.0,nan,0.0,0.0,0.09014911,0.002505522,0.0025107213,0.0025098454,0.0,0.0,0.0,0.0,0.0
350037403,350036860,0.0,0.0,0.0,107.927986,107.92372,0.0,0.0,0.0,0.0,0.0,0.0,0.0,0.0,12.481751,0.0,0.0,nan,0.0,0.0,0.09014955,0.002505522,0.0025107213,0.0025098454,0.0,0.0,0.0,0.0,0.0
350533247,350532681,0.0,0.0,0.0,107.8761,107.872345,0.0,0.0,0.0,0.0,0.0,0.0,0.0,0.0,12.480835,0.0,0.0,nan,0.0,0.0,0.09014998,0.002505522,0.0025107213,0.0025098454,0.0,0.0,0.0,0.0,0.0
351034484,351033054,0.0,0.0,0.0,107.887344,107.884254,0.0,0.0,0.0,0.0,0.0,0.0,0.0,0.0,12.480333,0.0,0.0,nan,0.0,0.0,0.09015039,0.002505522,0.0025107213,0.0025098454,0.0,0.0,0.0,0.0,0.0
351529608,351528875,0.0,0.0,0.0,107.86266,107.86001,0.0,0.0,0.0,0.0,0.0,0.0,0.0,0.0,12.479399,0.0,0.0,nan,0.0,0.0,0.09015077,0.002505522,0.0025107213,0.0025098454,0.0,0.0,0.0,0.0,0.0
352038966,352038171,0.0,0.0,0.0,107.84717,107.84509,0.0,0.0,0.0,0.0,0.0,0.0,0.0,0.0,12.478508,0.0,0.0,nan,0.0,0.0,0.090151146,0.002505522,0.0025107213,0.0025098454,0.0,0.0,0.0,0.0,0.0
352534521,352534135,0.0,0.0,0.0,107.79671,107.795,0.0,0.0,0.0,0.0,0.0,0.0,0.0,0.0,12.477217,0.0,0.0,nan,0.0,0.0,0.09015152,0.002505522,0.0025107213,0.0025098454,0.0,0.0,0.0,0.0,0.0
353035027,353034319,0.0,0.0,0.0,107.77723,107.77585,0.0,0.0,0.0,0.0,0.0,0.0,0.0,0.0,12.4763155,0.0,0.0,nan,0.0,0.0,0.09015184,0.002505522,0.0025107213,0.0025098454,0.0,0.0,0.0,0.0,0.0
353539674,353539154,0.0,0.0,0.0,107.76094,107.76002,0.0,0.0,0.0,0.0,0.0,0.0,0.0,0.0,12.476147,0.0,0.0,nan,0.0,0.0,0.09015229,0.002505522,0.0025107213,0.0025098454,0.0,0.0,0.0,0.0,0.0
354040263,354039564,0.0,0.0,0.0,107.770874,107.7702,0.0,0.0,0.0,0.0,0.0,0.0,0.0,0.0,12.47568,0.0,0.0,nan,0.0,0.0,0.09015261,0.002505522,0.0025107213,0.0025098454,0.0,0.0,0.0,0.0,0.0
354526853,354526459,0.0,0.0,0.0,107.75794,107.75761,0.0,0.0,0.0,0.0,0.0,0.0,0.0,0.0,12.474818,0.0,0.0,nan,0.0,0.0,0.09015288,0.002505522,0.0025107213,0.0025098454,0.0,0.0,0.0,0.0,0.0
355036124,355035756,0.0,0.0,0.0,107.71303,107.71288,0.0,0.0,0.0,0.0,0.0,0.0,0.0,0.0,12.4740095,0.0,0.0,nan,0.0,0.0,0.09015315,0.002505522,0.0025107213,0.0025098454,0.0,0.0,0.0,0.0,0.0
355536827,355535958,0.0,0.0,0.0,107.73234,107.73248,0.0,0.0,0.0,0.0,0.0,0.0,0.0,0.0,12.47288,0.0,0.0,nan,0.0,0.0,0.090153396,0.002505522,0.0025107213,0.0025098454,0.0,0.0,0.0,0.0,0.0
356037196,356036334,0.0,0.0,0.0,107.71498,107.71532,0.0,0.0,0.0,0.0,0.0,0.0,0.0,0.0,12.472885,0.0,0.0,nan,0.0,0.0,0.090153635,0.002505522,0.0025107213,0.0025098454,0.0,0.0,0.0,0.0,0.0
356537183,356536615,0.0,0.0,0.0,107.69966,107.7002,0.0,0.0,0.0,0.0,0.0,0.0,0.0,0.0,12.47218,0.0,0.0,nan,0.0,0.0,0.0901538,0.002505522,0.0025107213,0.0025098454,0.0,0.0,0.0,0.0,0.0
357037370,357036940,0.0,0.0,0.0,107.66315,107.66396,0.0,0.0,0.0,0.0,0.0,0.0,0.0,0.0,12.471194,0.0,0.0,nan,0.0,0.0,0.09015398,0.002505522,0.0025107213,0.0025098454,0.0,0.0,0.0,0.0,0.0
357533363,357532760,0.0,0.0,0.0,107.67677,107.67777,0.0,0.0,0.0,0.0,0.0,0.0,0.0,0.0,12.470536,0.0,0.0,nan,0.0,0.0,0.09015411,0.002505522,0.0025107213,0.0025098454,0.0,0.0,0.0,0.0,0.0
358033668,358033088,0.0,0.0,0.0,107.69357,107.694824,0.0,0.0,0.0,0.0,0.0,0.0,0.0,0.0,12.470621,0.0,0.0,nan,0.0,0.0,0.09015435,0.002505522,0.0025107213,0.0025098454,0.0,0.0,0.0,0.0,0.0
358525293,358524702,0.0,0.0,0.0,107.6794,107.68076,0.0,0.0,0.0,0.0,0.0,0.0,0.0,0.0,12.469698,0.0,0.0,nan,0.0,0.0,0.09015445,0.002505522,0.0025107213,0.0025098454,0.0,0.0,0.0,0.0,0.0
359034556,359033949,0.0,0.0,0.0,107.66585,107.66733,0.0,0.0,0.0,0.0,0.0,0.0,0.0,0.0,12.469813,0.0,0.0,nan,0.0,0.0,0.0901545,0.002505522,0.0025107213,0.0025098454,0.0,0.0,0.0,0.0,0.0
359534586,359534070,0.0,0.0,0.0,107.68108,107.68271,0.0,0.0,0.0,0.0,0.0,0.0,0.0,0.0,12.469176,0.0,0.0,nan,0.0,0.0,0.09015454,0.002505522,0.0025107213,0.0025098454,0.0,0.0,0.0,0.0,0.0
360030560,360030054,0.0,0.0,0.0,107.63571,107.63739,0.0,0.0,0.0,0.0,0.0,0.0,0.0,0.0,12.46827,0.0,0.0,nan,0.0,0.0,0.09015453,0.002505522,0.0025107213,0.0025098454,0.0,0.0,0.0,0.0,0.0
360539860,360539347,0.0,0.0,0.0,107.658424,107.66018,0.0,0.0,0.0,0.0,0.0,0.0,0.0,0.0,12.46845,0.0,0.0,nan,0.0,0.0,0.09015451,0.002505522,0.0025107213,0.0025098454,0.0,0.0,0.0,0.0,0.0
361026588,361026196,0.0,0.0,0.0,107.641014,107.642784,0.0,0.0,0.0,0.0,0.0,0.0,0.0,0.0,12.467906,0.0,0.0,nan,0.0,0.0,0.09015458,0.002505522,0.0025107213,0.0025098454,0.0,0.0,0.0,0.0,0.0
361536071,361535495,0.0,0.0,0.0,107.63501,107.63681,0.0,0.0,0.0,0.0,0.0,0.0,0.0,0.0,12.467837,0.0,0.0,nan,0.0,0.0,0.09015456,0.002505522,0.0025107213,0.0025098454,0.0,0.0,0.0,0.0,0.0
362036405,362035707,0.0,0.0,0.0,107.61948,107.62127,0.0,0.0,0.0,0.0,0.0,0.0,0.0,0.0,12.466664,0.0,0.0,nan,0.0,0.0,0.09015434,0.002505522,0.0025107213,0.0025098454,0.0,0.0,0.0,0.0,0.0
362532109,362531607,0.0,0.0,0.0,107.60392,107.60569,0.0,0.0,0.0,0.0,0.0,0.0,0.0,0.0,12.466219,0.0,0.0,nan,0.0,0.0,0.09015427,0.002505522,0.0025107213,0.0025098454,0.0,0.0,0.0,0.0,0.0
363036963,363036364,0.0,0.0,0.0,107.58355,107.58524,0.0,0.0,0.0,0.0,0.0,0.0,0.0,0.0,12.465632,0.0,0.0,nan,0.0,0.0,0.0901543,0.002505522,0.0025107213,0.0025098454,0.0,0.0,0.0,0.0,0.0
363540929,363536694,0.0,0.0,0.0,107.60103,107.60533,0.0,0.0,0.0,0.0,0.0,0.0,0.0,0.0,12.466029,0.0,0.0,nan,0.0,0.0,0.09015434,0.002619682,0.0026296317,0.002622718,0.0,0.0,0.0,0.0,0.0
364032910,364032517,0.0,0.0,0.0,107.6252,107.62824,0.0,0.0,0.0,0.0,0.0,0.0,0.0,0.0,12.466382,0.0,0.0,nan,0.0,0.0,0.09015434,0.0025630419,0.0025778264,0.0025585978,0.0,0.0,0.0,0.0,0.0
364537712,364532881,0.0,0.0,0.0,107.60805,107.60997,0.0,0.0,0.0,0.0,0.0,0.0,0.0,0.0,12.465789,0.0,0.0,nan,0.0,0.0,0.09015434,0.0025479621,0.0025549827,0.0025377192,0.0,0.0,0.0,0.0,0.0
365033740,365033167,0.0,0.0,0.0,107.60031,107.60038,0.0,0.0,0.0,0.0,0.0,0.0,0.0,0.0,12.465507,0.0,0.0,nan,0.0,0.0,0.09015434,0.002537465,0.002543993,0.0025293897,0.0,0.0,0.0,0.0,0.0
365536744,365533723,0.0,0.0,0.0,107.587555,107.58613,0.0,0.0,0.0,0.0,0.0,0.0,0.0,0.0,12.465955,0.0,0.0,nan,0.0,0.0,0.09015434,0.0025352284,0.0025371746,0.0025222923,0.0,0.0,0.0,0.0,0.0
366037558,366033819,0.0,0.0,0.0,107.57693,107.57245,0.0,0.0,0.0,0.0,0.0,0.0,0.0,0.0,12.465494,0.0,0.0,nan,0.0,0.0,0.09015434,0.0025455665,0.0025399844,0.002518595,0.0,0.0,0.0,0.0,0.0
366536289,366534143,0.0,0.0,0.0,107.54996,107.53845,0.0,0.0,0.0,0.0,0.0,0.0,0.0,0.0,12.466062,0.0,0.0,nan,0.0,0.0,0.09015434,0.0025440184,0.0025337127,0.0025159328,0.0,0.0,0.0,0.0,0.0
367041144,367039142,0.0,0.0,0.0,107.54273,107.52615,0.0,0.0,0.0,0.0,0.0,0.0,0.0,0.0,12.464956,0.0,0.0,nan,0.0,0.0,0.09015434,0.0025369057,0.0025275939,0.002513914,0.0,0.0,0.0,0.0,0.0
368532947,368530944,0.0,0.0,0.0,107.521965,107.48325,0.0,0.0,0.0,0.0,0.0,0.0,0.0,0.0,12.466139,0.0,0.0,nan,0.0,0.0,0.09015434,0.0025435148,0.0025260346,0.0025104631,0.0,0.0,0.0,0.0,0.0
369031892,369031386,0.0,0.0,0.0,107.51837,107.4729,0.0,0.0,0.0,0.0,0.0,0.0,0.0,0.0,12.465916,0.0,0.0,nan,0.0,0.0,0.09015434,0.0025362745,0.002523472,0.0025097036,0.0,0.0,0.0,0.0,0.0
369532117,369531595,0.0,0.0,0.0,107.542465,107.49161,0.0,0.0,0.0,0.0,0.0,0.0,0.0,0.0,12.466043,0.0,0.0,nan,0.0,0.0,0.09015434,0.0025310745,0.0025212374,0.0025091008,0.0,0.0,0.0,0.0,0.0
370038950,370036429,0.0,0.0,0.0,107.54649,107.488945,0.0,0.0,0.0,0.0,0.0,0.0,0.0,0.0,12.466884,0.0,0.0,nan,0.0,0.0,0.09015434,0.0025282742,0.0025212723,0.0025085998,0.0,0.0,0.0,0.0,0.0
370534448,370532250,0.0,0.0,0.0,107.51222,107.45164,0.0,0.0,0.0,0.0,0.0,0.0,0.0,0.0,12.4668255,0.0,0.0,nan,0.0,0.0,0.09015434,0.0025258076,0.0025192357,0.0025080335,0.0,0.0,0.0,0.0,0.0
371033086,371032576,0.0,0.0,0.0,107.51671,107.454865,0.0,0.0,0.0,0.0,0.0,0.0,0.0,0.0,12.46773,0.0,0.0,nan,0.0,0.0,0.090190925,0.0025245221,0.0025187095,0.002507882,0.0,0.0,0.0,0.0,0.0
371533455,371532942,0.0,0.0,0.0,107.50499,107.445076,0.0,0.0,0.0,0.0,0.0,0.0,0.0,0.0,12.466823,0.0,0.0,nan,0.0,0.0,0.090187706,0.0025245221,0.0025187095,0.002507882,0.0,0.0,0.0,0.0,0.0
372029150,372028774,0.0,0.0,0.0,107.50556,107.44835,0.0,0.0,0.0,0.0,0.0,0.0,0.0,0.0,12.46691,0.0,0.0,nan,0.0,0.0,0.09018488,0.0025245221,0.0025187095,0.002507882,0.0,0.0,0.0,0.0,0.0
372535022,372533599,0.0,0.0,0.0,107.522385,107.46695,0.0,0.0,0.0,0.0,0.0,0.0,0.0,0.0,12.46836,0.0,0.0,nan,0.0,0.0,0.09018221,0.0025245221,0.0025187095,0.002507882,0.0,0.0,0.0,0.0,0.0
373034395,373033879,0.0,0.0,0.0,107.51094,107.45781,0.0,0.0,0.0,0.0,0.0,0.0,0.0,0.0,12.468257,0.0,0.0,nan,0.0,0.0,0.09017973,0.0025245221,0.0025187095,0.002507882,0.0,0.0,0.0,0.0,0.0
373534769,373534211,0.0,0.0,0.0,107.50259,107.45306,0.0,0.0,0.0,0.0,0.0,0.0,0.0,0.0,12.467795,0.0,0.0,nan,0.0,0.0,0.09017717,0.0025245221,0.0025187095,0.002507882,0.0,0.0,0.0,0.0,0.0
374039696,374039041,0.0,0.0,0.0,107.48888,107.44199,0.0,0.0,0.0,0.0,0.0,0.0,0.0,0.0,12.467527,0.0,0.0,nan,0.0,0.0,0.09017504,0.0025245221,0.0025187095,0.002507882,0.0,0.0,0.0,0.0,0.0
374535661,374535027,0.0,0.0,0.0,107.47994,107.43673,0.0,0.0,0.0,0.0,0.0,0.0,0.0,0.0,12.467164,0.0,0.0,nan,0.0,0.0,0.090173,0.0025245221,0.0025187095,0.002507882,0.0,0.0,0.0,0.0,0.0
375036403,375035228,0.0,0.0,0.0,107.438354,107.39793,0.0,0.0,0.0,0.0,0.0,0.0,0.0,0.0,12.467139,0.0,0.0,nan,0.0,0.0,0.09017113,0.0025245221,0.0025187095,0.002507882,0.0,0.0,0.0,0.0,0.0
375531551,375531159,0.0,0.0,0.0,107.432945,107.396126,0.0,0.0,0.0,0.0,0.0,0.0,0.0,0.0,12.466618,0.0,0.0,nan,0.0,0.0,0.090169355,0.0025245221,0.0025187095,0.002507882,0.0,0.0,0.0,0.0,0.0
376032058,376031328,0.0,0.0,0.0,107.44538,107.41092,0.0,0.0,0.0,0.0,0.0,0.0,0.0,0.0,12.466063,0.0,0.0,nan,0.0,0.0,0.09016765,0.0025245221,0.0025187095,0.002507882,0.0,0.0,0.0,0.0,0.0
376527802,376527269,0.0,0.0,0.0,107.407715,107.37602,0.0,0.0,0.0,0.0,0.0,0.0,0.0,0.0,12.465928,0.0,0.0,nan,0.0,0.0,0.09016621,0.0025245221,0.0025187095,0.002507882,0.0,0.0,0.0,0.0,0.0
377037120,377036626,0.0,0.0,0.0,107.42726,107.3995,0.0,0.0,0.0,0.0,0.0,0.0,0.0,0.0,12.465302,0.0,0.0,nan,0.0,0.0,0.09016499,0.0025245221,0.0025187095,0.002507882,0.0,0.0,0.0,0.0,0.0
377533184,377532304,0.0,0.0,0.0,107.38846,107.36374,0.0,0.0,0.0,0.0,0.0,0.0,0.0,0.0,12.464721,0.0,0.0,nan,0.0,0.0,0.09016372,0.0025245221,0.0025187095,0.002507882,0.0,0.0,0.0,0.0,0.0
378037946,378037138,0.0,0.0,0.0,107.389626,107.369484,0.0,0.0,0.0,0.0,0.0,0.0,0.0,0.0,12.465254,0.0,0.0,nan,0.0,0.0,0.09016246,0.0025245221,0.0025187095,0.002507882,0.0,0.0,0.0,0.0,0.0
378537961,378537464,0.0,0.0,0.0,107.40294,107.38574,0.0,0.0,0.0,0.0,0.0,0.0,0.0,0.0,12.464646,0.0,0.0,nan,0.0,0.0,0.09016126,0.0025245221,0.0025187095,0.002507882,0.0,0.0,0.0,0.0,0.0
379029307,379028815,0.0,0.0,0.0,107.373436,107.36076,0.0,0.0,0.0,0.0,0.0,0.0,0.0,0.0,12.463417,0.0,0.0,nan,0.0,0.0,0.09016037,0.0025245221,0.0025187095,0.002507882,0.0,0.0,0.0,0.0,0.0
380030111,380029425,0.0,0.0,0.0,107.40786,107.40114,0.0,0.0,0.0,0.0,0.0,0.0,0.0,0.0,12.463425,0.0,0.0,nan,0.0,0.0,0.09015892,0.0025245221,0.0025187095,0.002507882,0.0,0.0,0.0,0.0,0.0
380526168,380525503,0.0,0.0,0.0,107.38422,107.381546,0.0,0.0,0.0,0.0,0.0,0.0,0.0,0.0,12.462254,0.0,0.0,nan,0.0,0.0,0.09015801,0.0025245221,0.0025187095,0.002507882,0.0,0.0,0.0,0.0,0.0
381039481,381039092,0.0,0.0,0.0,107.38051,107.380455,0.0,0.0,0.0,0.0,0.0,0.0,0.0,0.0,12.462234,0.0,0.0,nan,0.0,0.0,0.090157315,0.0025245221,0.0025187095,0.002507882,0.0,0.0,0.0,0.0,0.0
381535537,381534908,0.0,0.0,0.0,107.38858,107.39226,0.0,0.0,0.0,0.0,0.0,0.0,0.0,0.0,12.461813,0.0,0.0,nan,0.0,0.0,0.09015667,0.0025245221,0.0025187095,0.002507882,0.0,0.0,0.0,0.0,0.0
382031937,382030914,0.0,0.0,0.0,107.36347,107.36944,0.0,0.0,0.0,0.0,0.0,0.0,0.0,0.0,12.461415,0.0,0.0,nan,0.0,0.0,0.09015604,0.0025245221,0.0025187095,0.002507882,0.0,0.0,0.0,0.0,0.0
382531682,382531051,0.0,0.0,0.0,107.38183,107.390976,0.0,0.0,0.0,0.0,0.0,0.0,0.0,0.0,12.461459,0.0,0.0,nan,0.0,0.0,0.09015558,0.0025245221,0.0025187095,0.002507882,0.0,0.0,0.0,0.0,0.0
383027421,383027038,0.0,0.0,0.0,107.38379,107.39485,0.0,0.0,0.0,0.0,0.0,0.0,0.0,0.0,12.461102,0.0,0.0,nan,0.0,0.0,0.09015482,0.0025245221,0.0025187095,0.002507882,0.0,0.0,0.0,0.0,0.0
383536854,383536391,0.0,0.0,0.0,107.39067,107.4034,0.0,0.0,0.0,0.0,0.0,0.0,0.0,0.0,12.460597,0.0,0.0,nan,0.0,0.0,0.09015423,0.0025245221,0.0025187095,0.002507882,0.0,0.0,0.0,0.0,0.0
384037054,384036534,0.0,0.0,0.0,107.4442,107.45914,0.0,0.0,0.0,0.0,0.0,0.0,0.0,0.0,12.4610195,0.0,0.0,nan,0.0,0.0,0.09015381,0.0025245221,0.0025187095,0.002507882,0.0,0.0,0.0,0.0,0.0
384533829,384532449,0.0,0.0,0.0,107.47727,107.49324,0.0,0.0,0.0,0.0,0.0,0.0,0.0,0.0,12.460755,0.0,0.0,nan,0.0,0.0,0.090153344,0.0025245221,0.0025187095,0.002507882,0.0,0.0,0.0,0.0,0.0
385037629,385037184,0.0,0.0,0.0,107.47566,107.4926,0.0,0.0,0.0,0.0,0.0,0.0,0.0,0.0,12.460354,0.0,0.0,nan,0.0,0.0,0.090152755,0.0025245221,0.0025187095,0.002507882,0.0,0.0,0.0,0.0,0.0
385537937,385537554,0.0,0.0,0.0,107.48379,107.501045,0.0,0.0,0.0,0.0,0.0,0.0,0.0,0.0,12.460187,0.0,0.0,nan,0.0,0.0,0.09015216,0.0025245221,0.0025187095,0.002507882,0.0,0.0,0.0,0.0,0.0
386029656,386028818,0.0,0.0,0.0,107.51346,107.531075,0.0,0.0,0.0,0.0,0.0,0.0,0.0,0.0,12.460768,0.0,0.0,nan,0.0,0.0,0.09015179,0.0025245221,0.0025187095,0.002507882,0.0,0.0,0.0,0.0,0.0
386530014,386529189,0.0,0.0,0.0,107.52193,107.539474,0.0,0.0,0.0,0.0,0.0,0.0,0.0,0.0,12.460657,0.0,0.0,nan,0.0,0.0,0.090151295,0.0025245221,0.0025187095,0.002507882,0.0,0.0,0.0,0.0,0.0
387025719,387025262,0.0,0.0,0.0,107.560776,107.57813,0.0,0.0,0.0,0.0,0.0,0.0,0.0,0.0,12.460983,0.0,0.0,nan,0.0,0.0,0.09015093,0.0025245221,0.0025187095,0.002507882,0.0,0.0,0.0,0.0,0.0
387534933,387534546,0.0,0.0,0.0,107.56171,107.57832,0.0,0.0,0.0,0.0,0.0,0.0,0.0,0.0,12.460855,0.0,0.0,nan,0.0,0.0,0.09015039,0.0025245221,0.0025187095,0.002507882,0.0,0.0,0.0,0.0,0.0
388035214,388034626,0.0,0.0,0.0,107.55022,107.56607,0.0,0.0,0.0,0.0,0.0,0.0,0.0,0.0,12.460576,0.0,0.0,nan,0.0,0.0,0.09014977,0.0025245221,0.0025187095,0.002507882,0.0,0.0,0.0,0.0,0.0
388531074,388530667,0.0,0.0,0.0,107.615074,107.62985,0.0,0.0,0.0,0.0,0.0,0.0,0.0,0.0,12.461172,0.0,0.0,nan,0.0,0.0,0.09014936,0.0025245221,0.0025187095,0.002507882,0.0,0.0,0.0,0.0,0.0
389032119,389030812,0.0,0.0,0.0,107.62682,107.64063,0.0,0.0,0.0,0.0,0.0,0.0,0.0,0.0,12.460403,0.0,0.0,nan,0.0,0.0,0.090148725,0.0025245221,0.0025187095,0.002507882,0.0,0.0,0.0,0.0,0.0
389527501,389526784,0.0,0.0,0.0,107.658875,107.67102,0.0,0.0,0.0,0.0,0.0,0.0,0.0,0.0,12.461028,0.0,0.0,nan,0.0,0.0,0.09014829,0.0025245221,0.0025187095,0.002507882,0.0,0.0,0.0,0.0,0.0
390036592,390036075,0.0,0.0,0.0,107.69529,107.70628,0.0,0.0,0.0,0.0,0.0,0.0,0.0,0.0,12.461401,0.0,0.0,nan,0.0,0.0,0.09014775,0.0025245221,0.0025187095,0.002507882,0.0,0.0,0.0,0.0,0.0
390532245,390531743,0.0,0.0,0.0,107.67614,107.68585,0.0,0.0,0.0,0.0,0.0,0.0,0.0,0.0,12.460708,0.0,0.0,nan,0.0,0.0,0.09014728,0.0025245221,0.0025187095,0.002507882,0.0,0.0,0.0,0.0,0.0
391032824,391032189,0.0,0.0,0.0,107.704926,107.71266,0.0,0.0,0.0,0.0,0.0,0.0,0.0,0.0,12.461164,0.0,0.0,nan,0.0,0.0,0.09014682,0.0025245221,0.0025187095,0.002507882,0.0,0.0,0.0,0.0,0.0
391534136,391532434,0.0,0.0,0.0,107.74017,107.74662,0.0,0.0,0.0,0.0,0.0,0.0,0.0,0.0,12.461828,0.0,0.0,nan,0.0,0.0,0.09014634,0.0025245221,0.0025187095,0.002507882,0.0,0.0,0.0,0.0,0.0
392037721,392037226,0.0,0.0,0.0,107.76337,107.76789,0.0,0.0,0.0,0.0,0.0,0.0,0.0,0.0,12.461829,0.0,0.0,nan,0.0,0.0,0.09014596,0.0025245221,0.0025187095,0.002507882,0.0,0.0,0.0,0.0,0.0
392533547,392533037,0.0,0.0,0.0,107.79249,107.79575,0.0,0.0,0.0,0.0,0.0,0.0,0.0,0.0,12.461811,0.0,0.0,nan,0.0,0.0,0.090145506,0.0025245221,0.0025187095,0.002507882,0.0,0.0,0.0,0.0,0.0
393024814,393024435,0.0,0.0,0.0,107.78793,107.79003,0.0,0.0,0.0,0.0,0.0,0.0,0.0,0.0,12.461563,0.0,0.0,nan,0.0,0.0,0.090144955,0.0025245221,0.0025187095,0.002507882,0.0,0.0,0.0,0.0,0.0
393534281,393533719,0.0,0.0,0.0,107.82312,107.82355,0.0,0.0,0.0,0.0,0.0,0.0,0.0,0.0,12.462241,0.0,0.0,nan,0.0,0.0,0.09014449,0.0025245221,0.0025187095,0.002507882,0.0,0.0,0.0,0.0,0.0
394035386,394034271,0.0,0.0,0.0,107.81759,107.81701,0.0,0.0,0.0,0.0,0.0,0.0,0.0,0.0,12.462025,0.0,0.0,nan,0.0,0.0,0.09014422,0.0025245221,0.0025187095,0.002507882,0.0,0.0,0.0,0.0,0.0
394535277,394534335,0.0,0.0,0.0,107.79444,107.79244,0.0,0.0,0.0,0.0,0.0,0.0,0.0,0.0,12.462633,0.0,0.0,nan,0.0,0.0,0.09014378,0.0025245221,0.0025187095,0.002507882,0.0,0.0,0.0,0.0,0.0
395035025,395034658,0.0,0.0,0.0,107.78785,107.78496,0.0,0.0,0.0,0.0,0.0,0.0,0.0,0.0,12.461788,0.0,0.0,nan,0.0,0.0,0.09014333,0.0025245221,0.0025187095,0.002507882,0.0,0.0,0.0,0.0,0.0
395535625,395534981,0.0,0.0,0.0,107.822365,107.818184,0.0,0.0,0.0,0.0,0.0,0.0,0.0,0.0,12.462075,0.0,0.0,nan,0.0,0.0,0.09014309,0.0025245221,0.0025187095,0.002507882,0.0,0.0,0.0,0.0,0.0
396031336,396030798,0.0,0.0,0.0,107.84011,107.83511,0.0,0.0,0.0,0.0,0.0,0.0,0.0,0.0,12.462512,0.0,0.0,nan,0.0,0.0,0.09014284,0.0025245221,0.0025187095,0.002507882,0.0,0.0,0.0,0.0,0.0
396536835,396535802,0.0,0.0,0.0,107.80053,107.79486,0.0,0.0,0.0,0.0,0.0,0.0,0.0,0.0,12.462201,0.0,0.0,nan,0.0,0.0,0.090142444,0.0025245221,0.0025187095,0.002507882,0.0,0.0,0.0,0.0,0.0
397036585,397035959,0.0,0.0,0.0,107.770905,107.76427,0.0,0.0,0.0,0.0,0.0,0.0,0.0,0.0,12.461589,0.0,0.0,nan,0.0,0.0,0.09014218,0.0025245221,0.0025187095,0.002507882,0.0,0.0,0.0,0.0,0.0
397532469,397531919,0.0,0.0,0.0,107.78893,107.781654,0.0,0.0,0.0,0.0,0.0,0.0,0.0,0.0,12.461137,0.0,0.0,nan,0.0,0.0,0.09014192,0.0025245221,0.0025187095,0.002507882,0.0,0.0,0.0,0.0,0.0
398032623,398032093,0.0,0.0,0.0,107.81415,107.80605,0.0,0.0,0.0,0.0,0.0,0.0,0.0,0.0,12.461301,0.0,0.0,nan,0.0,0.0,0.090141796,0.0025245221,0.0025187095,0.002507882,0.0,0.0,0.0,0.0,0.0
398532903,398532419,0.0,0.0,0.0,107.77352,107.76514,0.0,0.0,0.0,0.0,0.0,0.0,0.0,0.0,12.459867,0.0,0.0,nan,0.0,0.0,0.09014163,0.0025245221,0.0025187095,0.002507882,0.0,0.0,0.0,0.0,0.0
399038124,399037390,0.0,0.0,0.0,107.767685,107.75886,0.0,0.0,0.0,0.0,0.0,0.0,0.0,0.0,12.460628,0.0,0.0,nan,0.0,0.0,0.09014163,0.0025245221,0.0025187095,0.002507882,0.0,0.0,0.0,0.0,0.0
399528960,399528556,0.0,0.0,0.0,107.7567,107.747696,0.0,0.0,0.0,0.0,0.0,0.0,0.0,0.0,12.459407,0.0,0.0,nan,0.0,0.0,0.09014151,0.0025245221,0.0025187095,0.002507882,0.0,0.0,0.0,0.0,0.0
400029294,400028926,0.0,0.0,0.0,107.74612,107.73699,0.0,0.0,0.0,0.0,0.0,0.0,0.0,0.0,12.459547,0.0,0.0,nan,0.0,0.0,0.09014164,0.0025245221,0.0025187095,0.002507882,0.0,0.0,0.0,0.0,0.0
400534346,400533711,0.0,0.0,0.0,107.76849,107.75922,0.0,0.0,0.0,0.0,0.0,0.0,0.0,0.0,12.459414,0.0,0.0,nan,0.0,0.0,0.0901418,0.0025245221,0.0025187095,0.002507882,0.0,0.0,0.0,0.0,0.0
401035329,401034036,0.0,0.0,0.0,107.75753,107.748276,0.0,0.0,0.0,0.0,0.0,0.0,0.0,0.0,12.458947,0.0,0.0,nan,0.0,0.0,0.09014189,0.0025245221,0.0025187095,0.002507882,0.0,0.0,0.0,0.0,0.0
401530699,401530113,0.0,0.0,0.0,107.72496,107.71589,0.0,0.0,0.0,0.0,0.0,0.0,0.0,0.0,12.458525,0.0,0.0,nan,0.0,0.0,0.09014194,0.0025245221,0.0025187095,0.002507882,0.0,0.0,0.0,0.0,0.0
402035233,402034742,0.0,0.0,0.0,107.71154,107.702644,0.0,0.0,0.0,0.0,0.0,0.0,0.0,0.0,12.45787,0.0,0.0,nan,0.0,0.0,0.09014197,0.0025245221,0.0025187095,0.002507882,0.0,0.0,0.0,0.0,0.0
402540038,402539520,0.0,0.0,0.0,107.7065,107.697876,0.0,0.0,0.0,0.0,0.0,0.0,0.0,0.0,12.4581375,0.0,0.0,nan,0.0,0.0,0.090142086,0.0025245221,0.0025187095,0.002507882,0.0,0.0,0.0,0.0,0.0
403036029,403035507,0.0,0.0,0.0,107.69857,107.69015,0.0,0.0,0.0,0.0,0.0,0.0,0.0,0.0,12.457577,0.0,0.0,nan,0.0,0.0,0.09014223,0.0025245221,0.0025187095,0.002507882,0.0,0.0,0.0,0.0,0.0
403536594,403535656,0.0,0.0,0.0,107.69125,107.683014,0.0,0.0,0.0,0.0,0.0,0.0,0.0,0.0,12.457255,0.0,0.0,nan,0.0,0.0,0.090142444,0.0025245221,0.0025187095,0.002507882,0.0,0.0,0.0,0.0,0.0
404032147,404031636,0.0,0.0,0.0,107.66243,107.65454,0.0,0.0,0.0,0.0,0.0,0.0,0.0,0.0,12.457587,0.0,0.0,nan,0.0,0.0,0.09014256,0.0025245221,0.0025187095,0.002507882,0.0,0.0,0.0,0.0,0.0
404532310,404531788,0.0,0.0,0.0,107.67827,107.67056,0.0,0.0,0.0,0.0,0.0,0.0,0.0,0.0,12.4573,0.0,0.0,nan,0.0,0.0,0.0901427,0.0025245221,0.0025187095,0.002507882,0.0,0.0,0.0,0.0,0.0
405032800,405032156,0.0,0.0,0.0,107.70691,107.699486,0.0,0.0,0.0,0.0,0.0,0.0,0.0,0.0,12.457495,0.0,0.0,nan,0.0,0.0,0.09014292,0.0025245221,0.0025187095,0.002507882,0.0,0.0,0.0,0.0,0.0
405537600,405537032,0.0,0.0,0.0,107.66905,107.661896,0.0,0.0,0.0,0.0,0.0,0.0,0.0,0.0,12.457234,0.0,0.0,nan,0.0,0.0,0.090142936,0.0025245221,0.0025187095,0.002507882,0.0,0.0,0.0,0.0,0.0
406034058,406032757,0.0,0.0,0.0,107.64109,107.6343,0.0,0.0,0.0,0.0,0.0,0.0,0.0,0.0,12.45634,0.0,0.0,nan,0.0,0.0,0.090143055,0.0025245221,0.0025187095,0.002507882,0.0,0.0,0.0,0.0,0.0
406533673,406533156,0.0,0.0,0.0,107.634,107.62743,0.0,0.0,0.0,0.0,0.0,0.0,0.0,0.0,12.456556,0.0,0.0,nan,0.0,0.0,0.09014321,0.0025245221,0.0025187095,0.002507882,0.0,0.0,0.0,0.0,0.0
407030974,407028893,0.0,0.0,0.0,107.65506,107.6487,0.0,0.0,0.0,0.0,0.0,0.0,0.0,0.0,12.456973,0.0,0.0,nan,0.0,0.0,0.09014326,0.0025573743,0.0025633797,0.0036734384,0.0,0.0,0.0,0.0,0.0
407532049,407529260,0.0,0.0,0.0,107.6162,107.61794,0.0,0.0,0.0,0.0,0.0,0.0,0.0,0.0,12.456812,0.0,0.0,nan,0.0,0.0,0.09014326,0.0025368563,0.0025416752,0.0025994426,0.0,0.0,0.0,0.0,0.0
408038684,408034047,0.0,0.0,0.0,107.59583,107.59774,0.0,0.0,0.0,0.0,0.0,0.0,0.0,0.0,12.457037,0.0,0.0,nan,0.0,0.0,0.09014326,0.0025284104,0.002529325,0.002550968,0.0,0.0,0.0,0.0,0.0
408530428,408529863,0.0,0.0,0.0,107.53079,107.532715,0.0,0.0,0.0,0.0,0.0,0.0,0.0,0.0,12.456239,0.0,0.0,nan,0.0,0.0,0.09014326,0.0025224062,0.0025237578,0.0025347746,0.0,0.0,0.0,0.0,0.0
409039841,409039197,0.0,0.0,0.0,107.544716,107.5468,0.0,0.0,0.0,0.0,0.0,0.0,0.0,0.0,12.45654,0.0,0.0,nan,0.0,0.0,0.09014326,0.0025197598,0.0025199268,0.0025261685,0.0,0.0,0.0,0.0,0.0
410037972,410035379,0.0,0.0,0.0,107.54366,107.54653,0.0,0.0,0.0,0.0,0.0,0.0,0.0,0.0,12.456983,0.0,0.0,nan,0.0,0.0,0.09014326,0.002515941,0.0025172736,0.002517777,0.0,0.0,0.0,0.0,0.0
410535753,410531390,0.0,0.0,0.0,107.53077,107.53361,0.0,0.0,0.0,0.0,0.0,0.0,0.0,0.0,12.456931,0.0,0.0,nan,0.0,0.0,0.09014326,0.0025155514,0.0025167982,0.002515412,0.0,0.0,0.0,0.0,0.0
411033632,411031471,0.0,0.0,0.0,107.50072,107.50344,0.0,0.0,0.0,0.0,0.0,0.0,0.0,0.0,12.456705,0.0,0.0,nan,0.0,0.0,0.09014326,0.0025159826,0.0025160867,0.0025134634,0.0,0.0,0.0,0.0,0.0
411529659,411527443,0.0,0.0,0.0,107.490715,107.49376,0.0,0.0,0.0,0.0,0.0,0.0,0.0,0.0,12.456644,0.0,0.0,nan,0.0,0.0,0.09014326,0.0025145628,0.0025149442,0.0025120887,0.0,0.0,0.0,0.0,0.0
412037182,412036731,0.0,0.0,0.0,107.47096,107.473724,0.0,0.0,0.0,0.0,0.0,0.0,0.0,0.0,12.457054,0.0,0.0,nan,0.0,0.0,0.09014326,0.0025135928,0.002513802,0.0025109926,0.0,0.0,0.0,0.0,0.0
412539462,412536990,0.0,0.0,0.0,107.489586,107.4919,0.0,0.0,0.0,0.0,0.0,0.0,0.0,0.0,12.457601,0.0,0.0,nan,0.0,0.0,0.09014326,0.0025128596,0.002513164,0.0025100803,0.0,0.0,0.0,0.0,0.0
413035615,413032853,0.0,0.0,0.0,107.44084,107.44222,0.0,0.0,0.0,0.0,0.0,0.0,0.0,0.0,12.456813,0.0,0.0,nan,0.0,0.0,0.09014326,0.0025122764,0.0025127623,0.002509367,0.0,0.0,0.0,0.0,0.0
413538243,413537589,0.0,0.0,0.0,107.46217,107.462425,0.0,0.0,0.0,0.0,0.0,0.0,0.0,0.0,12.457023,0.0,0.0,nan,0.0,0.0,0.09015947,0.0025120196,0.0025126296,0.0025092254,0.0,0.0,0.0,0.0,0.0
414034003,414033405,0.0,0.0,0.0,107.44299,107.44149,0.0,0.0,0.0,0.0,0.0,0.0,0.0,0.0,12.456811,0.0,0.0,nan,0.0,0.0,0.090158515,0.0025120196,0.0025126296,0.0025092254,0.0,0.0,0.0,0.0,0.0
414534329,414533726,0.0,0.0,0.0,107.44045,107.43801,0.0,0.0,0.0,0.0,0.0,0.0,0.0,0.0,12.457138,0.0,0.0,nan,0.0,0.0,0.0901579,0.0025120196,0.0025126296,0.0025092254,0.0,0.0,0.0,0.0,0.0
415034587,415034047,0.0,0.0,0.0,107.433525,107.43042,0.0,0.0,0.0,0.0,0.0,0.0,0.0,0.0,12.456588,0.0,0.0,nan,0.0,0.0,0.090157084,0.0025120196,0.0025126296,0.0025092254,0.0,0.0,0.0,0.0,0.0
415535832,415534414,0.0,0.0,0.0,107.436264,107.432434,0.0,0.0,0.0,0.0,0.0,0.0,0.0,0.0,12.4562845,0.0,0.0,nan,0.0,0.0,0.0901563,0.0025120196,0.0025126296,0.0025092254,0.0,0.0,0.0,0.0,0.0
416535705,416535012,0.0,0.0,0.0,107.44643,107.44227,0.0,0.0,0.0,0.0,0.0,0.0,0.0,0.0,12.455573,0.0,0.0,nan,0.0,0.0,0.09015483,0.0025120196,0.0025126296,0.0025092254,0.0,0.0,0.0,0.0,0.0
417035702,417035333,0.0,0.0,0.0,107.45826,107.45431,0.0,0.0,0.0,0.0,0.0,0.0,0.0,0.0,12.456034,0.0,0.0,nan,0.0,0.0,0.09015426,0.0025120196,0.0025126296,0.0025092254,0.0,0.0,0.0,0.0,0.0
417532443,417531146,0.0,0.0,0.0,107.466515,107.46299,0.0,0.0,0.0,0.0,0.0,0.0,0.0,0.0,12.456492,0.0,0.0,nan,0.0,0.0,0.09015388,0.0025120196,0.0025126296,0.0025092254,0.0,0.0,0.0,0.0,0.0
418027720,418027132,0.0,0.0,0.0,107.42621,107.42354,0.0,0.0,0.0,0.0,0.0,0.0,0.0,0.0,12.455411,0.0,0.0,nan,0.0,0.0,0.09015326,0.0025120196,0.0025126296,0.0025092254,0.0,0.0,0.0,0.0,0.0
418536949,418536424,0.0,0.0,0.0,107.41062,107.40866,0.0,0.0,0.0,0.0,0.0,0.0,0.0,0.0,12.455926,0.0,0.0,nan,0.0,0.0,0.09015274,0.0025120196,0.0025126296,0.0025092254,0.0,0.0,0.0,0.0,0.0
419037127,419036618,0.0,0.0,0.0,107.40242,107.40155,0.0,0.0,0.0,0.0,0.0,0.0,0.0,0.0,12.4564,0.0,0.0,nan,0.0,0.0,0.090152584,0.0025120196,0.0025126296,0.0025092254,0.0,0.0,0.0,0.0,0.0
419533085,419532529,0.0,0.0,0.0,107.362434,107.36233,0.0,0.0,0.0,0.0,0.0,0.0,0.0,0.0,12.455562,0.0,0.0,nan,0.0,0.0,0.090152055,0.0025120196,0.0025126296,0.0025092254,0.0,0.0,0.0,0.0,0.0
420037784,420037266,0.0,0.0,0.0,107.335495,107.33634,0.0,0.0,0.0,0.0,0.0,0.0,0.0,0.0,12.455801,0.0,0.0,nan,0.0,0.0,0.090151615,0.0025120196,0.0025126296,0.0025092254,0.0,0.0,0.0,0.0,0.0
420533712,420533074,0.0,0.0,0.0,107.35438,107.35584,0.0,0.0,0.0,0.0,0.0,0.0,0.0,0.0,12.456273,0.0,0.0,nan,0.0,0.0,0.09015127,0.0025120196,0.0025126296,0.0025092254,0.0,0.0,0.0,0.0,0.0
421029563,421028887,0.0,0.0,0.0,107.371605,107.373566,0.0,0.0,0.0,0.0,0.0,0.0,0.0,0.0,12.456071,0.0,0.0,nan,0.0,0.0,0.09015098,0.0025120196,0.0025126296,0.0025092254,0.0,0.0,0.0,0.0,0.0
421529948,421529252,0.0,0.0,0.0,107.3748,107.37731,0.0,0.0,0.0,0.0,0.0,0.0,0.0,0.0,12.455644,0.0,0.0,nan,0.0,0.0,0.09015048,0.0025120196,0.0025126296,0.0025092254,0.0,0.0,0.0,0.0,0.0
422026751,422025292,0.0,0.0,0.0,107.39357,107.39637,0.0,0.0,0.0,0.0,0.0,0.0,0.0,0.0,12.456137,0.0,0.0,nan,0.0,0.0,0.09015033,0.0025120196,0.0025126296,0.0025092254,0.0,0.0,0.0,0.0,0.0
422530250,422529850,0.0,0.0,0.0,107.34101,107.34397,0.0,0.0,0.0,0.0,0.0,0.0,0.0,0.0,12.455908,0.0,0.0,nan,0.0,0.0,0.09014996,0.0025120196,0.0025126296,0.0025092254,0.0,0.0,0.0,0.0,0.0
423035230,423034677,0.0,0.0,0.0,107.3625,107.36549,0.0,0.0,0.0,0.0,0.0,0.0,0.0,0.0,12.455481,0.0,0.0,nan,0.0,0.0,0.09014968,0.0025120196,0.0025126296,0.0025092254,0.0,0.0,0.0,0.0,0.0
423531215,423530715,0.0,0.0,0.0,107.34841,107.35114,0.0,0.0,0.0,0.0,0.0,0.0,0.0,0.0,12.455943,0.0,0.0,nan,0.0,0.0,0.0901493,0.0025120196,0.0025126296,0.0025092254,0.0,0.0,0.0,0.0,0.0
424040388,424039976,0.0,0.0,0.0,107.3484,107.350876,0.0,0.0,0.0,0.0,0.0,0.0,0.0,0.0,12.455521,0.0,0.0,nan,0.0,0.0,0.090148926,0.0025120196,0.0025126296,0.0025092254,0.0,0.0,0.0,0.0,0.0
424527604,424526801,0.0,0.0,0.0,107.34091,107.34279,0.0,0.0,0.0,0.0,0.0,0.0,0.0,0.0,12.455369,0.0,0.0,nan,0.0,0.0,0.09014865,0.0025120196,0.0025126296,0.0025092254,0.0,0.0,0.0,0.0,0.0
425037423,425036090,0.0,0.0,0.0,107.37345,107.37499,0.0,0.0,0.0,0.0,0.0,0.0,0.0,0.0,12.455207,0.0,0.0,nan,0.0,0.0,0.090148136,0.0025120196,0.0025126296,0.0025092254,0.0,0.0,0.0,0.0,0.0
425532248,425531771,0.0,0.0,0.0,107.37894,107.380165,0.0,0.0,0.0,0.0,0.0,0.0,0.0,0.0,12.45488,0.0,0.0,nan,0.0,0.0,0.0901478,0.0025120196,0.0025126296,0.0025092254,0.0,0.0,0.0,0.0,0.0
426032628,426032194,0.0,0.0,0.0,107.42689,107.4274,0.0,0.0,0.0,0.0,0.0,0.0,0.0,0.0,12.455509,0.0,0.0,nan,0.0,0.0,0.09014762,0.0025120196,0.0025126296,0.0025092254,0.0,0.0,0.0,0.0,0.0
426533082,426532457,0.0,0.0,0.0,107.40682,107.40679,0.0,0.0,0.0,0.0,0.0,0.0,0.0,0.0,12.4556,0.0,0.0,nan,0.0,0.0,0.09014708,0.0025120196,0.0025126296,0.0025092254,0.0,0.0,0.0,0.0,0.0
427029091,427028365,0.0,0.0,0.0,107.41054,107.4095,0.0,0.0,0.0,0.0,0.0,0.0,0.0,0.0,12.4558,0.0,0.0,nan,0.0,0.0,0.09014693,0.0025120196,0.0025126296,0.0025092254,0.0,0.0,0.0,0.0,0.0
427529078,427528544,0.0,0.0,0.0,107.42383,107.42201,0.0,0.0,0.0,0.0,0.0,0.0,0.0,0.0,12.45599,0.0,0.0,nan,0.0,0.0,0.09014652,0.0025120196,0.0025126296,0.0025092254,0.0,0.0,0.0,0.0,0.0
428029506,428028864,0.0,0.0,0.0,107.4341,107.4311,0.0,0.0,0.0,0.0,0.0,0.0,0.0,0.0,12.457258,0.0,0.0,nan,0.0,0.0,0.09014608,0.0025120196,0.0025126296,0.0025092254,0.0,0.0,0.0,0.0,0.0
428529841,428529186,0.0,0.0,0.0,107.45034,107.446465,0.0,0.0,0.0,0.0,0.0,0.0,0.0,0.0,12.457819,0.0,0.0,nan,0.0,0.0,0.09014587,0.0025120196,0.0025126296,0.0025092254,0.0,0.0,0.0,0.0,0.0
429034764,429034239,0.0,0.0,0.0,107.49416,107.48953,0.0,0.0,0.0,0.0,0.0,0.0,0.0,0.0,12.459346,0.0,0.0,nan,0.0,0.0,0.09014543,0.0025120196,0.0025126296,0.0025092254,0.0,0.0,0.0,0.0,0.0
429535534,429534334,0.0,0.0,0.0,107.52963,107.52377,0.0,0.0,0.0,0.0,0.0,0.0,0.0,0.0,12.460244,0.0,0.0,nan,0.0,0.0,0.09014495,0.0025120196,0.0025126296,0.0025092254,0.0,0.0,0.0,0.0,0.0
430030995,430030364,0.0,0.0,0.0,107.54163,107.53505,0.0,0.0,0.0,0.0,0.0,0.0,0.0,0.0,12.461797,0.0,0.0,nan,0.0,0.0,0.090144336,0.0025120196,0.0025126296,0.0025092254,0.0,0.0,0.0,0.0,0.0
430540033,430539641,0.0,0.0,0.0,107.550354,107.54302,0.0,0.0,0.0,0.0,0.0,0.0,0.0,0.0,12.4628525,0.0,0.0,nan,0.0,0.0,0.09014357,0.0025120196,0.0025126296,0.0025092254,0.0,0.0,0.0,0.0,0.0
431040423,431039843,0.0,0.0,0.0,107.56867,107.560844,0.0,0.0,0.0,0.0,0.0,0.0,0.0,0.0,12.463998,0.0,0.0,nan,0.0,0.0,0.09014293,0.0025120196,0.0025126296,0.0025092254,0.0,0.0,0.0,0.0,0.0
431536112,431535746,0.0,0.0,0.0,107.550934,107.542656,0.0,0.0,0.0,0.0,0.0,0.0,0.0,0.0,12.465158,0.0,0.0,nan,0.0,0.0,0.09014199,0.0025120196,0.0025126296,0.0025092254,0.0,0.0,0.0,0.0,0.0
432036878,432035930,0.0,0.0,0.0,107.5949,107.58629,0.0,0.0,0.0,0.0,0.0,0.0,0.0,0.0,12.466938,0.0,0.0,nan,0.0,0.0,0.09014101,0.0025120196,0.0025126296,0.0025092254,0.0,0.0,0.0,0.0,0.0
432532310,432531863,0.0,0.0,0.0,107.64024,107.63141,0.0,0.0,0.0,0.0,0.0,0.0,0.0,0.0,12.468156,0.0,0.0,nan,0.0,0.0,0.09014005,0.0025120196,0.0025126296,0.0025092254,0.0,0.0,0.0,0.0,0.0
433037014,433036569,0.0,0.0,0.0,107.67448,107.66554,0.0,0.0,0.0,0.0,0.0,0.0,0.0,0.0,12.470035,0.0,0.0,nan,0.0,0.0,0.09013918,0.0025120196,0.0025126296,0.0025092254,0.0,0.0,0.0,0.0,0.0
433537395,433536888,0.0,0.0,0.0,107.70754,107.698586,0.0,0.0,0.0,0.0,0.0,0.0,0.0,0.0,12.471147,0.0,0.0,nan,0.0,0.0,0.09013807,0.0025120196,0.0025126296,0.0025092254,0.0,0.0,0.0,0.0,0.0
434037671,434037292,0.0,0.0,0.0,107.69852,107.68985,0.0,0.0,0.0,0.0,0.0,0.0,0.0,0.0,12.4722395,0.0,0.0,nan,0.0,0.0,0.090137094,0.0025120196,0.0025126296,0.0025092254,0.0,0.0,0.0,0.0,0.0
434529187,434528513,0.0,0.0,0.0,107.70336,107.69492,0.0,0.0,0.0,0.0,0.0,0.0,0.0,0.0,12.473229,0.0,0.0,nan,0.0,0.0,0.0901361,0.0025120196,0.0025126296,0.0025092254,0.0,0.0,0.0,0.0,0.0
435033771,435033360,0.0,0.0,0.0,107.75855,107.75052,0.0,0.0,0.0,0.0,0.0,0.0,0.0,0.0,12.47515,0.0,0.0,nan,0.0,0.0,0.090134956,0.0025120196,0.0025126296,0.0025092254,0.0,0.0,0.0,0.0,0.0
435534446,435533900,0.0,0.0,0.0,107.759964,107.752365,0.0,0.0,0.0,0.0,0.0,0.0,0.0,0.0,12.476133,0.0,0.0,nan,0.0,0.0,0.09013401,0.0025120196,0.0025126296,0.0025092254,0.0,0.0,0.0,0.0,0.0
436034614,436033977,0.0,0.0,0.0,107.759445,107.75228,0.0,0.0,0.0,0.0,0.0,0.0,0.0,0.0,12.477695,0.0,0.0,nan,0.0,0.0,0.090133056,0.0025120196,0.0025126296,0.0025092254,0.0,0.0,0.0,0.0,0.0
436531043,436530028,0.0,0.0,0.0,107.79758,107.79105,0.0,0.0,0.0,0.0,0.0,0.0,0.0,0.0,12.478591,0.0,0.0,nan,0.0,0.0,0.09013209,0.0025120196,0.0025126296,0.0025092254,0.0,0.0,0.0,0.0,0.0
437030680,437030108,0.0,0.0,0.0,107.7657,107.75973,0.0,0.0,0.0,0.0,0.0,0.0,0.0,0.0,12.479441,0.0,0.0,nan,0.0,0.0,0.09013115,0.0025120196,0.0025126296,0.0025092254,0.0,0.0,0.0,0.0,0.0
437540029,437539443,0.0,0.0,0.0,107.80938,107.8041,0.0,0.0,0.0,0.0,0.0,0.0,0.0,0.0,12.480055,0.0,0.0,nan,0.0,0.0,0.090130314,0.0025120196,0.0025126296,0.0025092254,0.0,0.0,0.0,0.0,0.0
438035933,438035378,0.0,0.0,0.0,107.80135,107.79655,0.0,0.0,0.0,0.0,0.0,0.0,0.0,0.0,12.480713,0.0,0.0,nan,0.0,0.0,0.090129524,0.0025120196,0.0025126296,0.0025092254,0.0,0.0,0.0,0.0,0.0
438531565,438531065,0.0,0.0,0.0,107.81934,107.81496,0.0,0.0,0.0,0.0,0.0,0.0,0.0,0.0,12.482066,0.0,0.0,nan,0.0,0.0,0.09012882,0.0025120196,0.0025126296,0.0025092254,0.0,0.0,0.0,0.0,0.0
439036871,439035891,0.0,0.0,0.0,107.788345,107.78459,0.0,0.0,0.0,0.0,0.0,0.0,0.0,0.0,12.482282,0.0,0.0,nan,0.0,0.0,0.09012803,0.0025120196,0.0025126296,0.0025092254,0.0,0.0,0.0,0.0,0.0
439532440,439531704,0.0,0.0,0.0,107.77951,107.77612,0.0,0.0,0.0,0.0,0.0,0.0,0.0,0.0,12.483454,0.0,0.0,nan,0.0,0.0,0.090127476,0.0025120196,0.0025126296,0.0025092254,0.0,0.0,0.0,0.0,0.0
440037033,440036528,0.0,0.0,0.0,107.75972,107.75686,0.0,0.0,0.0,0.0,0.0,0.0,0.0,0.0,12.483669,0.0,0.0,nan,0.0,0.0,0.090127066,0.0025120196,0.0025126296,0.0025092254,0.0,0.0,0.0,0.0,0.0
440528523,440528133,0.0,0.0,0.0,107.75713,107.754585,0.0,0.0,0.0,0.0,0.0,0.0,0.0,0.0,12.483757,0.0,0.0,nan,0.0,0.0,0.090126626,0.0025120196,0.0025126296,0.0025092254,0.0,0.0,0.0,0.0,0.0
441038006,441037427,0.0,0.0,0.0,107.733505,107.73139,0.0,0.0,0.0,0.0,0.0,0.0,0.0,0.0,12.4841795,0.0,0.0,nan,0.0,0.0,0.090126105,0.0025120196,0.0025126296,0.0025092254,0.0,0.0,0.0,0.0,0.0
441534297,441532979,0.0,0.0,0.0,107.75742,107.75557,0.0,0.0,0.0,0.0,0.0,0.0,0.0,0.0,12.484012,0.0,0.0,nan,0.0,0.0,0.09012585,0.0025120196,0.0025126296,0.0025092254,0.0,0.0,0.0,0.0,0.0
442033924,442033539,0.0,0.0,0.0,107.762726,107.76127,0.0,0.0,0.0,0.0,0.0,0.0,0.0,0.0,12.48345,0.0,0.0,nan,0.0,0.0,0.09012557,0.0025120196,0.0025126296,0.0025092254,0.0,0.0,0.0,0.0,0.0
442534404,442533659,0.0,0.0,0.0,107.75464,107.75343,0.0,0.0,0.0,0.0,0.0,0.0,0.0,0.0,12.483925,0.0,0.0,nan,0.0,0.0,0.090125404,0.0025120196,0.0025126296,0.0025092254,0.0,0.0,0.0,0.0,0.0
443030018,443029635,0.0,0.0,0.0,107.74429,107.743324,0.0,0.0,0.0,0.0,0.0,0.0,0.0,0.0,12.483464,0.0,0.0,nan,0.0,0.0,0.09012533,0.0025120196,0.0025126296,0.0025092254,0.0,0.0,0.0,0.0,0.0
443531193,443529742,0.0,0.0,0.0,107.74224,107.74161,0.0,0.0,0.0,0.0,0.0,0.0,0.0,0.0,12.482627,0.0,0.0,nan,0.0,0.0,0.090125225,0.0025120196,0.0025126296,0.0025092254,0.0,0.0,0.0,0.0,0.0
444040086,444039076,0.0,0.0,0.0,107.70253,107.702095,0.0,0.0,0.0,0.0,0.0,0.0,0.0,0.0,12.482152,0.0,0.0,nan,0.0,0.0,0.09012528,0.0025120196,0.0025126296,0.0025092254,0.0,0.0,0.0,0.0,0.0
444535600,444535020,0.0,0.0,0.0,107.7367,107.73651,0.0,0.0,0.0,0.0,0.0,0.0,0.0,0.0,12.482568,0.0,0.0,nan,0.0,0.0,0.09012554,0.0025120196,0.0025126296,0.0025092254,0.0,0.0,0.0,0.0,0.0
445035828,445035252,0.0,0.0,0.0,107.70235,107.70229,0.0,0.0,0.0,0.0,0.0,0.0,0.0,0.0,12.481759,0.0,0.0,nan,0.0,0.0,0.09012578,0.0025120196,0.0025126296,0.0025092254,0.0,0.0,0.0,0.0,0.0
445531556,445531165,0.0,0.0,0.0,107.67447,107.674576,0.0,0.0,0.0,0.0,0.0,0.0,0.0,0.0,12.481958,0.0,0.0,nan,0.0,0.0,0.09012607,0.0025120196,0.0025126296,0.0025092254,0.0,0.0,0.0,0.0,0.0
446036206,446035840,0.0,0.0,0.0,107.69278,107.693016,0.0,0.0,0.0,0.0,0.0,0.0,0.0,0.0,12.481327,0.0,0.0,nan,0.0,0.0,0.09012635,0.0025120196,0.0025126296,0.0025092254,0.0,0.0,0.0,0.0,0.0
446536700,446536159,0.0,0.0,0.0,107.68064,107.68098,0.0,0.0,0.0,0.0,0.0,0.0,0.0,0.0,12.48035,0.0,0.0,nan,0.0,0.0,0.090126716,0.0025120196,0.0025126296,0.0025092254,0.0,0.0,0.0,0.0,0.0
447037023,447036498,0.0,0.0,0.0,107.678986,107.67944,0.0,0.0,0.0,0.0,0.0,0.0,0.0,0.0,12.480447,0.0,0.0,nan,0.0,0.0,0.09012721,0.0025120196,0.0025126296,0.0025092254,0.0,0.0,0.0,0.0,0.0
447537577,447537084,0.0,0.0,0.0,107.67128,107.671814,0.0,0.0,0.0,0.0,0.0,0.0,0.0,0.0,12.479683,0.0,0.0,nan,0.0,0.0,0.090127595,0.0025120196,0.0025126296,0.0025092254,0.0,0.0,0.0,0.0,0.0
448037644,448037128,0.0,0.0,0.0,107.64617,107.64681,0.0,0.0,0.0,0.0,0.0,0.0,0.0,0.0,12.478519,0.0,0.0,nan,0.0,0.0,0.0901281,0.0025120196,0.0025126296,0.0025092254,0.0,0.0,0.0,0.0,0.0
448534183,448533131,0.0,0.0,0.0,107.63711,107.637794,0.0,0.0,0.0,0.0,0.0,0.0,0.0,0.0,12.478367,0.0,0.0,nan,0.0,0.0,0.09012863,0.0025120196,0.0025126296,0.0025092254,0.0,0.0,0.0,0.0,0.0
449034025,449033242,0.0,0.0,0.0,107.64051,107.64124,0.0,0.0,0.0,0.0,0.0,0.0,0.0,0.0,12.4766655,0.0,0.0,nan,0.0,0.0,0.09012922,0.0025120196,0.0025126296,0.0025092254,0.0,0.0,0.0,0.0,0.0
449529680,449529228,0.0,0.0,0.0,107.633804,107.63454,0.0,0.0,0.0,0.0,0.0,0.0,0.0,0.0,12.476151,0.0,0.0,nan,0.0,0.0,0.09012965,0.0025120196,0.0025126296,0.0025092254,0.0,0.0,0.0,0.0,0.0
450030072,450029367,0.0,0.0,0.0,107.65651,107.65723,0.0,0.0,0.0,0.0,0.0,0.0,0.0,0.0,12.475946,0.0,0.0,nan,0.0,0.0,0.09013045,0.0025120196,0.0025126296,0.0025092254,0.0,0.0,0.0,0.0,0.0
450526482,450525334,0.0,0.0,0.0,107.65581,107.65647,0.0,0.0,0.0,0.0,0.0,0.0,0.0,0.0,12.474933,0.0,0.0,nan,0.0,0.0,0.09013096,0.0025120196,0.0025126296,0.0025092254,0.0,0.0,0.0,0.0,0.0
451035925,451034614,0.0,0.0,0.0,107.64589,107.6465,0.0,0.0,0.0,0.0,0.0,0.0,0.0,0.0,12.47363,0.0,0.0,nan,0.0,0.0,0.090131626,0.0025120196,0.0025126296,0.0025092254,0.0,0.0,0.0,0.0,0.0
451535503,451534827,0.0,0.0,0.0,107.646,107.646545,0.0,0.0,0.0,0.0,0.0,0.0,0.0,0.0,12.472654,0.0,0.0,nan,0.0,0.0,0.09013241,0.0025120196,0.0025126296,0.0025092254,0.0,0.0,0.0,0.0,0.0
452040173,452039655,0.0,0.0,0.0,107.60442,107.604904,0.0,0.0,0.0,0.0,0.0,0.0,0.0,0.0,12.471592,0.0,0.0,nan,0.0,0.0,0.09013301,0.0025120196,0.0025126296,0.0025092254,0.0,0.0,0.0,0.0,0.0
452531624,452530954,0.0,0.0,0.0,107.57953,107.579926,0.0,0.0,0.0,0.0,0.0,0.0,0.0,0.0,12.471006,0.0,0.0,nan,0.0,0.0,0.0901338,0.0025120196,0.0025126296,0.0025092254,0.0,0.0,0.0,0.0,0.0
453036317,453035824,0.0,0.0,0.0,107.580696,107.58104,0.0,0.0,0.0,0.0,0.0,0.0,0.0,0.0,12.470152,0.0,0.0,nan,0.0,0.0,0.090134405,0.0025120196,0.0025126296,0.0025092254,0.0,0.0,0.0,0.0,0.0
453532634,453531637,0.0,0.0,0.0,107.596214,107.59648,0.0,0.0,0.0,0.0,0.0,0.0,0.0,0.0,12.470028,0.0,0.0,nan,0.0,0.0,0.09013525,0.0025120196,0.0025126296,0.0025092254,0.0,0.0,0.0,0.0,0.0
454037089,454036657,0.0,0.0,0.0,107.56798,107.568184,0.0,0.0,0.0,0.0,0.0,0.0,0.0,0.0,12.468838,0.0,0.0,nan,0.0,0.0,0.09013579,0.0025120196,0.0025126296,0.0025092254,0.0,0.0,0.0,0.0,0.0
454537377,454536730,0.0,0.0,0.0,107.570984,107.57112,0.0,0.0,0.0,0.0,0.0,0.0,0.0,0.0,12.468072,0.0,0.0,nan,0.0,0.0,0.09013659,0.0025120196,0.0025126296,0.0025092254,0.0,0.0,0.0,0.0,0.0
455037418,455037047,0.0,0.0,0.0,107.55755,107.55759,0.0,0.0,0.0,0.0,0.0,0.0,0.0,0.0,12.467325,0.0,0.0,nan,0.0,0.0,0.09013723,0.0025120196,0.0025126296,0.0025092254,0.0,0.0,0.0,0.0,0.0
455534149,455532857,0.0,0.0,0.0,107.5857,107.58567,0.0,0.0,0.0,0.0,0.0,0.0,0.0,0.0,12.466984,0.0,0.0,nan,0.0,0.0,0.090137854,0.0025120196,0.0025126296,0.0025092254,0.0,0.0,0.0,0.0,0.0
456029353,456028843,0.0,0.0,0.0,107.592186,107.59209,0.0,0.0,0.0,0.0,0.0,0.0,0.0,0.0,12.466286,0.0,0.0,nan,0.0,0.0,0.09013843,0.0025120196,0.0025126296,0.0025092254,0.0,0.0,0.0,0.0,0.0
456529554,456529029,0.0,0.0,0.0,107.58874,107.58861,0.0,0.0,0.0,0.0,0.0,0.0,0.0,0.0,12.466377,0.0,0.0,nan,0.0,0.0,0.09013898,0.0025120196,0.0025126296,0.0025092254,0.0,0.0,0.0,0.0,0.0
457034309,457033809,0.0,0.0,0.0,107.596115,107.59597,0.0,0.0,0.0,0.0,0.0,0.0,0.0,0.0,12.46549,0.0,0.0,nan,0.0,0.0,0.09013957,0.0025120196,0.0025126296,0.0025092254,0.0,0.0,0.0,0.0,0.0
457539271,457538634,0.0,0.0,0.0,107.61775,107.61762,0.0,0.0,0.0,0.0,0.0,0.0,0.0,0.0,12.464944,0.0,0.0,nan,0.0,0.0,0.09013991,0.0025120196,0.0025126296,0.0025092254,0.0,0.0,0.0,0.0,0.0
458039593,458038995,0.0,0.0,0.0,107.63494,107.634834,0.0,0.0,0.0,0.0,0.0,0.0,0.0,0.0,12.464201,0.0,0.0,nan,0.0,0.0,0.090140395,0.0025120196,0.0025126296,0.0025092254,0.0,0.0,0.0,0.0,0.0
458535362,458534805,0.0,0.0,0.0,107.62927,107.629196,0.0,0.0,0.0,0.0,0.0,0.0,0.0,0.0,12.464537,0.0,0.0,nan,0.0,0.0,0.090140395,0.0025290304,0.0025402526,0.00352557,0.0,0.0,0.0,0.0,0.0
459031293,459030851,0.0,0.0,0.0,107.64282,107.642746,0.0,0.0,0.0,0.0,0.0,0.0,0.0,0.0,12.464873,0.0,0.0,nan,0.0,0.0,0.090140395,0.0025295666,0.0025397409,0.0035260287,0.0,0.0,0.0,0.0,0.0
459531300,459530886,0.0,0.0,0.0,107.587425,107.58733,0.0,0.0,0.0,0.0,0.0,0.0,0.0,0.0,12.463971,0.0,0.0,nan,0.0,0.0,0.090140395,0.0025303105,0.0025400731,0.0035252194,0.0,0.0,0.0,0.0,0.0
460027793,460026954,0.0,0.0,0.0,107.57294,107.58709,0.0,0.0,0.0,0.0,0.0,0.0,0.0,0.0,12.464288,0.0,0.0,nan,0.0,0.0,0.090140395,0.0025262823,0.0025319401,0.0026430963,0.0,0.0,0.0,0.0,0.0
