timestamp,timestamp_sample,control[0],control[1],control[2],control[3],control[4],control[5],control[6],control[7]
293448219,0,0.0,-0.0,1.0,0.0,0.0,0.0,0.0,0.0
293729543,0,0.0,-0.0,0.943662,0.0,0.0,0.0,0.0,0.0
293749799,0,0.0,-0.0,0.80046946,0.0,0.0,0.0,0.0,0.0
293813810,0,0.0,-0.0,0.3051643,0.0,0.0,0.0,0.0,0.0
293923765,0,0.0,-0.0,0.0,0.0,0.0,0.0,0.0,0.0
294033546,0,0.0,-0.0,0.0,0.0,0.0,0.0,0.0,0.0
294055698,0,0.0,-0.0,0.0,0.0,0.0,0.0,0.0,0.0
294249064,0,0.0,-0.0,0.0,0.0,0.0,0.0,0.0,0.0
294291074,0,0.0,-0.0,0.0,0.0,0.0,0.0,0.0,0.0
294397504,0,0.0,-0.0,0.0,0.025700934,0.0,0.0,0.0,0.0
294439654,0,0.0,-0.0,0.0,0.02686916,0.0,0.0,0.0,0.0
294629291,0,0.0,-0.0,0.0,0.02686916,0.0,0.0,0.0,0.0
294718146,0,0.0,-0.0,0.0,0.05724299,0.0,0.0,0.0,0.0
294889166,0,0.0,-0.0,0.0,0.05724299,0.0,0.0,0.0,0.0
294910090,0,0.0,-0.0,0.0,0.05724299,0.0,0.0,0.0,0.0
294994056,0,0.0,-0.0,0.0,0.05724299,0.0,0.0,0.0,0.0
295058719,0,0.0,-0.0,0.0,0.05724299,0.0,0.0,0.0,0.0
295339552,0,0.0,-0.0,0.0,0.060747664,0.0,0.0,0.0,0.0
295368403,0,0.0,-0.0,0.0,0.07126168,0.0,0.0,0.0,0.0
295402512,0,0.0,-0.0,0.0,0.08411215,0.0,0.0,0.0,0.0
295552997,0,0.0,-0.0,0.0,0.08528037,0.0,0.0,0.0,0.0
295642181,0,0.0,-0.0,0.0,0.095794395,0.0,0.0,0.0,0.0
295707796,0,0.0,-0.0,0.0,0.10280374,0.0,0.0,0.0,0.0
295837857,0,0.0,-0.0,0.0,0.10864486,0.0,0.0,0.0,0.0
296011505,0,0.0,-0.0,0.0,0.10864486,0.0,0.0,0.0,0.0
296032337,0,0.0,-0.0,0.0,0.10864486,0.0,0.0,0.0,0.0
296138978,0,0.0,0.033175357,0.0,0.10864486,0.0,0.0,0.0,0.0
296226664,0,0.0,0.056872036,0.0,0.10864486,0.0,0.0,0.0,0.0
296336534,0,0.0,0.073459715,0.0,0.10864486,0.0,0.0,0.0,0.0
296400818,0,0.0,0.07582939,0.0,0.10864486,0.0,0.0,0.0,0.0
296639241,0,0.0,-0.0,0.0,0.13200934,0.0,0.0,0.0,0.0
296726403,0,0.0,-0.0,0.0,0.13200934,0.0,0.0,0.0,0.0
296792520,0,0.0,-0.0,0.0,0.13200934,0.0,0.0,0.0,0.0
296921618,0,0.0,-0.0,0.0,0.13200934,0.0,0.0,0.0,0.0
297095880,0,0.0,-0.0,0.0,0.13200934,0.0,0.0,0.0,0.0
297139848,0,0.0,-0.0,0.0,0.13200934,0.0,0.0,0.0,0.0
297228407,0,0.0,-0.0,0.0,0.13200934,0.0,0.0,0.0,0.0
297337136,0,0.0,-0.0,0.0,0.14602804,0.0,0.0,0.0,0.0
297444935,0,0.0,-0.0,0.0,0.15186916,0.0,0.0,0.0,0.0
297575778,0,0.0,-0.0,0.0,0.16238318,0.0,0.0,0.0,0.0
297725144,0,0.0,-0.0,0.0,0.16238318,0.0,0.0,0.0,0.0
297814420,0,0.0,0.0071090045,0.0,0.16238318,0.0,0.0,0.0,0.0
297901089,0,0.0,0.0047393367,0.0,0.16238318,0.0,0.0,0.0,0.0
298036092,0,0.026004728,-0.0,0.0,0.1495327,0.0,0.0,0.0,0.0
298122843,0,0.03073286,-0.0,0.0,0.14135514,0.0,0.0,0.0,0.0
298225960,0,0.026004728,-0.0,0.0,0.14252336,0.0,0.0,0.0,0.0
298334683,0,0.03073286,0.0071090045,0.0,0.14719626,0.0,0.0,0.0,0.0
298398121,0,0.03782506,0.016587678,0.0,0.1495327,0.0,0.0,0.0,0.0
298637715,0,0.06146572,0.073459715,0.0,0.14836448,0.0,0.0,0.0,0.0
298726382,0,0.03782506,0.08530806,0.0,0.14018692,0.0,0.0,0.0,0.0
298830001,0,0.021276595,0.11137441,0.0,0.14018692,0.0,0.0,0.0,0.0
298941876,0,0.01891253,0.1421801,0.0,0.14018692,0.0,0.0,0.0,0.0
299028004,0,0.0,0.17061612,0.0,0.11915888,0.0,0.0,0.0,0.0
299136451,0,0.0,0.15402843,0.0,0.1296729,0.0,0.0,0.0,0.0
299242008,0,0.0,0.17535545,0.0,0.1296729,0.0,0.0,0.0,0.0
299329591,0,0.0023640662,0.17298578,0.0,0.13084112,0.0,0.0,0.0,0.0
299416025,0,0.07801419,0.16587678,0.0,0.13901868,0.0,0.0,0.0,0.0
299482133,0,0.11111111,0.18957347,0.0,0.13901868,0.0,0.0,0.0,0.0
299631673,0,0.1252955,0.1943128,0.0,0.14836448,0.0,0.0,0.0,0.0
299738533,0,0.1252955,0.19194312,0.0,0.1542056,0.0,0.0,0.0,0.0
299827209,0,0.07801419,0.17061612,0.0,0.1542056,0.0,0.0,0.0,0.0
299935339,0,0.03073286,0.15876777,0.0,0.15771028,0.0,0.0,0.0,0.0
300042058,0,0.0,0.13270143,0.0,0.15186916,0.0,0.0,0.0,0.0
300108214,0,0.0,0.12796208,0.0,0.14602804,0.0,0.0,0.0,0.0
300237769,0,0.0023640662,0.1421801,0.0,0.14719626,0.0,0.0,0.0,0.0
300326443,0,0.040189125,0.16587678,0.0,0.1495327,0.0,0.0,0.0,0.0
300434542,0,0.03073286,0.14691943,0.0,0.15537383,0.0,0.0,0.0,0.0
300629998,0,0.04255319,0.1563981,0.0,0.15186916,0.0,0.0,0.0,0.0
300738564,0,0.021276595,0.1421801,0.0,0.1542056,0.0,0.0,0.0,0.0
300805780,0,0.0,0.13033175,0.0,0.15537383,0.0,0.0,0.0,0.0
300935430,0,0.014184397,0.13033175,0.0,0.14836448,0.0,0.0,0.0,0.0
301023975,0,0.0047281324,0.12796208,0.0,0.1448598,0.0,0.0,0.0,0.0
301129429,0,0.03309693,0.12796208,0.0,0.14602804,0.0,0.0,0.0,0.0
301236939,0,0.026004728,0.10663507,0.0,0.14836448,0.0,0.0,0.0,0.0
301324585,0,0.026004728,0.028436018,0.0,0.14836448,0.0,0.0,0.0,0.0
301433236,0,0.06146572,0.009478673,0.0,0.14836448,0.0,0.0,0.0,0.0
301539299,0,0.04255319,-0.0,0.0,0.14836448,0.0,0.0,0.0,0.0
301625863,0,0.04491726,-0.0,0.0,0.14836448,0.0,0.0,0.0,0.0
301737327,0,0.03782506,-0.0,0.0,0.14836448,0.0,0.0,0.0,0.0
301843847,0,0.0,-0.0,0.0,0.14836448,0.0,0.0,0.0,0.0
301930978,0,0.0,-0.0,0.0,0.14836448,0.0,0.0,0.0,0.0
302016900,0,0.0,-0.0,0.0,0.14836448,0.0,0.0,0.0,0.0
302128189,0,-0.03773585,-0.0,0.0,0.14836448,0.0,0.0,0.0,0.0
302232668,0,-0.08726415,-0.0,0.0,0.15070094,0.0,0.0,0.0,0.0
302339850,0,-0.0754717,-0.0,0.0,0.15070094,0.0,0.0,0.0,0.0
302406244,0,-0.06603774,-0.0,0.0,0.15070094,0.0,0.0,0.0,0.0
302623309,0,0.0,-0.0,0.0,0.15070094,0.0,0.0,0.0,0.0
302727821,0,0.0,-0.0,0.0,0.14369158,0.0,0.0,0.0,0.0
302838055,0,0.0,-0.0,0.0,0.14135514,0.0,0.0,0.0,0.0
302881300,0,0.0,-0.0,0.0,0.1448598,0.0,0.0,0.0,0.0
302989079,0,0.0,-0.0,0.0,0.1448598,0.0,0.0,0.0,0.0
303141853,0,-0.028301887,-0.0,0.0,0.15070094,0.0,0.0,0.0,0.0
303229175,0,-0.023584906,-0.0,0.0,0.1635514,0.0,0.0,0.0,0.0
303332551,0,0.0,0.016587678,0.0,0.1635514,0.0,0.0,0.0,0.0
303398426,0,0.0,0.016587678,0.0,0.1635514,0.0,0.0,0.0,0.0
303528183,0,0.0,0.028436018,0.0,0.1635514,0.0,0.0,0.0,0.0
303635620,0,0.0,0.0521327,0.0,0.1542056,0.0,0.0,0.0,0.0
303723010,0,0.0,0.056872036,0.0,0.14836448,0.0,0.0,0.0,0.0
303832852,0,0.0,0.056872036,0.0,0.14719626,0.0,0.0,0.0,0.0
303940434,0,0.0,0.07109005,0.0,0.14719626,0.0,0.0,0.0,0.0
304027573,0,0.0,0.101895735,0.0,0.14719626,0.0,0.0,0.0,0.0
304112992,0,0.0,0.09478673,0.0,0.14252336,0.0,0.0,0.0,0.0
304225661,0,0.0,0.09241706,0.0,0.14369158,0.0,0.0,0.0,0.0
304397000,0,0.0,0.09241706,0.0,0.14252336,0.0,0.0,0.0,0.0
304439996,0,0.0,0.087677725,0.0,0.14369158,0.0,0.0,0.0,0.0
304635572,0,0.0,0.08056872,0.0093896715,0.15186916,0.0,0.0,0.0,0.0
304740423,0,0.0,0.08056872,0.030516433,0.15771028,0.0,0.0,0.0,0.0
304828277,0,0.0,0.073459715,0.044600938,0.16004673,0.0,0.0,0.0,0.0
304936337,0,0.0,0.06398104,0.09859155,0.16238318,0.0,0.0,0.0,0.0
305000180,0,0.0,0.06398104,0.103286386,0.16238318,0.0,0.0,0.0,0.0
305130208,0,0.0,0.07109005,0.09154929,0.16238318,0.0,0.0,0.0,0.0
305240872,0,0.0,0.06398104,0.065727696,0.1542056,0.0,0.0,0.0,0.0
305329137,0,0.0,0.07109005,0.032863848,0.14135514,0.0,0.0,0.0,0.0
305434444,0,0.0,0.07109005,0.0,0.13901868,0.0,0.0,0.0,0.0
305524516,0,0.0,0.06872038,0.0,0.13901868,0.0,0.0,0.0,0.0
305632183,0,0.0,0.054502368,0.0,0.1542056,0.0,0.0,0.0,0.0
305695312,0,0.0,0.0521327,0.0,0.15537383,0.0,0.0,0.0,0.0
305824233,0,0.0,0.056872036,0.0,0.1635514,0.0,0.0,0.0,0.0
305933760,0,0.0,0.0521327,0.0,0.17523365,0.0,0.0,0.0,0.0
306043127,0,0.0,0.047393367,0.0,0.1682243,0.0,0.0,0.0,0.0
306128496,0,0.0,0.049763035,0.0,0.1495327,0.0,0.0,0.0,0.0
306238437,0,0.0,0.061611373,0.0,0.1635514,0.0,0.0,0.0,0.0
306303348,0,0.0,0.073459715,0.0,0.1635514,0.0,0.0,0.0,0.0
306347730,0,0.0,0.07582939,0.0,0.1635514,0.0,0.0,0.0,0.0
306636275,0,0.0,0.073459715,0.0,0.1542056,0.0,0.0,0.0,0.0
306678852,0,0.0,0.073459715,0.0,0.15771028,0.0,0.0,0.0,0.0
306833881,0,0.0,0.07109005,0.0046948357,0.15771028,0.0,0.0,0.0,0.0
306938689,0,0.0,0.059241705,0.02112676,0.15654206,0.0,0.0,0.0,0.0
307027555,0,-0.007075472,0.056872036,0.044600938,0.15537383,0.0,0.0,0.0,0.0
307136820,0,0.0,0.07109005,0.056338027,0.13200934,0.0,0.0,0.0,0.0
307201982,0,0.0,0.07582939,0.056338027,0.13200934,0.0,0.0,0.0,0.0
307335079,0,0.0,0.07819905,0.05399061,0.13317756,0.0,0.0,0.0,0.0
307443011,0,0.0,0.08293839,0.037558686,0.15186916,0.0,0.0,0.0,0.0
307529240,0,0.0,0.11374407,0.037558686,0.15303738,0.0,0.0,0.0,0.0
307639124,0,0.0,0.11848341,0.02112676,0.1635514,0.0,0.0,0.0,0.0
307725871,0,0.0,0.11848341,0.01173709,0.17406543,0.0,0.0,0.0,0.0
307831392,0,0.0,0.1492891,0.0093896715,0.18341121,0.0,0.0,0.0,0.0
307939960,0,0.0,0.1563981,0.0023474179,0.18107477,0.0,0.0,0.0,0.0
308003966,0,0.0,0.1635071,0.0,0.16705607,0.0,0.0,0.0,0.0
308129737,0,0.0,0.18246445,0.0,0.15771028,0.0,0.0,0.0,0.0
308215659,0,0.0,0.18483412,0.0,0.14602804,0.0,0.0,0.0,0.0
308325819,0,0.0,0.18246445,0.0,0.13668224,0.0,0.0,0.0,0.0
308434852,0,0.0,0.17772512,0.0,0.13551402,0.0,0.0,0.0,0.0
308629620,0,0.0,0.18957347,0.0,0.14602804,0.0,0.0,0.0,0.0
308738899,0,0.0,0.19194312,0.0,0.1495327,0.0,0.0,0.0,0.0
308827454,0,0.0,0.18246445,0.0,0.1542056,0.0,0.0,0.0,0.0
308935819,0,0.0,0.18483412,0.0,0.1542056,0.0,0.0,0.0,0.0
309043996,0,0.0,0.17772512,0.0,0.14369158,0.0,0.0,0.0,0.0
309129540,0,0.0,0.1800948,0.0,0.16121495,0.0,0.0,0.0,0.0
309238143,0,0.0,0.19194312,0.0,0.1635514,0.0,0.0,0.0,0.0
309322795,0,0.0,0.18957347,0.0,0.1635514,0.0,0.0,0.0,0.0
309427949,0,0.0,0.17061612,0.0,0.1635514,0.0,0.0,0.0,0.0
309513804,0,0.0,0.1800948,0.0,0.1635514,0.0,0.0,0.0,0.0
309631167,0,0.0,0.18957347,0.0,0.1635514,0.0,0.0,0.0,0.0
309733618,0,0.0,0.18483412,0.0,0.1635514,0.0,0.0,0.0,0.0
309841109,0,0.0,0.15402843,0.0,0.15070094,0.0,0.0,0.0,0.0
309928009,0,0.0,0.15165877,0.0,0.15070094,0.0,0.0,0.0,0.0
310013118,0,0.0,0.15402843,0.028169014,0.15070094,0.0,0.0,0.0,0.0
310124236,0,0.0,0.1563981,0.028169014,0.15070094,0.0,0.0,0.0,0.0
310231858,0,0.0,0.1421801,0.02112676,0.15070094,0.0,0.0,0.0,0.0
310341928,0,0.0,0.13033175,0.0093896715,0.14135514,0.0,0.0,0.0,0.0
310427612,0,0.0,0.12796208,0.0093896715,0.1296729,0.0,0.0,0.0,0.0
310621815,0,0.0,0.14454976,0.014084507,0.14836448,0.0,0.0,0.0,0.0
310732200,0,0.0,0.14691943,0.02112676,0.14836448,0.0,0.0,0.0,0.0
310838172,0,0.0,0.15165877,0.058685444,0.15771028,0.0,0.0,0.0,0.0
310924953,0,0.0,0.15165877,0.056338027,0.1588785,0.0,0.0,0.0,0.0
312028027,0,0.0,0.13981043,0.0,0.12850468,0.0,0.0,0.0,0.0
312131603,0,0.0,0.15165877,0.0,0.14836448,0.0,0.0,0.0,0.0
312241323,0,0.0023640662,0.16587678,0.0046948357,0.15186916,0.0,0.0,0.0,0.0
312324999,0,0.014184397,0.15165877,0.01173709,0.15303738,0.0,0.0,0.0,0.0
312435974,0,0.059101656,0.15165877,0.0023474179,0.16238318,0.0,0.0,0.0,0.0
312634557,0,0.047281325,0.14691943,0.014084507,0.14602804,0.0,0.0,0.0,0.0
312722102,0,0.04255319,0.15165877,0.01173709,0.16705607,0.0,0.0,0.0,0.0
312833497,0,0.03309693,0.1421801,0.016431924,0.16705607,0.0,0.0,0.0,0.0
312943013,0,0.016548464,0.123222746,0.028169014,0.16238318,0.0,0.0,0.0,0.0
313009245,0,0.03073286,0.13744076,0.030516433,0.16238318,0.0,0.0,0.0,0.0
313139155,0,0.016548464,0.13981043,0.02347418,0.16471963,0.0,0.0,0.0,0.0
313224924,0,0.0,0.116113745,0.018779343,0.1542056,0.0,0.0,0.0,0.0
313334804,0,0.0047281324,0.13033175,0.0093896715,0.14252336,0.0,0.0,0.0,0.0
313442453,0,0.0023640662,0.13507108,0.0093896715,0.1448598,0.0,0.0,0.0,0.0
313638132,0,0.0,0.09952607,0.0,0.14719626,0.0,0.0,0.0,0.0
313726799,0,0.04964539,0.09952607,0.0,0.15537383,0.0,0.0,0.0,0.0
313832142,0,0.03309693,0.11374407,0.0,0.17289719,0.0,0.0,0.0,0.0
313941701,0,0.021276595,0.101895735,0.0,0.17757009,0.0,0.0,0.0,0.0
314029060,0,0.0,0.08056872,0.0,0.1682243,0.0,0.0,0.0,0.0
314137677,0,0.0,0.09478673,0.0,0.15771028,0.0,0.0,0.0,0.0
314223610,0,0.0,0.09952607,0.0,0.16705607,0.0,0.0,0.0,0.0
314331522,0,0.0,0.0971564,0.0,0.16705607,0.0,0.0,0.0,0.0
314438256,0,0.0,0.10663507,0.0,0.1542056,0.0,0.0,0.0,0.0
314634815,0,0.0,0.09478673,0.0,0.1542056,0.0,0.0,0.0,0.0
314730563,0,0.0,0.11137441,0.0,0.16588785,0.0,0.0,0.0,0.0
314830514,0,0.0,0.11374407,0.0,0.15771028,0.0,0.0,0.0,0.0
314939235,0,0.0,0.109004736,0.0,0.15654206,0.0,0.0,0.0,0.0
315025774,0,0.0,0.101895735,0.0,0.15537383,0.0,0.0,0.0,0.0
315130045,0,0.0,0.116113745,0.0,0.14719626,0.0,0.0,0.0,0.0
315239970,0,0.0,0.109004736,0.0,0.13901868,0.0,0.0,0.0,0.0
315327140,0,-0.014150944,0.09478673,0.0,0.1495327,0.0,0.0,0.0,0.0
315436888,0,-0.056603774,0.07582939,0.0,0.1542056,0.0,0.0,0.0,0.0
315525266,0,-0.08018868,0.07582939,0.0,0.16121495,0.0,0.0,0.0,0.0
315635339,0,-0.08490566,0.08056872,0.0,0.16121495,0.0,0.0,0.0,0.0
315719789,0,-0.068396226,0.08056872,0.0,0.12733644,0.0,0.0,0.0,0.0
315830205,0,-0.12971698,0.0521327,0.0,0.13084112,0.0,0.0,0.0,0.0
315939549,0,-0.094339624,0.059241705,0.0,0.14719626,0.0,0.0,0.0,0.0
316135856,0,0.0,0.1421801,0.0,0.1542056,0.0,0.0,0.0,0.0
316242855,0,0.0,0.15402843,0.0,0.15654206,0.0,0.0,0.0,0.0
316328945,0,0.0,0.15402843,0.0,0.15654206,0.0,0.0,0.0,0.0
316439840,0,0.0,0.13033175,0.0,0.17990655,0.0,0.0,0.0,0.0
316523202,0,0.0,0.14454976,0.0,0.17873831,0.0,0.0,0.0,0.0
316633082,0,0.0,0.15402843,0.0,0.17873831,0.0,0.0,0.0,0.0
316721660,0,0.0,0.13981043,0.0,0.17873831,0.0,0.0,0.0,0.0
316828271,0,0.0023640662,0.12559241,0.0,0.15303738,0.0,0.0,0.0,0.0
316936669,0,0.0023640662,0.1042654,0.0,0.13668224,0.0,0.0,0.0,0.0
317043566,0,0.009456265,0.101895735,0.0,0.13668224,0.0,0.0,0.0,0.0
317132292,0,0.0,0.123222746,0.0,0.1495327,0.0,0.0,0.0,0.0
317238192,0,0.0,0.1042654,0.0,0.1343458,0.0,0.0,0.0,0.0
317324292,0,0.03782506,0.087677725,0.0,0.12850468,0.0,0.0,0.0,0.0
317431230,0,0.04964539,0.10663507,0.0,0.13901868,0.0,0.0,0.0,0.0
317629322,0,0.09219858,0.17061612,0.0,0.16004673,0.0,0.0,0.0,0.0
317737601,0,0.06855792,0.16113745,0.0,0.1588785,0.0,0.0,0.0,0.0
317824216,0,0.03782506,0.13744076,0.0,0.15186916,0.0,0.0,0.0,0.0
317932746,0,0.04491726,0.123222746,0.0,0.15186916,0.0,0.0,0.0,0.0
318038281,0,0.03309693,0.13033175,0.0,0.17056075,0.0,0.0,0.0,0.0
318126226,0,0.06619386,0.13744076,0.0,0.17056075,0.0,0.0,0.0,0.0
318231760,0,0.04964539,0.14691943,0.0,0.16588785,0.0,0.0,0.0,0.0
318339980,0,0.04491726,0.13981043,0.0,0.15654206,0.0,0.0,0.0,0.0
318428096,0,0.026004728,0.13981043,0.0,0.14018692,0.0,0.0,0.0,0.0
318536513,0,0.03309693,0.15402843,0.0,0.14719626,0.0,0.0,0.0,0.0
318624070,0,0.023640662,0.15876777,0.0,0.14602804,0.0,0.0,0.0,0.0
318731351,0,0.021276595,0.14691943,0.0,0.12850468,0.0,0.0,0.0,0.0
318839332,0,0.014184397,0.1563981,0.0,0.1296729,0.0,0.0,0.0,0.0
318927701,0,0.0,0.17061612,0.0,0.13084112,0.0,0.0,0.0,0.0
319124574,0,0.0070921984,0.15876777,0.0,0.15186916,0.0,0.0,0.0,0.0
319230511,0,0.016548464,0.17535545,0.0,0.15070094,0.0,0.0,0.0,0.0
319336496,0,0.0023640662,0.17061612,0.0,0.15070094,0.0,0.0,0.0,0.0
319424472,0,0.0023640662,0.15165877,0.0,0.15070094,0.0,0.0,0.0,0.0
319531585,0,0.0,0.16113745,0.0,0.15186916,0.0,0.0,0.0,0.0
319621673,0,0.0,0.17061612,0.0,0.15070094,0.0,0.0,0.0,0.0
319725276,0,0.0,0.1635071,0.0,0.15070094,0.0,0.0,0.0,0.0
319815613,0,0.0,0.17535545,0.0,0.15771028,0.0,0.0,0.0,0.0
319938989,0,0.0,0.1635071,0.0,0.15771028,0.0,0.0,0.0,0.0
320043337,0,0.0,0.15402843,0.0,0.15771028,0.0,0.0,0.0,0.0
320128782,0,0.0,0.14454976,0.0,0.17289719,0.0,0.0,0.0,0.0
320234660,0,0.0070921984,0.17298578,0.0,0.15537383,0.0,0.0,0.0,0.0
320322930,0,0.0,0.16113745,0.0,0.15537383,0.0,0.0,0.0,0.0
320430020,0,0.0,0.16587678,-0.004750594,0.13901868,0.0,0.0,0.0,0.0
320642785,0,0.0,0.15876777,-0.023752969,0.1343458,0.0,0.0,0.0,0.0
320728454,0,0.0,0.16113745,-0.038004752,0.1343458,0.0,0.0,0.0,0.0
320839768,0,0.0,0.15876777,-0.052256532,0.1495327,0.0,0.0,0.0,0.0
320926219,0,0.0,0.15876777,-0.04513064,0.1542056,0.0,0.0,0.0,0.0
321034130,0,0.0,0.14454976,-0.04513064,0.1542056,0.0,0.0,0.0,0.0
321141811,0,0.0,0.13270143,-0.042755343,0.16939253,0.0,0.0,0.0,0.0
321232216,0,0.0,0.1421801,-0.042755343,0.17873831,0.0,0.0,0.0,0.0
321338978,0,0.0,0.1421801,-0.038004752,0.16705607,0.0,0.0,0.0,0.0
321425742,0,0.0,0.1421801,-0.033254158,0.15771028,0.0,0.0,0.0,0.0
321637692,0,0.0,0.14691943,-0.026128266,0.15186916,0.0,0.0,0.0,0.0
321725371,0,0.0,0.116113745,0.0,0.1542056,0.0,0.0,0.0,0.0
321841780,0,0.0,0.11848341,0.0,0.15537383,0.0,0.0,0.0,0.0
321940807,0,0.0,0.109004736,0.0,0.14602804,0.0,0.0,0.0,0.0
322029269,0,0.0,0.11848341,0.0,0.13551402,0.0,0.0,0.0,0.0
322137680,0,0.0,0.09478673,0.0,0.13551402,0.0,0.0,0.0,0.0
322204674,0,0.0,0.0971564,0.0,0.14836448,0.0,0.0,0.0,0.0
322332427,0,0.0,0.11137441,0.0,0.1495327,0.0,0.0,0.0,0.0
322440658,0,0.0,0.11374407,0.0,0.1495327,0.0,0.0,0.0,0.0
322635288,0,0.0,0.13981043,0.0,0.16121495,0.0,0.0,0.0,0.0
322741978,0,0.0,0.13981043,0.0,0.15186916,0.0,0.0,0.0,0.0
322831302,0,0.0,0.123222746,0.0,0.1495327,0.0,0.0,0.0,0.0
322938241,0,0.0,0.116113745,-0.009501188,0.14369158,0.0,0.0,0.0,0.0
323003613,0,0.0,0.12796208,-0.03087886,0.125,0.0,0.0,0.0,0.0
323133925,0,0.0,0.13507108,-0.009501188,0.12616822,0.0,0.0,0.0,0.0
323238936,0,0.0,0.13033175,-0.004750594,0.15303738,0.0,0.0,0.0,0.0
323327549,0,0.0,0.15165877,-0.03087886,0.1542056,0.0,0.0,0.0,0.0
323434387,0,0.0,0.14454976,-0.019002376,0.15303738,0.0,0.0,0.0,0.0
323628664,0,0.0,0.13270143,0.0,0.16238318,0.0,0.0,0.0,0.0
323734384,0,0.0,0.12796208,0.0,0.1542056,0.0,0.0,0.0,0.0
323823134,0,0.0,0.11848341,0.0,0.1542056,0.0,0.0,0.0,0.0
323930652,0,0.0,0.11848341,0.0,0.15771028,0.0,0.0,0.0,0.0
324039440,0,0.0,0.11848341,0.0,0.16939253,0.0,0.0,0.0,0.0
324125501,0,0.0,0.101895735,0.0,0.16705607,0.0,0.0,0.0,0.0
324234182,0,0.0,0.0971564,0.0,0.15186916,0.0,0.0,0.0,0.0
324322778,0,0.014184397,0.10663507,0.0,0.15186916,0.0,0.0,0.0,0.0
324431214,0,0.035460994,0.123222746,0.0,0.1542056,0.0,0.0,0.0,0.0
324626486,0,0.009456265,0.116113745,0.0,0.14135514,0.0,0.0,0.0,0.0
324733073,0,0.009456265,0.11137441,0.0,0.13901868,0.0,0.0,0.0,0.0
324821758,0,0.0023640662,0.116113745,0.0,0.13901868,0.0,0.0,0.0,0.0
324930359,0,0.040189125,0.13744076,0.0,0.14252336,0.0,0.0,0.0,0.0
325038919,0,0.03073286,0.13981043,0.0,0.1495327,0.0,0.0,0.0,0.0
325126143,0,0.021276595,0.123222746,0.0,0.1495327,0.0,0.0,0.0,0.0
325235253,0,0.0070921984,0.1042654,0.0,0.1495327,0.0,0.0,0.0,0.0
325323251,0,0.014184397,0.11374407,0.0,0.15771028,0.0,0.0,0.0,0.0
325432224,0,0.06146572,0.12796208,0.0,0.15771028,0.0,0.0,0.0,0.0
325537045,0,0.04255319,0.13270143,0.0,0.15771028,0.0,0.0,0.0,0.0
325621814,0,0.035460994,0.12796208,0.0,0.15771028,0.0,0.0,0.0,0.0
325731096,0,0.014184397,0.123222746,0.0,0.15771028,0.0,0.0,0.0,0.0
325836934,0,0.0,0.11137441,0.0,0.15070094,0.0,0.0,0.0,0.0
325941306,0,0.0,0.12796208,0.0,0.1495327,0.0,0.0,0.0,0.0
326006201,0,0.0,0.13033175,0.0,0.1495327,0.0,0.0,0.0,0.0
326115552,0,0.0023640662,0.13507108,0.0,0.14602804,0.0,0.0,0.0,0.0
326224594,0,0.0,0.11848341,0.0,0.1542056,0.0,0.0,0.0,0.0
326333761,0,0.0,0.12796208,0.0,0.15070094,0.0,0.0,0.0,0.0
326441771,0,0.04491726,0.16587678,0.0,0.12383178,0.0,0.0,0.0,0.0
326635448,0,0.0070921984,0.13744076,0.0,0.1495327,0.0,0.0,0.0,0.0
326743450,0,0.0023640662,0.1492891,0.0,0.1495327,0.0,0.0,0.0,0.0
326830591,0,0.011820331,0.14691943,0.0,0.14836448,0.0,0.0,0.0,0.0
326939414,0,0.03073286,0.13033175,0.0,0.15537383,0.0,0.0,0.0,0.0
327028140,0,0.021276595,0.13744076,0.0,0.16705607,0.0,0.0,0.0,0.0
327134714,0,0.021276595,0.13270143,0.0,0.16588785,0.0,0.0,0.0,0.0
327243508,0,0.011820331,0.11137441,0.0,0.16121495,0.0,0.0,0.0,0.0
327330089,0,0.01891253,0.12796208,0.0,0.16121495,0.0,0.0,0.0,0.0
327435455,0,0.06855792,0.15402843,0.0,0.15186916,0.0,0.0,0.0,0.0
327631576,0,0.05437352,0.14691943,0.0,0.15186916,0.0,0.0,0.0,0.0
327739079,0,0.05437352,0.1635071,0.0,0.14719626,0.0,0.0,0.0,0.0
327823627,0,0.06146572,0.16587678,0.0,0.1448598,0.0,0.0,0.0,0.0
327936528,0,0.07565012,0.15402843,0.0,0.14719626,0.0,0.0,0.0,0.0
328038321,0,0.04964539,0.15402843,0.0,0.15186916,0.0,0.0,0.0,0.0
328127779,0,0.04255319,0.15165877,0.0,0.15070094,0.0,0.0,0.0,0.0
328230848,0,0.03309693,0.11848341,0.0,0.15186916,0.0,0.0,0.0,0.0
328339193,0,0.03309693,0.13270143,0.0,0.16121495,0.0,0.0,0.0,0.0
328426153,0,0.06146572,0.13981043,0.0,0.15303738,0.0,0.0,0.0,0.0
328643688,0,0.0,0.11848341,0.0,0.15186916,0.0,0.0,0.0,0.0
328708725,0,0.0,0.13270143,0.0,0.15537383,0.0,0.0,0.0,0.0
328837290,0,-0.04009434,0.11374407,0.0,0.15303738,0.0,0.0,0.0,0.0
328925982,0,-0.051886793,0.101895735,0.0,0.15303738,0.0,0.0,0.0,0.0
329036551,0,-0.14150943,0.04265403,0.0,0.15303738,0.0,0.0,0.0,0.0
329141927,0,-0.13443395,0.04265403,0.0,0.15186916,0.0,0.0,0.0,0.0
329228116,0,-0.108490564,0.047393367,0.0,0.12266355,0.0,0.0,0.0,0.0
329340839,0,-0.03773585,0.07109005,0.0,0.12383178,0.0,0.0,0.0,0.0
329426505,0,0.0,0.0900474,0.0,0.13200934,0.0,0.0,0.0,0.0
329637894,0,0.0,0.12085308,0.0,0.1542056,0.0,0.0,0.0,0.0
329722374,0,0.0,0.116113745,0.0,0.15186916,0.0,0.0,0.0,0.0
329829813,0,0.0,0.10663507,0.0,0.17873831,0.0,0.0,0.0,0.0
329935844,0,0.0,0.11374407,0.0,0.18107477,0.0,0.0,0.0,0.0
330025582,0,0.0,0.11848341,0.0,0.17757009,0.0,0.0,0.0,0.0
330135078,0,0.0,0.101895735,0.0,0.17757009,0.0,0.0,0.0,0.0
330240418,0,0.03073286,0.09478673,0.0,0.17172897,0.0,0.0,0.0,0.0
330326572,0,0.059101656,0.116113745,0.0,0.14836448,0.0,0.0,0.0,0.0
330436274,0,0.04964539,0.11374407,0.0,0.15537383,0.0,0.0,0.0,0.0
330635349,0,0.0,0.123222746,0.0,0.14252336,0.0,0.0,0.0,0.0
330742963,0,0.0,0.116113745,0.0,0.12266355,0.0,0.0,0.0,0.0
330828854,0,0.0,0.109004736,0.0,0.125,0.0,0.0,0.0,0.0
330935636,0,0.0,0.12559241,0.0,0.125,0.0,0.0,0.0,0.0
331023016,0,0.0,0.12796208,0.0,0.12733644,0.0,0.0,0.0,0.0
331132211,0,0.0,0.11848341,0.0,0.14602804,0.0,0.0,0.0,0.0
331220363,0,0.0,0.11137441,0.0,0.14602804,0.0,0.0,0.0,0.0
331328883,0,0.0,0.12085308,0.0,0.16238318,0.0,0.0,0.0,0.0
331433725,0,0.009456265,0.12559241,0.0,0.16004673,0.0,0.0,0.0,0.0
331626462,0,0.0,0.1042654,0.0,0.15186916,0.0,0.0,0.0,0.0
331737802,0,0.0,0.11137441,0.0,0.14602804,0.0,0.0,0.0,0.0
331824623,0,0.0,0.101895735,0.0,0.15537383,0.0,0.0,0.0,0.0
331936554,0,0.0,0.109004736,0.0,0.16238318,0.0,0.0,0.0,0.0
332040604,0,0.0,0.11137441,0.0,0.17172897,0.0,0.0,0.0,0.0
332127960,0,0.0,0.116113745,0.0,0.17172897,0.0,0.0,0.0,0.0
332238109,0,0.026004728,0.123222746,0.0,0.16588785,0.0,0.0,0.0,0.0
332325504,0,0.028368793,0.13981043,0.0,0.15070094,0.0,0.0,0.0,0.0
332435879,0,0.026004728,0.14454976,0.0,0.1495327,0.0,0.0,0.0,0.0
332629914,0,0.0023640662,0.13507108,0.0,0.15537383,0.0,0.0,0.0,0.0
332735163,0,0.0023640662,0.13507108,0.0,0.13668224,0.0,0.0,0.0,0.0
332841742,0,0.0,0.12796208,0.0,0.1542056,0.0,0.0,0.0,0.0
332930708,0,0.0,0.13270143,0.0,0.1542056,0.0,0.0,0.0,0.0
333036675,0,0.0,0.11848341,0.0,0.15771028,0.0,0.0,0.0,0.0
333144806,0,0.0,0.13507108,0.0,0.17757009,0.0,0.0,0.0,0.0
333230211,0,0.021276595,0.13507108,0.0,0.15771028,0.0,0.0,0.0,0.0
333337311,0,0.014184397,0.12796208,0.0,0.1542056,0.0,0.0,0.0,0.0
333401001,0,0.01891253,0.12796208,0.0,0.15186916,0.0,0.0,0.0,0.0
333640371,0,0.0,0.12085308,0.0,0.14369158,0.0,0.0,0.0,0.0
333726710,0,0.0,0.12559241,-0.023752969,0.14369158,0.0,0.0,0.0,0.0
333836574,0,0.0,0.116113745,-0.026128266,0.15186916,0.0,0.0,0.0,0.0
333923613,0,0.0,0.11848341,-0.066508316,0.14836448,0.0,0.0,0.0,0.0
334039948,0,0.0,0.116113745,-0.052256532,0.14836448,0.0,0.0,0.0,0.0
334119291,0,0.0,0.101895735,-0.04513064,0.14836448,0.0,0.0,0.0,0.0
334227569,0,0.0,0.09241706,-0.05463183,0.1448598,0.0,0.0,0.0,0.0
334337852,0,0.0,0.09952607,-0.049881235,0.16705607,0.0,0.0,0.0,0.0
334425312,0,0.0,0.101895735,-0.033254158,0.16471963,0.0,0.0,0.0,0.0
334638364,0,0.08510638,0.0900474,-0.014251782,0.1542056,0.0,0.0,0.0,0.0
334725427,0,0.05437352,0.08293839,-0.007125891,0.14602804,0.0,0.0,0.0,0.0
334829059,0,0.026004728,0.08293839,0.0,0.14252336,0.0,0.0,0.0,0.0
334937881,0,0.03782506,0.09478673,0.0,0.1448598,0.0,0.0,0.0,0.0
335026517,0,0.03782506,0.09952607,0.0,0.12616822,0.0,0.0,0.0,0.0
335133505,0,0.047281325,0.09952607,0.0,0.13668224,0.0,0.0,0.0,0.0
335241783,0,0.10401891,0.101895735,0.0,0.1495327,0.0,0.0,0.0,0.0
335327877,0,0.04255319,0.09241706,0.0,0.16004673,0.0,0.0,0.0,0.0
335433300,0,0.035460994,0.08293839,0.0,0.17873831,0.0,0.0,0.0,0.0
335629091,0,0.0,0.047393367,0.0,0.18925233,0.0,0.0,0.0,0.0
335737829,0,0.0,0.07109005,0.0,0.16004673,0.0,0.0,0.0,0.0
335826490,0,0.0,0.07582939,0.02112676,0.15654206,0.0,0.0,0.0,0.0
335933686,0,0.0,0.08293839,0.0,0.14602804,0.0,0.0,0.0,0.0
336021675,0,0.0,0.0971564,0.0,0.12149533,0.0,0.0,0.0,0.0
336131173,0,0.0,0.09478673,0.0,0.12266355,0.0,0.0,0.0,0.0
336238341,0,0.03073286,0.087677725,0.0,0.12266355,0.0,0.0,0.0,0.0
336327186,0,0.026004728,0.11137441,0.0,0.14836448,0.0,0.0,0.0,0.0
336431115,0,0.05437352,0.13744076,0.0,0.13317756,0.0,0.0,0.0,0.0
336540044,0,0.021276595,0.11848341,0.0,0.14135514,0.0,0.0,0.0,0.0
336626508,0,0.01891253,0.11848341,0.0,0.13551402,0.0,0.0,0.0,0.0
336732655,0,0.0,0.11137441,0.0,0.1495327,0.0,0.0,0.0,0.0
336840975,0,0.0,0.11137441,0.0,0.14369158,0.0,0.0,0.0,0.0
336926449,0,0.0,0.116113745,0.0,0.14369158,0.0,0.0,0.0,0.0
337036226,0,0.0,0.11848341,0.0,0.1542056,0.0,0.0,0.0,0.0
337125435,0,0.0,0.123222746,0.0,0.16238318,0.0,0.0,0.0,0.0
337230722,0,0.0,0.116113745,0.0,0.16471963,0.0,0.0,0.0,0.0
337339882,0,0.0,0.13744076,0.0,0.18457943,0.0,0.0,0.0,0.0
337425683,0,0.0070921984,0.13981043,0.0,0.18457943,0.0,0.0,0.0,0.0
337625157,0,0.0,0.11848341,0.0,0.17523365,0.0,0.0,0.0,0.0
337733768,0,0.0047281324,0.12796208,0.0,0.17523365,0.0,0.0,0.0,0.0
337841128,0,0.01891253,0.11848341,0.0,0.16004673,0.0,0.0,0.0,0.0
337905092,0,0.0070921984,0.11848341,0.0,0.15771028,0.0,0.0,0.0,0.0
338035819,0,0.009456265,0.116113745,0.0,0.15303738,0.0,0.0,0.0,0.0
338124453,0,0.03309693,0.1042654,0.0,0.14135514,0.0,0.0,0.0,0.0
338212433,0,0.023640662,0.07109005,0.0,0.14135514,0.0,0.0,0.0,0.0
338342495,0,0.03782506,0.073459715,0.0,0.1495327,0.0,0.0,0.0,0.0
338428367,0,0.026004728,0.101895735,0.0,0.15537383,0.0,0.0,0.0,0.0
338603854,0,0.0,0.1042654,0.0,0.15654206,0.0,0.0,0.0,0.0
338733782,0,0.0,0.09952607,0.0,0.16471963,0.0,0.0,0.0,0.0
338841972,0,0.0,0.09241706,0.0,0.14252336,0.0,0.0,0.0,0.0
338928293,0,0.0,0.10663507,0.0,0.15303738,0.0,0.0,0.0,0.0
339036668,0,0.0,0.13744076,0.0,0.1542056,0.0,0.0,0.0,0.0
339129283,0,-0.025943397,0.11137441,0.0,0.1635514,0.0,0.0,0.0,0.0
339233104,0,-0.04009434,0.08530806,0.0,0.18107477,0.0,0.0,0.0,0.0
339342443,0,0.0,0.10663507,0.0,0.17757009,0.0,0.0,0.0,0.0
339427716,0,0.0,0.09952607,0.0,0.17757009,0.0,0.0,0.0,0.0
339643717,0,0.0,0.16587678,0.0,0.14018692,0.0,0.0,0.0,0.0
339728885,0,0.0,0.17061612,0.0,0.12616822,0.0,0.0,0.0,0.0
339836867,0,0.0,0.17061612,0.0,0.13317756,0.0,0.0,0.0,0.0
339921318,0,0.0,0.17535545,0.0,0.13200934,0.0,0.0,0.0,0.0
339987005,0,0.0,0.1872038,0.0,0.13200934,0.0,0.0,0.0,0.0
340143580,0,0.0,0.1872038,0.0,0.1448598,0.0,0.0,0.0,0.0
340226129,0,0.0,0.1943128,0.0,0.16121495,0.0,0.0,0.0,0.0
340336469,0,0.0,0.19194312,0.0,0.17523365,0.0,0.0,0.0,0.0
340420817,0,0.0,0.1943128,0.0,0.17757009,0.0,0.0,0.0,0.0
340640702,0,0.0,0.2014218,0.0,0.19509345,0.0,0.0,0.0,0.0
340727089,0,0.0,0.20379147,0.0,0.17523365,0.0,0.0,0.0,0.0
340835547,0,0.0,0.1800948,0.0,0.1635514,0.0,0.0,0.0,0.0
340900860,0,0.0,0.1872038,0.0,0.16004673,0.0,0.0,0.0,0.0
341031722,0,0.0,0.1563981,0.0,0.15303738,0.0,0.0,0.0,0.0
341139424,0,0.026004728,0.15165877,0.0,0.1343458,0.0,0.0,0.0,0.0
341225462,0,0.0,0.123222746,0.0,0.13317756,0.0,0.0,0.0,0.0
341336380,0,0.0,0.11374407,0.0,0.13317756,0.0,0.0,0.0,0.0
341425451,0,0.0,0.101895735,0.0,0.13084112,0.0,0.0,0.0,0.0
341637441,0,0.0,0.13507108,0.0,0.13084112,0.0,0.0,0.0,0.0
341724069,0,0.0,0.13507108,0.0,0.1542056,0.0,0.0,0.0,0.0
341832177,0,0.0,0.13981043,0.0,0.15303738,0.0,0.0,0.0,0.0
341939504,0,0.0,0.13981043,0.0,0.15303738,0.0,0.0,0.0,0.0
342025371,0,0.0023640662,0.14691943,0.0,0.15070094,0.0,0.0,0.0,0.0
342134109,0,0.0,0.15402843,0.0,0.16705607,0.0,0.0,0.0,0.0
342241892,0,0.0,0.1421801,0.0,0.16705607,0.0,0.0,0.0,0.0
342325015,0,0.0,0.1421801,0.0,0.16238318,0.0,0.0,0.0,0.0
342434826,0,0.0,0.13507108,0.0,0.1542056,0.0,0.0,0.0,0.0
342633531,0,0.0,0.14691943,0.0,0.16121495,0.0,0.0,0.0,0.0
342722921,0,0.026004728,0.16587678,0.0,0.1542056,0.0,0.0,0.0,0.0
342830750,0,0.0023640662,0.15876777,0.0,0.15771028,0.0,0.0,0.0,0.0
342936236,0,0.0,0.13744076,0.0,0.1495327,0.0,0.0,0.0,0.0
343042997,0,0.0,0.13744076,0.0,0.14719626,0.0,0.0,0.0,0.0
343129441,0,0.0,0.14691943,0.0,0.14836448,0.0,0.0,0.0,0.0
343240309,0,0.0,0.15876777,0.0,0.15654206,0.0,0.0,0.0,0.0
343283653,0,0.0,0.1563981,0.0,0.15654206,0.0,0.0,0.0,0.0
343436734,0,0.0,0.16113745,0.0,0.15771028,0.0,0.0,0.0,0.0
343630962,0,0.0,0.1563981,0.0,0.1682243,0.0,0.0,0.0,0.0
343718370,0,0.0,0.17535545,0.0,0.16588785,0.0,0.0,0.0,0.0
343804797,0,0.0,0.16587678,0.0,0.16939253,0.0,0.0,0.0,0.0
343887810,0,0.0,0.16587678,0.0,0.16939253,0.0,0.0,0.0,0.0
344043146,0,0.0,0.16587678,0.0,0.12733644,0.0,0.0,0.0,0.0
344131207,0,0.0,0.15402843,0.0,0.12616822,0.0,0.0,0.0,0.0
344227521,0,0.0,0.15876777,0.0,0.14602804,0.0,0.0,0.0,0.0
344327761,0,0.0,0.1635071,0.0,0.14836448,0.0,0.0,0.0,0.0
344414159,0,0.0,0.15876777,0.0,0.1495327,0.0,0.0,0.0,0.0
344631760,0,0.0,0.1492891,0.0,0.16588785,0.0,0.0,0.0,0.0
344739436,0,0.0,0.15876777,0.0,0.17523365,0.0,0.0,0.0,0.0
344828015,0,0.0,0.1421801,0.0,0.17289719,0.0,0.0,0.0,0.0
344935639,0,0.0,0.14454976,0.0,0.17523365,0.0,0.0,0.0,0.0
345044475,0,0.0,0.14454976,0.0,0.14602804,0.0,0.0,0.0,0.0
345130130,0,0.0,0.14454976,0.0,0.14369158,0.0,0.0,0.0,0.0
345217501,0,0.0,0.14691943,0.0,0.14369158,0.0,0.0,0.0,0.0
345328878,0,0.0,0.15402843,0.0,0.14369158,0.0,0.0,0.0,0.0
345435936,0,0.0,0.15876777,0.0,0.15186916,0.0,0.0,0.0,0.0
345631826,0,0.0,0.1635071,0.0,0.13200934,0.0,0.0,0.0,0.0
345736707,0,0.0,0.16587678,0.0,0.13084112,0.0,0.0,0.0,0.0
345825092,0,0.0,0.16824645,0.0,0.13901868,0.0,0.0,0.0,0.0
345933503,0,0.0,0.16113745,0.0,0.1542056,0.0,0.0,0.0,0.0
345998801,0,0.0,0.17535545,0.0,0.1542056,0.0,0.0,0.0,0.0
346131797,0,0.0,0.17535545,0.0,0.15771028,0.0,0.0,0.0,0.0
346233416,0,0.0,0.16587678,0.0,0.14369158,0.0,0.0,0.0,0.0
346340978,0,0.0,0.1635071,0.0,0.1635514,0.0,0.0,0.0,0.0
346427612,0,0.0,0.17535545,0.0,0.18341121,0.0,0.0,0.0,0.0
346644540,0,0.0,0.15876777,0.0,0.19275701,0.0,0.0,0.0,0.0
346732623,0,0.08510638,0.14454976,0.0,0.15771028,0.0,0.0,0.0,0.0
346838987,0,0.06146572,0.1563981,0.0,0.14836448,0.0,0.0,0.0,0.0
346927417,0,0.035460994,0.13981043,0.0,0.15303738,0.0,0.0,0.0,0.0
347032012,0,0.021276595,0.16113745,0.0,0.15303738,0.0,0.0,0.0,0.0
347140016,0,0.0023640662,0.15165877,0.0,0.1296729,0.0,0.0,0.0,0.0
347225810,0,0.0023640662,0.13270143,0.0,0.13668224,0.0,0.0,0.0,0.0
347331816,0,0.028368793,0.12796208,0.0,0.15771028,0.0,0.0,0.0,0.0
347441761,0,0.07092199,0.12796208,0.0,0.16238318,0.0,0.0,0.0,0.0
347636937,0,0.06146572,0.13270143,0.0,0.1682243,0.0,0.0,0.0,0.0
347722460,0,0.059101656,0.13033175,0.0,0.16471963,0.0,0.0,0.0,0.0
347829031,0,0.08510638,0.12559241,0.0,0.16121495,0.0,0.0,0.0,0.0
347916051,0,0.08510638,0.1492891,0.0,0.16939253,0.0,0.0,0.0,0.0
348041301,0,0.07801419,0.14691943,0.0,0.16939253,0.0,0.0,0.0,0.0
348127070,0,0.05437352,0.15165877,0.0,0.13668224,0.0,0.0,0.0,0.0
348235786,0,0.0,0.15165877,0.0,0.12149533,0.0,0.0,0.0,0.0
348322223,0,0.0,0.15402843,0.0,0.12266355,0.0,0.0,0.0,0.0
348431499,0,0.0,0.1563981,0.0,0.1448598,0.0,0.0,0.0,0.0
348624621,0,0.0,0.18246445,0.0,0.1588785,0.0,0.0,0.0,0.0
348735255,0,0.0,0.18246445,0.0,0.16121495,0.0,0.0,0.0,0.0
348840306,0,0.0,0.18483412,0.0,0.16471963,0.0,0.0,0.0,0.0
348928993,0,0.0,0.17772512,0.0,0.14602804,0.0,0.0,0.0,0.0
349034590,0,0.0,0.1872038,0.0,0.13551402,0.0,0.0,0.0,0.0
349143375,0,0.0,0.18957347,-0.007125891,0.14602804,0.0,0.0,0.0,0.0
349230721,0,0.0,0.19194312,-0.019002376,0.13785046,0.0,0.0,0.0,0.0
349335354,0,0.0,0.19194312,-0.002375297,0.1495327,0.0,0.0,0.0,0.0
349443122,0,0.0,0.20616114,0.0,0.16471963,0.0,0.0,0.0,0.0
349638407,0,0.0,0.19905214,0.0,0.17873831,0.0,0.0,0.0,0.0
349726852,0,0.0,0.2014218,0.0,0.16705607,0.0,0.0,0.0,0.0
349833387,0,0.0,0.2014218,0.0,0.1495327,0.0,0.0,0.0,0.0
349942799,0,0.0,0.19194312,0.0,0.17172897,0.0,0.0,0.0,0.0
350028292,0,0.0,0.20379147,0.0,0.16939253,0.0,0.0,0.0,0.0
350137743,0,0.0,0.19194312,0.0,0.17523365,0.0,0.0,0.0,0.0
350241142,0,0.0,0.19194312,0.0,0.1495327,0.0,0.0,0.0,0.0
350328944,0,0.0,0.18957347,0.0,0.125,0.0,0.0,0.0,0.0
350439319,0,0.0,0.17772512,0.0,0.1343458,0.0,0.0,0.0,0.0
350633546,0,-0.009433962,0.1635071,0.0,0.15771028,0.0,0.0,0.0,0.0
350697458,0,-0.0023584906,0.17535545,0.0,0.15771028,0.0,0.0,0.0,0.0
350826993,0,0.0,0.18246445,0.0,0.15186916,0.0,0.0,0.0,0.0
350935615,0,0.0,0.16824645,0.0,0.12733644,0.0,0.0,0.0,0.0
351023016,0,0.0,0.19194312,0.0,0.16238318,0.0,0.0,0.0,0.0
351132849,0,0.0,0.1800948,0.0,0.17172897,0.0,0.0,0.0,0.0
351242923,0,0.0,0.1872038,0.0,0.17757009,0.0,0.0,0.0,0.0
351305897,0,0.0,0.18483412,0.0,0.17757009,0.0,0.0,0.0,0.0
351436725,0,0.0,0.17772512,0.0,0.17757009,0.0,0.0,0.0,0.0
351628813,0,0.0,0.18246445,0.014084507,0.17523365,0.0,0.0,0.0,0.0
351737315,0,0.0,0.17535545,0.030516433,0.17523365,0.0,0.0,0.0,0.0
351823419,0,0.0,0.1563981,0.04694836,0.15303738,0.0,0.0,0.0,0.0
351931820,0,0.0,0.12085308,0.037558686,0.125,0.0,0.0,0.0,0.0
352040707,0,0.0,0.13033175,0.030516433,0.1448598,0.0,0.0,0.0,0.0
352130205,0,0.0,0.12796208,0.01173709,0.1448598,0.0,0.0,0.0,0.0
352234611,0,0.0,0.047393367,0.0,0.1343458,0.0,0.0,0.0,0.0
352320006,0,0.0,0.04265403,0.0,0.1343458,0.0,0.0,0.0,0.0
352402793,0,0.0,0.047393367,0.0,0.13785046,0.0,0.0,0.0,0.0
352640247,0,0.0,0.023696683,0.0,0.13785046,0.0,0.0,0.0,0.0
352727772,0,0.0,0.101895735,0.0,0.15303738,0.0,0.0,0.0,0.0
352837717,0,0.0,0.0971564,0.0,0.15303738,0.0,0.0,0.0,0.0
352924116,0,0.0,0.09478673,0.0023474179,0.15771028,0.0,0.0,0.0,0.0
353030294,0,0.0,0.08293839,0.0,0.16004673,0.0,0.0,0.0,0.0
353139144,0,0.0,0.0900474,0.0,0.17172897,0.0,0.0,0.0,0.0
353221596,0,0.0,0.07582939,0.0,0.18691589,0.0,0.0,0.0,0.0
353332620,0,0.0,0.08056872,0.0,0.19859813,0.0,0.0,0.0,0.0
353442720,0,0.0,0.08056872,0.0,0.15654206,0.0,0.0,0.0,0.0
353639644,0,0.0,0.056872036,0.0046948357,0.1495327,0.0,0.0,0.0,0.0
353726856,0,0.0,0.06398104,0.0046948357,0.13785046,0.0,0.0,0.0,0.0
353831859,0,0.0,0.059241705,0.0093896715,0.14719626,0.0,0.0,0.0,0.0
353940803,0,0.016548464,0.04028436,0.025821596,0.1542056,0.0,0.0,0.0,0.0
354027673,0,0.0070921984,0.035545025,0.032863848,0.15303738,0.0,0.0,0.0,0.0
354136998,0,0.0,0.011848342,0.07042254,0.14018692,0.0,0.0,0.0,0.0
354222371,0,0.011820331,0.028436018,0.04694836,0.15303738,0.0,0.0,0.0,0.0
354331231,0,0.021276595,0.035545025,0.030516433,0.17873831,0.0,0.0,0.0,0.0
354439836,0,0.01891253,0.06872038,0.032863848,0.17172897,0.0,0.0,0.0,0.0
354638003,0,0.0023640662,0.07109005,0.06807512,0.16705607,0.0,0.0,0.0,0.0
354727438,0,0.021276595,0.101895735,0.09389672,0.16121495,0.0,0.0,0.0,0.0
354836079,0,0.021276595,0.13507108,0.08450704,0.1448598,0.0,0.0,0.0,0.0
354942144,0,0.03073286,0.12085308,0.07981221,0.1448598,0.0,0.0,0.0,0.0
355025812,0,0.03073286,0.10663507,0.06807512,0.14836448,0.0,0.0,0.0,0.0
355131260,0,0.08510638,0.07109005,0.0093896715,0.14836448,0.0,0.0,0.0,0.0
355240966,0,0.1252955,-0.0,0.0,0.14836448,0.0,0.0,0.0,0.0
355325639,0,0.120567374,0.0047393367,0.0,0.14836448,0.0,0.0,0.0,0.0
355435692,0,0.11347517,0.047393367,0.0,0.16238318,0.0,0.0,0.0,0.0
355633747,0,0.08747045,0.0900474,0.0,0.1588785,0.0,0.0,0.0,0.0
355721896,0,0.07328605,0.12559241,0.0,0.1542056,0.0,0.0,0.0,0.0
355833445,0,0.04964539,0.13507108,0.0,0.16939253,0.0,0.0,0.0,0.0
355941217,0,0.06146572,0.13981043,0.0,0.17289719,0.0,0.0,0.0,0.0
356029873,0,0.06619386,0.12796208,0.0,0.15537383,0.0,0.0,0.0,0.0
356138712,0,0.059101656,0.12796208,0.0,0.15070094,0.0,0.0,0.0,0.0
356224636,0,0.04491726,0.116113745,0.0,0.1682243,0.0,0.0,0.0,0.0
356332760,0,0.04491726,0.11848341,0.0,0.17172897,0.0,0.0,0.0,0.0
356436988,0,0.04255319,0.11848341,0.0,0.1495327,0.0,0.0,0.0,0.0
356629206,0,0.026004728,0.13270143,0.0,0.1495327,0.0,0.0,0.0,0.0
356738856,0,0.0023640662,0.1421801,0.0,0.1495327,0.0,0.0,0.0,0.0
356827754,0,0.0,0.11848341,0.0,0.1495327,0.0,0.0,0.0,0.0
356937572,0,0.0,0.11848341,0.0,0.14018692,0.0,0.0,0.0,0.0
357021823,0,0.0,0.13270143,0.0,0.13901868,0.0,0.0,0.0,0.0
357131816,0,0.0,0.13270143,0.0,0.1495327,0.0,0.0,0.0,0.0
357221590,0,0.0,0.11848341,0.0,0.16238318,0.0,0.0,0.0,0.0
357331394,0,0.0,0.116113745,0.0,0.17289719,0.0,0.0,0.0,0.0
357413726,0,0.0,0.11848341,0.0,0.17289719,0.0,0.0,0.0,0.0
357606587,0,0.0,0.14454976,0.0,0.17990655,0.0,0.0,0.0,0.0
357737487,0,0.0,0.12796208,0.0,0.18691589,0.0,0.0,0.0,0.0
357842262,0,0.0,0.12796208,0.0,0.17640187,0.0,0.0,0.0,0.0
357927763,0,0.0,0.12796208,0.0,0.16705607,0.0,0.0,0.0,0.0
358037108,0,0.0,0.12796208,0.0,0.16004673,0.0,0.0,0.0,0.0
358121315,0,0.0,0.14454976,0.0,0.1495327,0.0,0.0,0.0,0.0
358232372,0,0.0,0.16113745,-0.026128266,0.15186916,0.0,0.0,0.0,0.0
358337861,0,0.0,0.17535545,-0.014251782,0.1495327,0.0,0.0,0.0,0.0
358427292,0,0.0,0.1635071,-0.007125891,0.1495327,0.0,0.0,0.0,0.0
358600339,0,0.0,0.1421801,-0.014251782,0.14369158,0.0,0.0,0.0,0.0
358732506,0,0.0,0.1563981,-0.023752969,0.14369158,0.0,0.0,0.0,0.0
358838666,0,0.0,0.16113745,-0.023752969,0.16471963,0.0,0.0,0.0,0.0
358927353,0,0.0,0.17061612,-0.023752969,0.15771028,0.0,0.0,0.0,0.0
359014072,0,0.0,0.17535545,-0.019002376,0.13668224,0.0,0.0,0.0,0.0
359124113,0,0.0,0.19194312,0.0,0.1542056,0.0,0.0,0.0,0.0
359233806,0,0.0,0.1943128,0.0,0.15537383,0.0,0.0,0.0,0.0
359339329,0,0.0,0.20616114,0.0,0.15771028,0.0,0.0,0.0,0.0
359428026,0,0.0,0.1943128,0.0,0.15771028,0.0,0.0,0.0,0.0
359604027,0,0.0,0.1635071,0.0,0.18107477,0.0,0.0,0.0,0.0
359730511,0,0.0,0.15876777,0.0,0.17873831,0.0,0.0,0.0,0.0
359838663,0,0.0,0.18483412,0.0,0.17289719,0.0,0.0,0.0,0.0
359924567,0,0.0,0.1800948,0.0,0.17289719,0.0,0.0,0.0,0.0
360033092,0,0.0,0.1872038,0.0,0.1635514,0.0,0.0,0.0,0.0
360143958,0,0.0,0.1800948,0.0,0.13901868,0.0,0.0,0.0,0.0
360229292,0,-0.004716981,0.17061612,0.0,0.13901868,0.0,0.0,0.0,0.0
360338959,0,-0.091981135,0.11848341,0.0,0.13901868,0.0,0.0,0.0,0.0
360424051,0,-0.11556604,0.11848341,-0.009501188,0.14018692,0.0,0.0,0.0,0.0
360643801,0,-0.091981135,0.123222746,-0.026128266,0.15070094,0.0,0.0,0.0,0.0
360707427,0,-0.09669811,0.123222746,-0.033254158,0.15070094,0.0,0.0,0.0,0.0
360836592,0,-0.011792453,0.1492891,-0.059382424,0.1542056,0.0,0.0,0.0,0.0
360938350,0,-0.016509434,0.16113745,-0.07363421,0.17523365,0.0,0.0,0.0,0.0
361025978,0,-0.009433962,0.15876777,-0.049881235,0.18224299,0.0,0.0,0.0,0.0
361135911,0,-0.009433962,0.16824645,-0.033254158,0.17757009,0.0,0.0,0.0,0.0
361221979,0,-0.0023584906,0.1635071,0.0,0.1542056,0.0,0.0,0.0,0.0
361330293,0,0.0,0.16587678,0.0,0.13200934,0.0,0.0,0.0,0.0
361436930,0,-0.018867925,0.1635071,0.0,0.12850468,0.0,0.0,0.0,0.0
361631255,0,-0.016509434,0.17535545,0.0,0.13668224,0.0,0.0,0.0,0.0
361741001,0,-0.028301887,0.17535545,0.0,0.1296729,0.0,0.0,0.0,0.0
361826396,0,-0.04481132,0.1635071,0.0,0.14719626,0.0,0.0,0.0,0.0
361933100,0,-0.04481132,0.15876777,-0.014251782,0.16939253,0.0,0.0,0.0,0.0
362041709,0,-0.051886793,0.16587678,-0.033254158,0.18107477,0.0,0.0,0.0,0.0
362128217,0,-0.051886793,0.17535545,-0.038004752,0.19742991,0.0,0.0,0.0,0.0
362236584,0,-0.03301887,0.1872038,-0.035629455,0.19859813,0.0,0.0,0.0,0.0
362324912,0,-0.04009434,0.1872038,-0.040380046,0.19859813,0.0,0.0,0.0,0.0
362432539,0,-0.056603774,0.17535545,-0.049881235,0.18457943,0.0,0.0,0.0,0.0
362627016,0,-0.108490564,0.14691943,-0.06175772,0.17056075,0.0,0.0,0.0,0.0
362734672,0,-0.13443395,0.12559241,-0.09263658,0.16705607,0.0,0.0,0.0,0.0
362839995,0,-0.16037735,0.08056872,-0.09738717,0.1588785,0.0,0.0,0.0,0.0
362925585,0,-0.20990565,0.016587678,-0.104513064,0.15303738,0.0,0.0,0.0,0.0
363032928,0,-0.2028302,-0.0,-0.085510686,0.15537383,0.0,0.0,0.0,0.0
363121304,0,-0.04481132,0.09952607,-0.12351544,0.15070094,0.0,0.0,0.0,0.0
363209963,0,0.0,0.09241706,-0.121140145,0.15303738,0.0,0.0,0.0,0.0
363342451,0,0.0,0.04265403,-0.09976247,0.1343458,0.0,0.0,0.0,0.0
363433747,0,0.0,0.0450237,-0.10213777,0.1343458,0.0,0.0,0.0,0.0
363522981,0,0.0,0.056872036,-0.104513064,0.1343458,0.0,0.0,0.0,0.0
363629290,0,0.0,0.101895735,-0.09976247,0.14836448,0.0,0.0,0.0,0.0
363737347,0,0.0,0.10663507,-0.08788598,0.14836448,0.0,0.0,0.0,0.0
363825398,0,0.0,0.12559241,-0.07363421,0.14836448,0.0,0.0,0.0,0.0
363929108,0,0.0,0.16587678,-0.04513064,0.15070094,0.0,0.0,0.0,0.0
364034114,0,0.0,0.17535545,-0.05463183,0.1448598,0.0,0.0,0.0,0.0
364142955,0,0.0,0.17061612,-0.052256532,0.16121495,0.0,0.0,0.0,0.0
364206986,0,0.0,0.17535545,-0.07125891,0.16121495,0.0,0.0,0.0,0.0
364334788,0,0.0,0.1872038,-0.06888361,0.16705607,0.0,0.0,0.0,0.0
364421776,0,0.0,0.17772512,-0.05463183,0.16705607,0.0,0.0,0.0,0.0
364529308,0,-0.023584906,0.12796208,-0.059382424,0.1542056,0.0,0.0,0.0,0.0
364637514,0,-0.13915095,0.06635071,-0.057007127,0.15070094,0.0,0.0,0.0,0.0
364727678,0,-0.1745283,0.02606635,-0.07125891,0.15654206,0.0,0.0,0.0,0.0
364832199,0,-0.21462265,0.011848342,-0.06888361,0.15654206,0.0,0.0,0.0,0.0
364937619,0,-0.20990565,0.009478673,-0.06175772,0.15654206,0.0,0.0,0.0,0.0
365030998,0,-0.18160377,0.021327015,-0.06175772,0.15654206,0.0,0.0,0.0,0.0
365138851,0,-0.12264151,0.028436018,-0.09026128,0.15654206,0.0,0.0,0.0,0.0
365225541,0,-0.094339624,0.054502368,-0.11638955,0.15654206,0.0,0.0,0.0,0.0
365337556,0,0.0,0.101895735,-0.12589073,0.16471963,0.0,0.0,0.0,0.0
365424984,0,0.0,0.109004736,-0.11638955,0.16588785,0.0,0.0,0.0,0.0
365539002,0,0.0,0.0900474,-0.104513064,0.16588785,0.0,0.0,0.0,0.0
365622868,0,0.0,0.08530806,-0.11638955,0.1635514,0.0,0.0,0.0,0.0
365739859,0,0.0,0.09952607,-0.111638956,0.1635514,0.0,0.0,0.0,0.0
365824446,0,0.0,0.11848341,-0.11638955,0.1448598,0.0,0.0,0.0,0.0
365930217,0,0.0,0.116113745,-0.08313539,0.14836448,0.0,0.0,0.0,0.0
366039507,0,0.0,0.101895735,-0.004750594,0.1542056,0.0,0.0,0.0,0.0
366126449,0,0.0,0.08293839,0.0,0.15186916,0.0,0.0,0.0,0.0
366235785,0,0.0,-0.0,-0.049881235,0.15186916,0.0,0.0,0.0,0.0
366341975,0,0.0,0.06398104,-0.08788598,0.18107477,0.0,0.0,0.0,0.0
366431840,0,0.0,0.08056872,-0.076009504,0.18925233,0.0,0.0,0.0,0.0
366541634,0,0.0,0.07109005,-0.066508316,0.17873831,0.0,0.0,0.0,0.0
366629079,0,0.0,0.06872038,-0.06175772,0.14836448,0.0,0.0,0.0,0.0
366736424,0,0.0,0.06398104,-0.066508316,0.1495327,0.0,0.0,0.0,0.0
366826240,0,0.0,0.101895735,-0.07125891,0.1635514,0.0,0.0,0.0,0.0
366929835,0,0.0,0.13270143,-0.10213777,0.1495327,0.0,0.0,0.0,0.0
367019715,0,-0.004716981,0.11374407,-0.104513064,0.14836448,0.0,0.0,0.0,0.0
367123579,0,-0.08962264,0.056872036,-0.10926366,0.15186916,0.0,0.0,0.0,0.0
367233449,0,-0.08726415,0.06398104,-0.10926366,0.16471963,0.0,0.0,0.0,0.0
367340734,0,-0.028301887,0.06635071,-0.13301663,0.16004673,0.0,0.0,0.0,0.0
367429176,0,-0.04481132,0.07109005,-0.1543943,0.1588785,0.0,0.0,0.0,0.0
367633948,0,0.0,0.11848341,-0.12589073,0.17757009,0.0,0.0,0.0,0.0
367733889,0,0.0,0.13033175,-0.11401425,0.17523365,0.0,0.0,0.0,0.0
368434154,0,0.0,0.07582939,-0.08788598,0.15303738,0.0,0.0,0.0,0.0
368543827,0,0.04255319,0.0521327,-0.066508316,0.14836448,0.0,0.0,0.0,0.0
368612505,0,0.05437352,0.07109005,-0.052256532,0.14836448,0.0,0.0,0.0,0.0
368723609,0,0.0,0.109004736,-0.059382424,0.14602804,0.0,0.0,0.0,0.0
368830996,0,0.0,0.12796208,-0.059382424,0.14602804,0.0,0.0,0.0,0.0
368938006,0,0.0,0.11848341,-0.09738717,0.14836448,0.0,0.0,0.0,0.0
369020957,0,0.0,0.11848341,-0.09976247,0.16939253,0.0,0.0,0.0,0.0
369130242,0,-0.03773585,0.1042654,-0.09026128,0.18925233,0.0,0.0,0.0,0.0
369216388,0,-0.0754717,0.1042654,-0.085510686,0.18925233,0.0,0.0,0.0,0.0
369322833,0,-0.04009434,0.116113745,-0.09026128,0.19042057,0.0,0.0,0.0,0.0
369427754,0,-0.021226415,0.10663507,-0.085510686,0.18107477,0.0,0.0,0.0,0.0
369536380,0,-0.13207547,0.08056872,-0.10213777,0.15186916,0.0,0.0,0.0,0.0
369640098,0,-0.14386792,0.08293839,-0.08076009,0.14719626,0.0,0.0,0.0,0.0
369725734,0,-0.11084906,0.101895735,-0.085510686,0.1495327,0.0,0.0,0.0,0.0
369832166,0,-0.11084906,0.109004736,-0.076009504,0.14719626,0.0,0.0,0.0,0.0
369940258,0,0.0,0.17061612,-0.07125891,0.1448598,0.0,0.0,0.0,0.0
370022314,0,0.0,0.17535545,-0.06175772,0.12616822,0.0,0.0,0.0,0.0
370134918,0,0.0,0.15876777,-0.042755343,0.14135514,0.0,0.0,0.0,0.0
370241654,0,0.0,0.14691943,-0.06175772,0.1542056,0.0,0.0,0.0,0.0
370325195,0,0.0,0.14454976,-0.052256532,0.1542056,0.0,0.0,0.0,0.0
370435475,0,0.0,0.13981043,-0.038004752,0.1542056,0.0,0.0,0.0,0.0
370539875,0,0.0,0.116113745,0.0,0.16471963,0.0,0.0,0.0,0.0
370625992,0,0.0,0.101895735,0.0,0.1448598,0.0,0.0,0.0,0.0
370732323,0,0.0,0.09478673,0.0,0.125,0.0,0.0,0.0,0.0
370839734,0,0.0,0.08056872,0.0,0.12850468,0.0,0.0,0.0,0.0
370923385,0,0.0,0.07109005,0.01173709,0.14369158,0.0,0.0,0.0,0.0
371011879,0,0.0,0.073459715,0.039906103,0.15070094,0.0,0.0,0.0,0.0
371139077,0,0.0,0.073459715,0.032863848,0.16588785,0.0,0.0,0.0,0.0
371224610,0,0.0,0.073459715,0.044600938,0.18341121,0.0,0.0,0.0,0.0
371335024,0,0.0,0.08056872,0.025821596,0.18925233,0.0,0.0,0.0,0.0
371423144,0,0.0,0.08293839,0.014084507,0.19742991,0.0,0.0,0.0,0.0
371531299,0,0.0,0.06635071,0.0023474179,0.18691589,0.0,0.0,0.0,0.0
371638539,0,0.0,0.056872036,0.0,0.15303738,0.0,0.0,0.0,0.0
371726517,0,0.01891253,0.07582939,0.0,0.14719626,0.0,0.0,0.0,0.0
371836806,0,0.03073286,0.0971564,0.0,0.1635514,0.0,0.0,0.0,0.0
371941954,0,0.014184397,0.09241706,0.0,0.17289719,0.0,0.0,0.0,0.0
372027400,0,0.03309693,0.101895735,0.0,0.15186916,0.0,0.0,0.0,0.0
372137315,0,0.040189125,0.10663507,0.0,0.17056075,0.0,0.0,0.0,0.0
372242985,0,0.059101656,0.109004736,0.0,0.1682243,0.0,0.0,0.0,0.0
372331407,0,0.056737587,0.09478673,0.0,0.16121495,0.0,0.0,0.0,0.0
372437272,0,0.06619386,0.09952607,0.0093896715,0.1448598,0.0,0.0,0.0,0.0
372632024,0,0.06619386,0.101895735,0.0070422534,0.17172897,0.0,0.0,0.0,0.0
372741769,0,0.07801419,0.08293839,0.016431924,0.12266355,0.0,0.0,0.0,0.0
372829411,0,0.07328605,0.06635071,0.018779343,0.12266355,0.0,0.0,0.0,0.0
372940599,0,0.10401891,0.08293839,0.0,0.14836448,0.0,0.0,0.0,0.0
373027576,0,0.10638298,0.09241706,0.0,0.1542056,0.0,0.0,0.0,0.0
373134969,0,0.11347517,0.09478673,0.0,0.18107477,0.0,0.0,0.0,0.0
373240142,0,0.10401891,0.116113745,0.0,0.18107477,0.0,0.0,0.0,0.0
373305972,0,0.10401891,0.123222746,0.0,0.18341121,0.0,0.0,0.0,0.0
373436201,0,0.09219858,0.11848341,0.0,0.19859813,0.0,0.0,0.0,0.0
373635786,0,0.035460994,0.1042654,0.0,0.14719626,0.0,0.0,0.0,0.0
373730439,0,0.01891253,0.047393367,0.0,0.13200934,0.0,0.0,0.0,0.0
373833653,0,0.0,0.028436018,0.0,0.12266355,0.0,0.0,0.0,0.0
373941308,0,0.0,0.047393367,0.0,0.12149533,0.0,0.0,0.0,0.0
374029990,0,0.0,0.06398104,0.0,0.14018692,0.0,0.0,0.0,0.0
374138878,0,0.03073286,0.0521327,0.0,0.14018692,0.0,0.0,0.0,0.0
374227476,0,0.04255319,0.059241705,0.0,0.14018692,0.0,0.0,0.0,0.0
374337509,0,0.10874704,0.06398104,0.0,0.16588785,0.0,0.0,0.0,0.0
374425738,0,0.08983452,0.049763035,0.0,0.17523365,0.0,0.0,0.0,0.0
374625456,0,0.0023640662,0.04265403,0.0046948357,0.16238318,0.0,0.0,0.0,0.0
374712850,0,0.0,0.009478673,0.016431924,0.16705607,0.0,0.0,0.0,0.0
374838867,0,0.0,0.0047393367,0.04694836,0.13668224,0.0,0.0,0.0,0.0
374927572,0,0.0,0.009478673,0.056338027,0.13668224,0.0,0.0,0.0,0.0
375036987,0,0.0,-0.0,0.06338028,0.16588785,0.0,0.0,0.0,0.0
375099712,0,0.0,0.009478673,0.056338027,0.17990655,0.0,0.0,0.0,0.0
375230130,0,0.0,0.016587678,0.061032865,0.16705607,0.0,0.0,0.0,0.0
375340940,0,0.0,0.021327015,0.058685444,0.1343458,0.0,0.0,0.0,0.0
375428513,0,0.0,0.02606635,0.044600938,0.15537383,0.0,0.0,0.0,0.0
375626124,0,0.0,0.0450237,0.0,0.17640187,0.0,0.0,0.0,0.0
375732210,0,0.016548464,0.06398104,0.0,0.20093457,0.0,0.0,0.0,0.0
375838835,0,0.0023640662,0.047393367,0.0,0.19042057,0.0,0.0,0.0,0.0
375925713,0,0.01891253,0.0450237,0.0,0.17990655,0.0,0.0,0.0,0.0
376032511,0,0.06855792,0.028436018,0.0,0.15771028,0.0,0.0,0.0,0.0
376141834,0,0.059101656,0.04028436,0.0,0.1448598,0.0,0.0,0.0,0.0
376227118,0,0.06619386,0.035545025,0.0,0.13551402,0.0,0.0,0.0,0.0
376336445,0,0.07092199,0.009478673,0.0,0.1448598,0.0,0.0,0.0,0.0
376441765,0,0.06619386,-0.0,0.0,0.16471963,0.0,0.0,0.0,0.0
376636564,0,0.08510638,0.009478673,0.0,0.16471963,0.0,0.0,0.0,0.0
376741563,0,0.08274232,0.06635071,0.0093896715,0.15771028,0.0,0.0,0.0,0.0
376830131,0,0.08510638,0.0521327,0.0070422534,0.15186916,0.0,0.0,0.0,0.0
376941043,0,0.07565012,0.06872038,0.0023474179,0.16121495,0.0,0.0,0.0,0.0
377030388,0,0.10401891,0.09478673,0.0,0.16121495,0.0,0.0,0.0,0.0
377140715,0,0.07801419,0.0900474,0.0,0.16705607,0.0,0.0,0.0,0.0
377226769,0,0.07565012,0.08293839,0.0,0.1635514,0.0,0.0,0.0,0.0
377330762,0,0.07092199,0.09478673,0.0,0.16238318,0.0,0.0,0.0,0.0
377435535,0,0.08037825,0.09241706,0.0,0.17172897,0.0,0.0,0.0,0.0
377629319,0,0.06855792,0.109004736,0.0,0.1542056,0.0,0.0,0.0,0.0
377737606,0,0.01891253,0.109004736,0.0,0.14018692,0.0,0.0,0.0,0.0
377824559,0,0.0,0.10663507,0.0,0.13785046,0.0,0.0,0.0,0.0
377934146,0,0.0,0.11137441,0.0,0.13084112,0.0,0.0,0.0,0.0
378039713,0,0.035460994,0.1563981,0.0,0.13901868,0.0,0.0,0.0,0.0
378125589,0,0.021276595,0.1421801,0.0,0.15186916,0.0,0.0,0.0,0.0
378229214,0,0.021276595,0.1421801,0.0,0.15771028,0.0,0.0,0.0,0.0
378338153,0,0.026004728,0.12796208,0.0,0.15303738,0.0,0.0,0.0,0.0
378425170,0,0.04964539,0.1421801,0.0,0.14836448,0.0,0.0,0.0,0.0
378643158,0,0.09929078,0.14691943,0.0,0.17172897,0.0,0.0,0.0,0.0
378728653,0,0.10165485,0.13981043,0.0,0.18808411,0.0,0.0,0.0,0.0
378838280,0,0.06619386,0.11374407,0.0,0.18925233,0.0,0.0,0.0,0.0
378926728,0,0.016548464,0.09241706,0.0,0.17873831,0.0,0.0,0.0,0.0
379036458,0,0.0070921984,0.109004736,0.0,0.17873831,0.0,0.0,0.0,0.0
379124155,0,0.014184397,0.11374407,0.0,0.1635514,0.0,0.0,0.0,0.0
379232316,0,0.0023640662,0.13270143,0.0,0.14135514,0.0,0.0,0.0,0.0
379340986,0,0.0,0.11848341,0.0023474179,0.15537383,0.0,0.0,0.0,0.0
379428817,0,0.0,0.109004736,0.0046948357,0.15654206,0.0,0.0,0.0,0.0
379627430,0,0.0,0.11374407,0.0,0.17289719,0.0,0.0,0.0,0.0
379737033,0,0.0,0.12085308,0.0,0.17873831,0.0,0.0,0.0,0.0
379828483,0,0.0,0.11848341,0.0,0.18107477,0.0,0.0,0.0,0.0
379929620,0,0.0,0.10663507,0.0,0.18107477,0.0,0.0,0.0,0.0
380041224,0,0.0,0.101895735,0.0,0.16471963,0.0,0.0,0.0,0.0
380106712,0,0.0,0.11137441,0.0,0.14018692,0.0,0.0,0.0,0.0
380239172,0,0.0,0.1042654,0.0,0.15070094,0.0,0.0,0.0,0.0
380327967,0,0.0,0.11137441,0.0,0.14369158,0.0,0.0,0.0,0.0
380414275,0,0.014184397,0.07582939,0.0,0.13668224,0.0,0.0,0.0,0.0
380605892,0,0.03309693,0.08293839,0.0,0.15070094,0.0,0.0,0.0,0.0
380735479,0,0.07328605,0.109004736,0.0,0.15186916,0.0,0.0,0.0,0.0
380821797,0,0.07801419,0.11137441,0.0,0.15771028,0.0,0.0,0.0,0.0
380933829,0,0.07801419,0.109004736,0.0,0.18691589,0.0,0.0,0.0,0.0
381039988,0,0.059101656,0.09478673,0.0,0.18457943,0.0,0.0,0.0,0.0
381123686,0,0.03309693,0.1042654,0.0,0.18107477,0.0,0.0,0.0,0.0
381229122,0,0.06382979,0.10663507,0.0,0.17523365,0.0,0.0,0.0,0.0
381338921,0,0.06382979,0.09952607,0.0,0.15186916,0.0,0.0,0.0,0.0
381424840,0,0.03782506,0.0900474,0.0,0.1495327,0.0,0.0,0.0,0.0
381624039,0,0.03073286,0.08056872,0.0,0.1542056,0.0,0.0,0.0,0.0
381729735,0,0.04964539,0.09241706,0.0,0.1542056,0.0,0.0,0.0,0.0
381840435,0,0.03782506,0.09478673,0.0,0.1542056,0.0,0.0,0.0,0.0
381928205,0,0.03782506,0.09241706,0.0,0.15070094,0.0,0.0,0.0,0.0
382037986,0,0.05437352,0.07582939,0.0,0.1296729,0.0,0.0,0.0,0.0
382126676,0,0.021276595,0.08293839,0.0,0.13668224,0.0,0.0,0.0,0.0
382238767,0,0.04964539,0.101895735,0.0,0.14135514,0.0,0.0,0.0,0.0
382322816,0,0.03782506,0.09952607,0.0,0.1542056,0.0,0.0,0.0,0.0
382431254,0,0.021276595,0.087677725,0.0,0.15654206,0.0,0.0,0.0,0.0
382629346,0,0.0,0.1042654,0.0,0.17757009,0.0,0.0,0.0,0.0
382739170,0,0.0,0.11848341,0.0,0.18925233,0.0,0.0,0.0,0.0
382806619,0,0.0,0.123222746,0.0,0.18691589,0.0,0.0,0.0,0.0
382937876,0,-0.009433962,0.109004736,0.0,0.16238318,0.0,0.0,0.0,0.0
383043129,0,-0.0023584906,0.10663507,0.0,0.17172897,0.0,0.0,0.0,0.0
383131671,0,0.0,0.109004736,0.0,0.18107477,0.0,0.0,0.0,0.0
383214053,0,0.0,0.12796208,0.0,0.18341121,0.0,0.0,0.0,0.0
383322451,0,0.0,0.11374407,0.0,0.18224299,0.0,0.0,0.0,0.0
383429698,0,0.0,0.101895735,0.0,0.13551402,0.0,0.0,0.0,0.0
383626740,0,-0.10377359,0.0521327,0.0,0.13551402,0.0,0.0,0.0,0.0
383737105,0,-0.11084906,0.033175357,0.0,0.14719626,0.0,0.0,0.0,0.0
383803027,0,-0.06367925,0.0450237,0.0023474179,0.14719626,0.0,0.0,0.0,0.0
383930856,0,-0.025943397,0.0450237,0.0023474179,0.15771028,0.0,0.0,0.0,0.0
384038885,0,0.0,0.0521327,0.016431924,0.15771028,0.0,0.0,0.0,0.0
384127640,0,0.0,0.04028436,0.0023474179,0.1588785,0.0,0.0,0.0,0.0
384238628,0,0.04964539,0.06635071,0.0,0.17990655,0.0,0.0,0.0,0.0
384324080,0,0.05437352,0.061611373,0.0,0.17757009,0.0,0.0,0.0,0.0
384431113,0,0.0,0.07582939,0.0,0.16939253,0.0,0.0,0.0,0.0
384625625,0,0.03309693,0.061611373,0.0,0.14252336,0.0,0.0,0.0,0.0
384733577,0,0.026004728,0.056872036,0.0046948357,0.14836448,0.0,0.0,0.0,0.0
384841277,0,0.03309693,0.06398104,0.014084507,0.16121495,0.0,0.0,0.0,0.0
384930160,0,0.08510638,0.0900474,0.039906103,0.16238318,0.0,0.0,0.0,0.0
385039295,0,0.040189125,0.059241705,0.08685446,0.16705607,0.0,0.0,0.0,0.0
385124856,0,0.04964539,0.07109005,0.07042254,0.17056075,0.0,0.0,0.0,0.0
385234155,0,0.06146572,0.073459715,0.08685446,0.1635514,0.0,0.0,0.0,0.0
385323346,0,0.08747045,0.09952607,0.051643193,0.16939253,0.0,0.0,0.0,0.0
385430711,0,0.09219858,0.101895735,0.032863848,0.18574767,0.0,0.0,0.0,0.0
385625212,0,0.035460994,0.1042654,0.0046948357,0.12616822,0.0,0.0,0.0,0.0
385729585,0,0.0,0.11848341,0.0,0.1343458,0.0,0.0,0.0,0.0
385836437,0,0.0,0.12559241,0.0,0.15186916,0.0,0.0,0.0,0.0
385933512,0,0.0,0.123222746,0.0,0.15186916,0.0,0.0,0.0,0.0
386032447,0,0.0,0.11137441,0.0,0.16705607,0.0,0.0,0.0,0.0
386121156,0,0.0,0.10663507,0.0,0.17873831,0.0,0.0,0.0,0.0
386229563,0,0.0,0.11374407,0.0,0.17523365,0.0,0.0,0.0,0.0
386339234,0,0.0,0.12796208,0.0,0.17990655,0.0,0.0,0.0,0.0
386424126,0,0.0,0.12796208,0.0,0.17990655,0.0,0.0,0.0,0.0
386640238,0,0.0070921984,0.14454976,0.0,0.1495327,0.0,0.0,0.0,0.0
386725496,0,0.03073286,0.15165877,0.0,0.1343458,0.0,0.0,0.0,0.0
386833524,0,0.026004728,0.17061612,0.0,0.14602804,0.0,0.0,0.0,0.0
386918435,0,0.040189125,0.18246445,0.0,0.1495327,0.0,0.0,0.0,0.0
387027557,0,0.040189125,0.19905214,0.0,0.15771028,0.0,0.0,0.0,0.0
387136911,0,0.03073286,0.1872038,0.0,0.17289719,0.0,0.0,0.0,0.0
387225121,0,0.07801419,0.1943128,0.0,0.17757009,0.0,0.0,0.0,0.0
387329353,0,0.06619386,0.1943128,0.0,0.19626169,0.0,0.0,0.0,0.0
387416032,0,0.06146572,0.1943128,0.0,0.18925233,0.0,0.0,0.0,0.0
387631522,0,0.0047281324,0.19194312,0.0,0.13317756,0.0,0.0,0.0,0.0
387741045,0,0.0,0.18957347,0.0,0.13785046,0.0,0.0,0.0,0.0
387829939,0,0.0,0.20379147,0.0,0.14836448,0.0,0.0,0.0,0.0
387934129,0,0.0,0.2014218,0.0,0.15654206,0.0,0.0,0.0,0.0
388020618,0,0.0,0.2014218,0.0,0.16705607,0.0,0.0,0.0,0.0
388129559,0,0.0,0.21090047,0.0,0.16705607,0.0,0.0,0.0,0.0
388238200,0,0.0,0.22511849,0.0,0.18457943,0.0,0.0,0.0,0.0
388304790,0,0.0,0.20616114,0.0,0.18457943,0.0,0.0,0.0,0.0
388436480,0,0.0070921984,0.22748815,0.0,0.14836448,0.0,0.0,0.0,0.0
388629853,0,0.011820331,0.22274882,0.0,0.15771028,0.0,0.0,0.0,0.0
388738975,0,0.0,0.18246445,0.0,0.1542056,0.0,0.0,0.0,0.0
388821286,0,0.009456265,0.1943128,0.0,0.14018692,0.0,0.0,0.0,0.0
388929619,0,0.0,0.1800948,0.0,0.14018692,0.0,0.0,0.0,0.0
389036984,0,0.0,0.17535545,0.0,0.1542056,0.0,0.0,0.0,0.0
389124374,0,0.0,0.1872038,0.0,0.15303738,0.0,0.0,0.0,0.0
389234101,0,0.0,0.17772512,0.0,0.16238318,0.0,0.0,0.0,0.0
389322610,0,0.0,0.1635071,0.0,0.16705607,0.0,0.0,0.0,0.0
389433296,0,0.009456265,0.2014218,0.0,0.17757009,0.0,0.0,0.0,0.0
389623659,0,0.009456265,0.2014218,0.0,0.17523365,0.0,0.0,0.0,0.0
389733305,0,0.0,0.17061612,0.0,0.17523365,0.0,0.0,0.0,0.0
389839517,0,0.0,0.18246445,0.0,0.15070094,0.0,0.0,0.0,0.0
389926093,0,0.0,0.17535545,0.0,0.16705607,0.0,0.0,0.0,0.0
390036671,0,0.0,0.18483412,0.0,0.1682243,0.0,0.0,0.0,0.0
390123923,0,0.0,0.18483412,0.0,0.1682243,0.0,0.0,0.0,0.0
390230904,0,0.0,0.13981043,0.0,0.1682243,0.0,0.0,0.0,0.0
390336962,0,0.0,0.09478673,0.0,0.1588785,0.0,0.0,0.0,0.0
390442812,0,0.0,0.11137441,0.0,0.14369158,0.0,0.0,0.0,0.0
390639733,0,0.0,0.13507108,0.0,0.14602804,0.0,0.0,0.0,0.0
390728108,0,0.0,0.109004736,0.0,0.15654206,0.0,0.0,0.0,0.0
390838003,0,0.0,0.11374407,0.0,0.15654206,0.0,0.0,0.0,0.0
390924934,0,0.0,0.10663507,0.0,0.17757009,0.0,0.0,0.0,0.0
391031535,0,0.0,0.116113745,0.0,0.1682243,0.0,0.0,0.0,0.0
391141473,0,0.0,0.0971564,0.0,0.17757009,0.0,0.0,0.0,0.0
391186414,0,0.0,0.09478673,0.0,0.17873831,0.0,0.0,0.0,0.0
391335691,0,0.0,0.09241706,0.0,0.16238318,0.0,0.0,0.0,0.0
391442106,0,0.0,0.061611373,0.0,0.16121495,0.0,0.0,0.0,0.0
391630628,0,0.0,0.033175357,0.0,0.16004673,0.0,0.0,0.0,0.0
391719543,0,0.0,0.056872036,0.0,0.16121495,0.0,0.0,0.0,0.0
391830599,0,0.0,0.09952607,0.0,0.16121495,0.0,0.0,0.0,0.0
391939805,0,0.0,0.101895735,0.0,0.13901868,0.0,0.0,0.0,0.0
392034996,0,0.0,0.09478673,0.0,0.1542056,0.0,0.0,0.0,0.0
392134986,0,0.0,0.09952607,0.0,0.1542056,0.0,0.0,0.0,0.0
392156115,0,0.0,0.101895735,0.0,0.1542056,0.0,0.0,0.0,0.0
392331306,0,0.0,0.10663507,0.0,0.16004673,0.0,0.0,0.0,0.0
392419510,0,0.0,0.109004736,0.0,0.16004673,0.0,0.0,0.0,0.0
392612036,0,0.0,0.123222746,0.0,0.15186916,0.0,0.0,0.0,0.0
392738635,0,0.0,0.116113745,0.0,0.15303738,0.0,0.0,0.0,0.0
392804111,0,0.0,0.123222746,0.0,0.15537383,0.0,0.0,0.0,0.0
392932801,0,0.0,0.116113745,0.0,0.17172897,0.0,0.0,0.0,0.0
392996839,0,0.0,0.12796208,0.0,0.17172897,0.0,0.0,0.0,0.0
393128275,0,0.0,0.12559241,0.0093896715,0.17172897,0.0,0.0,0.0,0.0
393211354,0,0.0,0.116113745,0.028169014,0.17172897,0.0,0.0,0.0,0.0
393319669,0,-0.070754714,0.087677725,0.061032865,0.17990655,0.0,0.0,0.0,0.0
393431482,0,-0.061320756,0.09478673,0.061032865,0.17640187,0.0,0.0,0.0,0.0
393627394,0,-0.068396226,0.11137441,0.03521127,0.16471963,0.0,0.0,0.0,0.0
393733232,0,-0.056603774,0.11374407,0.014084507,0.16471963,0.0,0.0,0.0,0.0
393841587,0,-0.028301887,0.13744076,0.0,0.1635514,0.0,0.0,0.0,0.0
393927497,0,-0.03301887,0.13507108,0.0,0.16238318,0.0,0.0,0.0,0.0
394035843,0,-0.07783019,0.11137441,0.0023474179,0.16238318,0.0,0.0,0.0,0.0
394122198,0,-0.0495283,0.11848341,0.0,0.1588785,0.0,0.0,0.0,0.0
394232035,0,0.0,0.15876777,0.0,0.15303738,0.0,0.0,0.0,0.0
394341005,0,0.0,0.16824645,0.0,0.13317756,0.0,0.0,0.0,0.0
394428509,0,-0.04481132,0.11848341,0.0,0.16705607,0.0,0.0,0.0,0.0
394624611,0,-0.09669811,0.08056872,0.0,0.17757009,0.0,0.0,0.0,0.0
394730670,0,-0.125,0.04028436,0.0,0.18925233,0.0,0.0,0.0,0.0
394841200,0,-0.10377359,0.035545025,0.0,0.18925233,0.0,0.0,0.0,0.0
394927316,0,-0.0990566,0.04028436,0.0,0.18925233,0.0,0.0,0.0,0.0
395037127,0,-0.021226415,0.1042654,0.0,0.16238318,0.0,0.0,0.0,0.0
395127064,0,0.0,0.11848341,0.0,0.1542056,0.0,0.0,0.0,0.0
395239029,0,0.0,0.10663507,0.0,0.15070094,0.0,0.0,0.0,0.0
395325525,0,0.0,0.11374407,0.0,0.14602804,0.0,0.0,0.0,0.0
395433729,0,0.0,0.11848341,0.0,0.14602804,0.0,0.0,0.0,0.0
395626478,0,0.0,0.13981043,0.0,0.16121495,0.0,0.0,0.0,0.0
395733263,0,0.0,0.13744076,0.0,0.15070094,0.0,0.0,0.0,0.0
395843265,0,0.0,0.11137441,0.0,0.16004673,0.0,0.0,0.0,0.0
395928711,0,0.0,0.123222746,0.0,0.17056075,0.0,0.0,0.0,0.0
396035763,0,0.0,0.12796208,0.0,0.16939253,0.0,0.0,0.0,0.0
396124417,0,-0.0023584906,0.13744076,0.0,0.14719626,0.0,0.0,0.0,0.0
396235580,0,0.0,0.13744076,-0.007125891,0.1296729,0.0,0.0,0.0,0.0
396322234,0,0.0,0.14691943,0.0,0.14602804,0.0,0.0,0.0,0.0
396428071,0,0.0,0.1635071,0.0,0.15070094,0.0,0.0,0.0,0.0
396642041,0,0.0,0.1635071,0.0,0.16588785,0.0,0.0,0.0,0.0
396708127,0,0.0,0.17061612,0.0,0.16588785,0.0,0.0,0.0,0.0
396838934,0,-0.007075472,0.16587678,0.0,0.18341121,0.0,0.0,0.0,0.0
396924635,0,-0.009433962,0.17061612,0.0,0.18691589,0.0,0.0,0.0,0.0
397030998,0,-0.011792453,0.2014218,0.0,0.19392523,0.0,0.0,0.0,0.0
397141023,0,-0.0023584906,0.1943128,0.0,0.19392523,0.0,0.0,0.0,0.0
397227610,0,0.0,0.21800947,0.0,0.16939253,0.0,0.0,0.0,0.0
397313567,0,0.0,0.22037914,0.0,0.15186916,0.0,0.0,0.0,0.0
397422734,0,0.0,0.22274882,0.0,0.16121495,0.0,0.0,0.0,0.0
397621249,0,0.0,0.21800947,0.0,0.17873831,0.0,0.0,0.0,0.0
397731192,0,0.0,0.21800947,-0.014251782,0.1542056,0.0,0.0,0.0,0.0
397841305,0,0.0,0.22274882,-0.014251782,0.1635514,0.0,0.0,0.0,0.0
397927074,0,0.0,0.22274882,0.0,0.16939253,0.0,0.0,0.0,0.0
398035160,0,0.0,0.21327014,0.0,0.14719626,0.0,0.0,0.0,0.0
398123430,0,0.0,0.22985782,-0.004750594,0.13668224,0.0,0.0,0.0,0.0
398232121,0,0.0,0.23459716,0.0,0.14836448,0.0,0.0,0.0,0.0
398340612,0,0.0,0.24170616,-0.007125891,0.1495327,0.0,0.0,0.0,0.0
398426706,0,0.0,0.24644549,-0.002375297,0.14252336,0.0,0.0,0.0,0.0
398642324,0,0.0,0.21800947,0.0,0.17523365,0.0,0.0,0.0,0.0
398708562,0,0.0,0.21327014,-0.007125891,0.17640187,0.0,0.0,0.0,0.0
398839911,0,0.0,0.21327014,-0.019002376,0.18808411,0.0,0.0,0.0,0.0
398927297,0,0.0,0.2014218,-0.007125891,0.18808411,0.0,0.0,0.0,0.0
399030943,0,0.0,0.21563981,-0.007125891,0.18107477,0.0,0.0,0.0,0.0
399141614,0,0.0,0.21327014,0.0,0.17172897,0.0,0.0,0.0,0.0
