timestamp,timestamp_sample,gps_hvel[0],gps_hvel[1],gps_vvel,gps_hpos[0],gps_hpos[1],gps_vpos,ev_hvel[0],ev_hvel[1],ev_vvel,ev_hpos[0],ev_hpos[1],ev_vpos,rng_vpos,baro_vpos,aux_hvel[0],aux_hvel[1],aux_vvel,flow[0],flow[1],heading,mag_field[0],mag_field[1],mag_field[2],drag[0],drag[1],airspeed,beta,hagl
293536302,293535766,0.0,0.0,0.0,0.00062366494,0.0073056663,0.0,0.0,0.0,0.0,0.0,0.0,0.0,0.0,-0.1387577,0.0,0.0,nan,0.0,0.0,-0.14004791,-0.010838777,0.012026584,0.0120755285,0.0,0.0,0.0,0.0,0.0
294032827,294031582,0.0,0.0,0.0,-0.010520973,0.019262427,0.0,0.0,0.0,0.0,0.0,0.0,0.0,0.0,0.39691162,0.0,0.0,nan,0.0,0.0,-0.11350191,-0.010838777,0.012026584,0.0120755285,0.0,0.0,0.0,0.0,0.0
294528104,294527664,0.0,0.0,0.0,-0.035430368,0.037520096,0.0,0.0,0.0,0.0,0.0,0.0,0.0,0.0,0.3853073,0.0,0.0,nan,0.0,0.0,-0.10046339,-0.010838777,0.012026584,0.0120755285,0.0,0.0,0.0,0.0,0.0
295037511,295036952,0.0,0.0,0.0,-0.096298546,0.08529157,0.0,0.0,0.0,0.0,0.0,0.0,0.0,0.0,0.2910633,0.0,0.0,nan,0.0,0.0,-0.07685447,-0.010838777,0.012026584,0.0120755285,0.0,0.0,0.0,0.0,0.0
295537725,295537072,0.0,0.0,0.0,-0.16640651,0.142077,0.0,0.0,0.0,0.0,0.0,0.0,0.0,0.0,0.010623932,0.0,0.0,nan,0.0,0.0,-0.047296286,-0.010838777,0.012026584,0.0120755285,0.0,0.0,0.0,0.0,0.0
296033678,296033076,0.0,0.0,0.0,-0.25633052,0.2152305,0.0,0.0,0.0,0.0,0.0,0.0,0.0,0.0,0.19415855,0.0,0.0,nan,0.0,0.0,-0.02551639,-0.010838777,0.012026584,0.0120755285,0.0,0.0,0.0,0.0,0.0
296534505,296533219,0.0,0.0,0.0,-0.4505872,0.39848053,0.0,0.0,0.0,0.0,0.0,0.0,0.0,0.0,0.25339508,0.0,0.0,nan,0.0,0.0,-0.026660204,-0.010838777,0.012026584,0.0120755285,0.0,0.0,0.0,0.0,0.0
297029776,297029197,0.0,0.0,0.0,-0.6019302,0.49022874,0.0,0.0,0.0,0.0,0.0,0.0,0.0,0.0,0.028764725,0.0,0.0,nan,0.0,0.0,-0.073681,-0.010838777,0.012026584,0.0120755285,0.0,0.0,0.0,0.0,0.0
297538906,297538498,0.0,0.0,0.0,-0.84894514,0.61011314,0.0,0.0,0.0,0.0,0.0,0.0,0.0,0.0,0.14262867,0.0,0.0,nan,0.0,0.0,-0.10676539,-0.010838777,0.012026584,0.0120755285,0.0,0.0,0.0,0.0,0.0
298034579,298034206,0.0,0.0,0.0,-1.0685439,0.75951797,0.0,0.0,0.0,0.0,0.0,0.0,0.0,0.0,0.24955463,0.0,0.0,nan,0.0,0.0,-0.13480043,-0.010838777,0.012026584,0.0120755285,0.0,0.0,0.0,0.0,0.0
299036273,299034860,0.0,0.0,0.0,-1.7386575,1.2200736,0.0,0.0,0.0,0.0,0.0,0.0,0.0,0.0,0.3286476,0.0,0.0,nan,0.0,0.0,-0.37255996,-0.010838777,0.012026584,0.0120755285,0.0,0.0,0.0,0.0,0.0
299531200,299530756,0.0,0.0,0.0,-2.0073524,1.3999053,0.0,0.0,0.0,0.0,0.0,0.0,0.0,0.0,0.21236897,0.0,0.0,nan,0.0,0.0,-0.39282227,-0.010838777,0.012026584,0.0120755285,0.0,0.0,0.0,0.0,0.0
300036166,300035517,0.0,0.0,0.0,-2.3219166,1.5177139,0.0,0.0,0.0,0.0,0.0,0.0,0.0,0.0,0.24031448,0.0,0.0,nan,0.0,0.0,-0.39442682,-0.010838777,0.012026584,0.0120755285,0.0,0.0,0.0,0.0,0.0
300536211,300535847,0.0,0.0,0.0,-2.4361658,1.5250578,0.0,0.0,0.0,0.0,0.0,0.0,0.0,0.0,0.15853691,0.0,0.0,nan,0.0,0.0,-0.4270469,-0.010838777,0.012026584,0.0120755285,0.0,0.0,0.0,0.0,0.0
301032155,301031667,0.0,0.0,0.0,-2.5370517,1.512233,0.0,0.0,0.0,0.0,0.0,0.0,0.0,0.0,0.18582153,0.0,0.0,nan,0.0,0.0,-0.4550268,-0.010838777,0.012026584,0.0120755285,0.0,0.0,0.0,0.0,0.0
301537414,301536736,0.0,0.0,0.0,-2.5961728,1.4253713,0.0,0.0,0.0,0.0,0.0,0.0,0.0,0.0,0.019729614,0.0,0.0,nan,0.0,0.0,-0.5047581,-0.010838777,0.012026584,0.0120755285,0.0,0.0,0.0,0.0,0.0
302037609,302036876,0.0,0.0,0.0,-2.5957506,1.3544449,0.0,0.0,0.0,0.0,0.0,0.0,0.0,0.0,0.28234577,0.0,0.0,nan,0.0,0.0,-0.5608428,-0.010838777,0.012026584,0.0120755285,0.0,0.0,0.0,0.0,0.0
302533378,302532860,0.0,0.0,0.0,-2.5564911,1.31384,0.0,0.0,0.0,0.0,0.0,0.0,0.0,0.0,0.15076351,0.0,0.0,nan,0.0,0.0,-0.5547815,-0.010838777,0.012026584,0.0120755285,0.0,0.0,0.0,0.0,0.0
303033608,303032980,0.0,0.0,0.0,-2.5570383,1.3059164,0.0,0.0,0.0,0.0,0.0,0.0,0.0,0.0,0.12350178,0.0,0.0,nan,0.0,0.0,-0.5599047,-0.010838777,0.012026584,0.0120755285,0.0,0.0,0.0,0.0,0.0
303529788,303528989,0.0,0.0,0.0,-2.569625,1.3255783,0.0,0.0,0.0,0.0,0.0,0.0,0.0,0.0,0.17930031,0.0,0.0,nan,0.0,0.0,-0.53731006,-0.010838777,0.012026584,0.0120755285,0.0,0.0,0.0,0.0,0.0
304039019,304038281,0.0,0.0,0.0,-2.5813367,1.3502325,0.0,0.0,0.0,0.0,0.0,0.0,0.0,0.0,-0.18157387,0.0,0.0,nan,0.0,0.0,-0.5303126,-0.010838777,0.012026584,0.0120755285,0.0,0.0,0.0,0.0,0.0
305034905,305034414,0.0,0.0,0.0,-2.510691,1.3684036,0.0,0.0,0.0,0.0,0.0,0.0,0.0,0.0,0.017091751,0.0,0.0,nan,0.0,0.0,-0.44980824,-0.010838777,0.012026584,0.0120755285,0.0,0.0,0.0,0.0,0.0
305530548,305530163,0.0,0.0,0.0,-2.4356635,1.3366346,0.0,0.0,0.0,0.0,0.0,0.0,0.0,0.0,-0.080890656,0.0,0.0,nan,0.0,0.0,-0.45144898,-0.010838777,0.012026584,0.0120755285,0.0,0.0,0.0,0.0,0.0
306032019,306030547,0.0,0.0,0.0,-2.3044019,1.2743028,0.0,0.0,0.0,0.0,0.0,0.0,0.0,0.0,-0.18151951,0.0,0.0,nan,0.0,0.0,-0.41329432,-0.010838777,0.012026584,0.0120755285,0.0,0.0,0.0,0.0,0.0
306531443,306530776,0.0,0.0,0.0,-2.1994574,1.2321415,0.0,0.0,0.0,0.0,0.0,0.0,0.0,0.0,0.04440403,0.0,0.0,nan,0.0,0.0,-0.39623177,-0.010838777,0.012026584,0.0120755285,0.0,0.0,0.0,0.0,0.0
307027092,307026731,0.0,0.0,0.0,-2.0265093,1.167102,0.0,0.0,0.0,0.0,0.0,0.0,0.0,0.0,-0.16004086,0.0,0.0,nan,0.0,0.0,-0.39189208,-0.010838777,0.012026584,0.0120755285,0.0,0.0,0.0,0.0,0.0
307532078,307531434,0.0,0.0,0.0,-1.904329,1.1195683,0.0,0.0,0.0,0.0,0.0,0.0,0.0,0.0,0.050766945,0.0,0.0,nan,0.0,0.0,-0.36573935,-0.010838777,0.012026584,0.0120755285,0.0,0.0,0.0,0.0,0.0
308036905,308036275,0.0,0.0,0.0,-1.7128775,1.04193,0.0,0.0,0.0,0.0,0.0,0.0,0.0,0.0,0.14217758,0.0,0.0,nan,0.0,0.0,-0.36517918,-0.010838777,0.012026584,0.0120755285,0.0,0.0,0.0,0.0,0.0
308537413,308536601,0.0,0.0,0.0,-1.5541528,0.9583375,0.0,0.0,0.0,0.0,0.0,0.0,0.0,0.0,0.12278557,0.0,0.0,nan,0.0,0.0,-0.366647,-0.010838777,0.012026584,0.0120755285,0.0,0.0,0.0,0.0,0.0
309033252,309032678,0.0,0.0,0.0,-1.3676286,0.84257716,0.0,0.0,0.0,0.0,0.0,0.0,0.0,0.0,0.20669937,0.0,0.0,nan,0.0,0.0,-0.36622447,-0.010838777,0.012026584,0.0120755285,0.0,0.0,0.0,0.0,0.0
309533306,309532752,0.0,0.0,0.0,-1.0371419,0.6365059,0.0,0.0,0.0,0.0,0.0,0.0,0.0,0.0,0.019961357,0.0,0.0,nan,0.0,0.0,-0.38830417,-0.010838777,0.012026584,0.0120755285,0.0,0.0,0.0,0.0,0.0
310029145,310028789,0.0,0.0,0.0,-0.79561853,0.4825762,0.0,0.0,0.0,0.0,0.0,0.0,0.0,0.0,0.067316055,0.0,0.0,nan,0.0,0.0,-0.4221447,-0.010838777,0.012026584,0.0120755285,0.0,0.0,0.0,0.0,0.0
310538459,310538093,0.0,0.0,0.0,-0.39076433,0.22994229,0.0,0.0,0.0,0.0,0.0,0.0,0.0,0.0,0.20734787,0.0,0.0,nan,0.0,0.0,-0.4651461,-0.010838777,0.012026584,0.0120755285,0.0,0.0,0.0,0.0,0.0
311029641,311029279,0.0,0.0,0.0,-0.12169716,0.08248529,0.0,0.0,0.0,0.0,0.0,0.0,0.0,0.0,0.11622524,0.0,0.0,nan,0.0,0.0,-0.47790337,-0.010838777,0.012026584,0.0120755285,0.0,0.0,0.0,0.0,0.0
312034906,312034402,0.0,0.0,0.0,0.5028277,-0.22026229,0.0,0.0,0.0,0.0,0.0,0.0,0.0,0.0,0.34175968,0.0,0.0,nan,0.0,0.0,0.009550288,-0.010838777,0.012026584,0.0120755285,0.0,0.0,0.0,0.0,0.0
312530823,312530423,0.0,0.0,0.0,0.74198467,-0.31397632,0.0,0.0,0.0,0.0,0.0,0.0,0.0,0.0,0.43968296,0.0,0.0,nan,0.0,0.0,-0.0044516623,-0.010838777,0.012026584,0.0120755285,0.0,0.0,0.0,0.0,0.0
313031502,313030551,0.0,0.0,0.0,1.0657629,-0.44030228,0.0,0.0,0.0,0.0,0.0,0.0,0.0,0.0,0.5584936,0.0,0.0,nan,0.0,0.0,-0.04259698,-0.010838777,0.012026584,0.0120755285,0.0,0.0,0.0,0.0,0.0
314036354,314035798,0.0,0.0,0.0,1.4933345,-0.5441297,0.0,0.0,0.0,0.0,0.0,0.0,0.0,0.0,1.0132957,0.0,0.0,nan,0.0,0.0,-0.05826963,-0.010838777,0.012026584,0.0120755285,0.0,0.0,0.0,0.0,0.0
315036957,315036376,0.0,0.0,0.0,1.6967086,-0.51971424,0.0,0.0,0.0,0.0,0.0,0.0,0.0,0.0,1.391202,0.0,0.0,nan,0.0,0.0,-0.0012594014,-0.010838777,0.012026584,0.0120755285,0.0,0.0,0.0,0.0,0.0
315537361,315536760,0.0,0.0,0.0,1.736077,-0.49644607,0.0,0.0,0.0,0.0,0.0,0.0,0.0,0.0,1.2897024,0.0,0.0,nan,0.0,0.0,0.048433423,-0.010838777,0.012026584,0.0120755285,0.0,0.0,0.0,0.0,0.0
316037466,316037035,0.0,0.0,0.0,1.7641959,-0.4837908,0.0,0.0,0.0,0.0,0.0,0.0,0.0,0.0,1.4541073,0.0,0.0,nan,0.0,0.0,0.092557535,-0.010838777,0.012026584,0.0120755285,0.0,0.0,0.0,0.0,0.0
316533441,316532857,0.0,0.0,0.0,1.7370659,-0.5303485,0.0,0.0,0.0,0.0,0.0,0.0,0.0,0.0,1.3265886,0.0,0.0,nan,0.0,0.0,0.1465662,-0.010838777,0.012026584,0.0120755285,0.0,0.0,0.0,0.0,0.0
317038291,317037913,0.0,0.0,0.0,1.7135645,-0.5859413,0.0,0.0,0.0,0.0,0.0,0.0,0.0,0.0,1.5692911,0.0,0.0,nan,0.0,0.0,0.1922235,-0.010838777,0.012026584,0.0120755285,0.0,0.0,0.0,0.0,0.0
317538536,317538024,0.0,0.0,0.0,1.6781355,-0.6803426,0.0,0.0,0.0,0.0,0.0,0.0,0.0,0.0,1.3803606,0.0,0.0,nan,0.0,0.0,0.22331348,-0.010838777,0.012026584,0.0120755285,0.0,0.0,0.0,0.0,0.0
318038873,318038401,0.0,0.0,0.0,1.6497526,-0.7398021,0.0,0.0,0.0,0.0,0.0,0.0,0.0,0.0,1.2641087,0.0,0.0,nan,0.0,0.0,0.24798764,-0.010838777,0.012026584,0.0120755285,0.0,0.0,0.0,0.0,0.0
318534763,318534221,0.0,0.0,0.0,1.6144314,-0.7392871,0.0,0.0,0.0,0.0,0.0,0.0,0.0,0.0,1.5419183,0.0,0.0,nan,0.0,0.0,0.28882784,-0.010838777,0.012026584,0.0120755285,0.0,0.0,0.0,0.0,0.0
319030679,319030183,0.0,0.0,0.0,1.6057813,-0.689322,0.0,0.0,0.0,0.0,0.0,0.0,0.0,0.0,1.3290424,0.0,0.0,nan,0.0,0.0,0.30893195,-0.010838777,0.012026584,0.0120755285,0.0,0.0,0.0,0.0,0.0
319531032,319530327,0.0,0.0,0.0,1.6154013,-0.6326355,0.0,0.0,0.0,0.0,0.0,0.0,0.0,0.0,1.1430149,0.0,0.0,nan,0.0,0.0,0.2926827,-0.010838777,0.012026584,0.0120755285,0.0,0.0,0.0,0.0,0.0
320027334,320026317,0.0,0.0,0.0,1.629216,-0.5422928,0.0,0.0,0.0,0.0,0.0,0.0,0.0,0.0,1.3713555,0.0,0.0,nan,0.0,0.0,0.26333964,-0.010838777,0.012026584,0.0120755285,0.0,0.0,0.0,0.0,0.0
320536682,320535616,0.0,0.0,0.0,1.6395819,-0.48799443,0.0,0.0,0.0,0.0,0.0,0.0,0.0,0.0,1.1140413,0.0,0.0,nan,0.0,0.0,0.24163274,-0.010838777,0.012026584,0.0120755285,0.0,0.0,0.0,0.0,0.0
321036508,321035869,0.0,0.0,0.0,1.6404967,-0.42093837,0.0,0.0,0.0,0.0,0.0,0.0,0.0,0.0,0.81430197,0.0,0.0,nan,0.0,0.0,0.20953545,-0.010838777,0.012026584,0.0120755285,0.0,0.0,0.0,0.0,0.0
322032473,322031974,0.0,0.0,0.0,1.5849122,-0.33214718,0.0,0.0,0.0,0.0,0.0,0.0,0.0,0.0,1.0128098,0.0,0.0,nan,0.0,0.0,0.14717409,-0.010838777,0.012026584,0.0120755285,0.0,0.0,0.0,0.0,0.0
323033501,323032636,0.0,0.0,0.0,1.43115,-0.22068465,0.0,0.0,0.0,0.0,0.0,0.0,0.0,0.0,0.7958975,0.0,0.0,nan,0.0,0.0,0.032156378,-0.010838777,0.012026584,0.0120755285,0.0,0.0,0.0,0.0,0.0
323538313,323537754,0.0,0.0,0.0,1.3484219,-0.17194639,0.0,0.0,0.0,0.0,0.0,0.0,0.0,0.0,0.9902086,0.0,0.0,nan,0.0,0.0,-0.016487598,-0.010838777,0.012026584,0.0120755285,0.0,0.0,0.0,0.0,0.0
324038433,324037800,0.0,0.0,0.0,1.2535667,-0.12655714,0.0,0.0,0.0,0.0,0.0,0.0,0.0,0.0,1.0308428,0.0,0.0,nan,0.0,0.0,-0.02365926,-0.010838777,0.012026584,0.0120755285,0.0,0.0,0.0,0.0,0.0
325038835,325038458,0.0,0.0,0.0,0.99575585,-0.03929599,0.0,0.0,0.0,0.0,0.0,0.0,0.0,0.0,1.05054,0.0,0.0,nan,0.0,0.0,0.013051152,-0.010838777,0.012026584,0.0120755285,0.0,0.0,0.0,0.0,0.0
326039690,326039309,0.0,0.0,0.0,0.7159765,0.049631324,0.0,0.0,0.0,0.0,0.0,0.0,0.0,0.0,0.7861881,0.0,0.0,nan,0.0,0.0,0.059839815,-0.010838777,0.012026584,0.0120755285,0.0,0.0,0.0,0.0,0.0
327035867,327035435,0.0,0.0,0.0,0.46930304,0.14821984,0.0,0.0,0.0,0.0,0.0,0.0,0.0,0.0,1.11204,0.0,0.0,nan,0.0,0.0,0.1160098,-0.010838777,0.012026584,0.0120755285,0.0,0.0,0.0,0.0,0.0
328032149,328031586,0.0,0.0,0.0,0.28431946,0.22247615,0.0,0.0,0.0,0.0,0.0,0.0,0.0,0.0,1.1443934,0.0,0.0,nan,0.0,0.0,0.14765608,-0.010838777,0.012026584,0.0120755285,0.0,0.0,0.0,0.0,0.0
328532380,328531748,0.0,0.0,0.0,0.23843083,0.2822689,0.0,0.0,0.0,0.0,0.0,0.0,0.0,0.0,1.1240206,0.0,0.0,nan,0.0,0.0,0.13561282,-0.010838777,0.012026584,0.0120755285,0.0,0.0,0.0,0.0,0.0
329037136,329036629,0.0,0.0,0.0,0.20723057,0.38592157,0.0,0.0,0.0,0.0,0.0,0.0,0.0,0.0,1.1334877,0.0,0.0,nan,0.0,0.0,0.12655687,-0.010838777,0.012026584,0.0120755285,0.0,0.0,0.0,0.0,0.0
330024417,330023845,0.0,0.0,0.0,0.043490734,0.42618084,0.0,0.0,0.0,0.0,0.0,0.0,0.0,0.0,1.4139843,0.0,0.0,nan,0.0,0.0,0.14248785,-0.010838777,0.012026584,0.0120755285,0.0,0.0,0.0,0.0,0.0
331038562,331037899,0.0,0.0,0.0,-0.18290734,0.42862153,0.0,0.0,0.0,0.0,0.0,0.0,0.0,0.0,1.358746,0.0,0.0,nan,0.0,0.0,0.332154,-0.010838777,0.012026584,0.0120755285,0.0,0.0,0.0,0.0,0.0
331534345,331533721,0.0,0.0,0.0,-0.25359845,0.43327603,0.0,0.0,0.0,0.0,0.0,0.0,0.0,0.0,1.2021475,0.0,0.0,nan,0.0,0.0,0.41591024,-0.010838777,0.012026584,0.0120755285,0.0,0.0,0.0,0.0,0.0
332034457,332034095,0.0,0.0,0.0,-0.33547032,0.43638974,0.0,0.0,0.0,0.0,0.0,0.0,0.0,0.0,1.229794,0.0,0.0,nan,0.0,0.0,0.4371281,-0.010838777,0.012026584,0.0120755285,0.0,0.0,0.0,0.0,0.0
333026519,333025960,0.0,0.0,0.0,-0.5151362,0.4618165,0.0,0.0,0.0,0.0,0.0,0.0,0.0,0.0,1.4644465,0.0,0.0,nan,0.0,0.0,0.20725209,-0.010838777,0.012026584,0.0120755285,0.0,0.0,0.0,0.0,0.0
333535835,333535266,0.0,0.0,0.0,-0.5772531,0.4778317,0.0,0.0,0.0,0.0,0.0,0.0,0.0,0.0,1.1776247,0.0,0.0,nan,0.0,0.0,0.11198655,-0.010838777,0.012026584,0.0120755285,0.0,0.0,0.0,0.0,0.0
334035874,334035365,0.0,0.0,0.0,-0.60750043,0.48503438,0.0,0.0,0.0,0.0,0.0,0.0,0.0,0.0,1.259757,0.0,0.0,nan,0.0,0.0,0.07568553,-0.010838777,0.012026584,0.0120755285,0.0,0.0,0.0,0.0,0.0
335032310,335031561,0.0,0.0,0.0,-0.66759926,0.4664652,0.0,0.0,0.0,0.0,0.0,0.0,0.0,0.0,1.3941717,0.0,0.0,nan,0.0,0.0,0.086024076,-0.010838777,0.012026584,0.0120755285,0.0,0.0,0.0,0.0,0.0
336037279,336036826,0.0,0.0,0.0,-0.71185845,0.5061536,0.0,0.0,0.0,0.0,0.0,0.0,0.0,0.0,1.4993682,0.0,0.0,nan,0.0,0.0,0.105520636,-0.010838777,0.012026584,0.0120755285,0.0,0.0,0.0,0.0,0.0
337034493,337032960,0.0,0.0,0.0,-0.7739097,0.59730744,0.0,0.0,0.0,0.0,0.0,0.0,0.0,0.0,1.3802967,0.0,0.0,nan,0.0,0.0,0.1078994,-0.010838777,0.012026584,0.0120755285,0.0,0.0,0.0,0.0,0.0
337533810,337533204,0.0,0.0,0.0,-0.7828876,0.62379867,0.0,0.0,0.0,0.0,0.0,0.0,0.0,0.0,1.7718115,0.0,0.0,nan,0.0,0.0,0.098490566,-0.010838777,0.012026584,0.0120755285,0.0,0.0,0.0,0.0,0.0
338038526,338037997,0.0,0.0,0.0,-0.7994327,0.64335936,0.0,0.0,0.0,0.0,0.0,0.0,0.0,0.0,1.558764,0.0,0.0,nan,0.0,0.0,0.08465463,-0.010838777,0.012026584,0.0120755285,0.0,0.0,0.0,0.0,0.0
338534180,338533816,0.0,0.0,0.0,-0.7893056,0.64327466,0.0,0.0,0.0,0.0,0.0,0.0,0.0,0.0,1.6337008,0.0,0.0,nan,0.0,0.0,0.056623995,-0.010838777,0.012026584,0.0120755285,0.0,0.0,0.0,0.0,0.0
339034585,339034145,0.0,0.0,0.0,-0.7810464,0.6436545,0.0,0.0,0.0,0.0,0.0,0.0,0.0,0.0,1.7779493,0.0,0.0,nan,0.0,0.0,0.052630812,-0.010838777,0.012026584,0.0120755285,0.0,0.0,0.0,0.0,0.0
340035757,340035097,0.0,0.0,0.0,-0.7876535,0.61506903,0.0,0.0,0.0,0.0,0.0,0.0,0.0,0.0,1.5913506,0.0,0.0,nan,0.0,0.0,0.029535681,-0.010838777,0.012026584,0.0120755285,0.0,0.0,0.0,0.0,0.0
341036031,341035459,0.0,0.0,0.0,-0.72253233,0.4622212,0.0,0.0,0.0,0.0,0.0,0.0,0.0,0.0,1.6814723,0.0,0.0,nan,0.0,0.0,0.048935622,-0.010838777,0.012026584,0.0120755285,0.0,0.0,0.0,0.0,0.0
342027730,342027348,0.0,0.0,0.0,-0.4882948,0.23235476,0.0,0.0,0.0,0.0,0.0,0.0,0.0,0.0,1.8284764,0.0,0.0,nan,0.0,0.0,0.016244173,-0.010838777,0.012026584,0.0120755285,0.0,0.0,0.0,0.0,0.0
343037278,343036773,0.0,0.0,0.0,-0.30615845,0.06631661,0.0,0.0,0.0,0.0,0.0,0.0,0.0,0.0,2.0029058,0.0,0.0,nan,0.0,0.0,-0.046842635,-0.010838777,0.012026584,0.0120755285,0.0,0.0,0.0,0.0,0.0
343533193,343532776,0.0,0.0,0.0,-0.2384411,0.00046999415,0.0,0.0,0.0,0.0,0.0,0.0,0.0,0.0,1.9081779,0.0,0.0,nan,0.0,0.0,-0.052967668,-0.010838777,0.012026584,0.0120755285,0.0,0.0,0.0,0.0,0.0
344034100,344032923,0.0,0.0,0.0,-0.13603482,-0.094613776,0.0,0.0,0.0,0.0,0.0,0.0,0.0,0.0,1.9045029,0.0,0.0,nan,0.0,0.0,-0.061261594,-0.010838777,0.012026584,0.0120755285,0.0,0.0,0.0,0.0,0.0
345038731,345038215,0.0,0.0,0.0,0.040327135,-0.24344312,0.0,0.0,0.0,0.0,0.0,0.0,0.0,0.0,2.255951,0.0,0.0,nan,0.0,0.0,-0.025112957,-0.010838777,0.012026584,0.0120755285,0.0,0.0,0.0,0.0,0.0
345539056,345538415,0.0,0.0,0.0,0.09627254,-0.30305004,0.0,0.0,0.0,0.0,0.0,0.0,0.0,0.0,2.035922,0.0,0.0,nan,0.0,0.0,0.010468096,-0.010838777,0.012026584,0.0120755285,0.0,0.0,0.0,0.0,0.0
346034708,346034330,0.0,0.0,0.0,0.13218795,-0.36638,0.0,0.0,0.0,0.0,0.0,0.0,0.0,0.0,1.9979157,0.0,0.0,nan,0.0,0.0,0.048939645,-0.010838777,0.012026584,0.0120755285,0.0,0.0,0.0,0.0,0.0
346539681,346539071,0.0,0.0,0.0,0.18254404,-0.47265714,0.0,0.0,0.0,0.0,0.0,0.0,0.0,0.0,2.0997882,0.0,0.0,nan,0.0,0.0,0.062110454,-0.010838777,0.012026584,0.0120755285,0.0,0.0,0.0,0.0,0.0
347039928,347039404,0.0,0.0,0.0,0.21592934,-0.53788906,0.0,0.0,0.0,0.0,0.0,0.0,0.0,0.0,2.051848,0.0,0.0,nan,0.0,0.0,0.022265673,-0.010838777,0.012026584,0.0120755285,0.0,0.0,0.0,0.0,0.0
347535644,347535220,0.0,0.0,0.0,0.2783886,-0.61009777,0.0,0.0,0.0,0.0,0.0,0.0,0.0,0.0,2.213542,0.0,0.0,nan,0.0,0.0,-0.0049043894,-0.010838777,0.012026584,0.0120755285,0.0,0.0,0.0,0.0,0.0
348031467,348031042,0.0,0.0,0.0,0.31550825,-0.6171925,0.0,0.0,0.0,0.0,0.0,0.0,0.0,0.0,2.2092104,0.0,0.0,nan,0.0,0.0,-0.055024803,-0.010838777,0.012026584,0.0120755285,0.0,0.0,0.0,0.0,0.0
349032876,349031699,0.0,0.0,0.0,0.40195704,-0.51485497,0.0,0.0,0.0,0.0,0.0,0.0,0.0,0.0,2.128655,0.0,0.0,nan,0.0,0.0,-0.07339725,-0.010838777,0.012026584,0.0120755285,0.0,0.0,0.0,0.0,0.0
349537087,349536540,0.0,0.0,0.0,0.43546253,-0.48008946,0.0,0.0,0.0,0.0,0.0,0.0,0.0,0.0,2.0951982,0.0,0.0,nan,0.0,0.0,-0.09122524,-0.010838777,0.012026584,0.0120755285,0.0,0.0,0.0,0.0,0.0
350037390,350036860,0.0,0.0,0.0,0.5013841,-0.45134464,0.0,0.0,0.0,0.0,0.0,0.0,0.0,0.0,2.193943,0.0,0.0,nan,0.0,0.0,-0.11305356,-0.010838777,0.012026584,0.0120755285,0.0,0.0,0.0,0.0,0.0
350533239,350532681,0.0,0.0,0.0,0.5606142,-0.44731614,0.0,0.0,0.0,0.0,0.0,0.0,0.0,0.0,2.2096615,0.0,0.0,nan,0.0,0.0,-0.15925203,-0.010838777,0.012026584,0.0120755285,0.0,0.0,0.0,0.0,0.0
351034476,351033054,0.0,0.0,0.0,0.66909814,-0.45835593,0.0,0.0,0.0,0.0,0.0,0.0,0.0,0.0,2.2159743,0.0,0.0,nan,0.0,0.0,-0.18015468,-0.010838777,0.012026584,0.0120755285,0.0,0.0,0.0,0.0,0.0
351529599,351528875,0.0,0.0,0.0,0.72317296,-0.4670937,0.0,0.0,0.0,0.0,0.0,0.0,0.0,0.0,2.3689537,0.0,0.0,nan,0.0,0.0,-0.18119378,-0.010838777,0.012026584,0.0120755285,0.0,0.0,0.0,0.0,0.0
352038958,352038171,0.0,0.0,0.0,0.8042442,-0.50744987,0.0,0.0,0.0,0.0,0.0,0.0,0.0,0.0,2.2184196,0.0,0.0,nan,0.0,0.0,-0.06409934,-0.010838777,0.012026584,0.0120755285,0.0,0.0,0.0,0.0,0.0
352534513,352534135,0.0,0.0,0.0,0.8363347,-0.5389315,0.0,0.0,0.0,0.0,0.0,0.0,0.0,0.0,2.3075538,0.0,0.0,nan,0.0,0.0,0.0006144047,-0.010838777,0.012026584,0.0120755285,0.0,0.0,0.0,0.0,0.0
353035019,353034319,0.0,0.0,0.0,0.8304477,-0.5666672,0.0,0.0,0.0,0.0,0.0,0.0,0.0,0.0,2.3875766,0.0,0.0,nan,0.0,0.0,0.045660198,-0.010838777,0.012026584,0.0120755285,0.0,0.0,0.0,0.0,0.0
353539666,353539154,0.0,0.0,0.0,0.7252114,-0.54700947,0.0,0.0,0.0,0.0,0.0,0.0,0.0,0.0,2.2226453,0.0,0.0,nan,0.0,0.0,0.04333201,-0.010838777,0.012026584,0.0120755285,0.0,0.0,0.0,0.0,0.0
354040244,354039564,0.0,0.0,0.0,0.63877314,-0.5246176,0.0,0.0,0.0,0.0,0.0,0.0,0.0,0.0,2.2188659,0.0,0.0,nan,0.0,0.0,0.051258087,-0.010838777,0.012026584,0.0120755285,0.0,0.0,0.0,0.0,0.0
354526845,354526459,0.0,0.0,0.0,0.4675633,-0.4767309,0.0,0.0,0.0,0.0,0.0,0.0,0.0,0.0,2.3778543,0.0,0.0,nan,0.0,0.0,0.03698939,-0.010838777,0.012026584,0.0120755285,0.0,0.0,0.0,0.0,0.0
355036116,355035756,0.0,0.0,0.0,0.3248135,-0.4209713,0.0,0.0,0.0,0.0,0.0,0.0,0.0,0.0,2.248026,0.0,0.0,nan,0.0,0.0,0.062537566,-0.010838777,0.012026584,0.0120755285,0.0,0.0,0.0,0.0,0.0
355536819,355535958,0.0,0.0,0.0,0.11944649,-0.31426468,0.0,0.0,0.0,0.0,0.0,0.0,0.0,0.0,2.3285046,0.0,0.0,nan,0.0,0.0,0.02624172,-0.010838777,0.012026584,0.0120755285,0.0,0.0,0.0,0.0,0.0
356037188,356036334,0.0,0.0,0.0,-0.020258795,-0.191645,0.0,0.0,0.0,0.0,0.0,0.0,0.0,0.0,2.2266922,0.0,0.0,nan,0.0,0.0,0.030855551,-0.010838777,0.012026584,0.0120755285,0.0,0.0,0.0,0.0,0.0
356537175,356536615,0.0,0.0,0.0,-0.1359348,-0.04593936,0.0,0.0,0.0,0.0,0.0,0.0,0.0,0.0,2.3217416,0.0,0.0,nan,0.0,0.0,0.06352195,-0.010838777,0.012026584,0.0120755285,0.0,0.0,0.0,0.0,0.0
357037361,357036940,0.0,0.0,0.0,-0.24077247,0.15640034,0.0,0.0,0.0,0.0,0.0,0.0,0.0,0.0,2.2599773,0.0,0.0,nan,0.0,0.0,0.080357,-0.010838777,0.012026584,0.0120755285,0.0,0.0,0.0,0.0,0.0
357533353,357532760,0.0,0.0,0.0,-0.27683532,0.27009672,0.0,0.0,0.0,0.0,0.0,0.0,0.0,0.0,2.3892312,0.0,0.0,nan,0.0,0.0,0.09143175,-0.010838777,0.012026584,0.0120755285,0.0,0.0,0.0,0.0,0.0
358033660,358033088,0.0,0.0,0.0,-0.3040448,0.38816518,0.0,0.0,0.0,0.0,0.0,0.0,0.0,0.0,2.3231926,0.0,0.0,nan,0.0,0.0,0.08229476,-0.010838777,0.012026584,0.0120755285,0.0,0.0,0.0,0.0,0.0
358525284,358524702,0.0,0.0,0.0,-0.29943848,0.4355029,0.0,0.0,0.0,0.0,0.0,0.0,0.0,0.0,2.2336502,0.0,0.0,nan,0.0,0.0,0.10450187,-0.010838777,0.012026584,0.0120755285,0.0,0.0,0.0,0.0,0.0
359034548,359033949,0.0,0.0,0.0,-0.27800566,0.46723625,0.0,0.0,0.0,0.0,0.0,0.0,0.0,0.0,2.2871332,0.0,0.0,nan,0.0,0.0,0.09633495,-0.010838777,0.012026584,0.0120755285,0.0,0.0,0.0,0.0,0.0
359534577,359534070,0.0,0.0,0.0,-0.20587203,0.47971192,0.0,0.0,0.0,0.0,0.0,0.0,0.0,0.0,2.3822265,0.0,0.0,nan,0.0,0.0,0.1300696,-0.010838777,0.012026584,0.0120755285,0.0,0.0,0.0,0.0,0.0
360030552,360030054,0.0,0.0,0.0,-0.13143422,0.4618465,0.0,0.0,0.0,0.0,0.0,0.0,0.0,0.0,2.2939777,0.0,0.0,nan,0.0,0.0,0.12163389,-0.010838777,0.012026584,0.0120755285,0.0,0.0,0.0,0.0,0.0
360539852,360539347,0.0,0.0,0.0,0.018424936,0.4124814,0.0,0.0,0.0,0.0,0.0,0.0,0.0,0.0,2.2819939,0.0,0.0,nan,0.0,0.0,0.13259108,-0.010838777,0.012026584,0.0120755285,0.0,0.0,0.0,0.0,0.0
361026580,361026196,0.0,0.0,0.0,0.110431425,0.36101678,0.0,0.0,0.0,0.0,0.0,0.0,0.0,0.0,2.3170357,0.0,0.0,nan,0.0,0.0,0.12588298,-0.010838777,0.012026584,0.0120755285,0.0,0.0,0.0,0.0,0.0
362036393,362035707,0.0,0.0,0.0,0.24119954,0.10960873,0.0,0.0,0.0,0.0,0.0,0.0,0.0,0.0,2.462511,0.0,0.0,nan,0.0,0.0,0.09300363,-0.010838777,0.012026584,0.0120755285,0.0,0.0,0.0,0.0,0.0
362532101,362531607,0.0,0.0,0.0,0.2821098,0.005752162,0.0,0.0,0.0,0.0,0.0,0.0,0.0,0.0,2.2325854,0.0,0.0,nan,0.0,0.0,0.07479739,-0.010838777,0.012026584,0.0120755285,0.0,0.0,0.0,0.0,0.0
363036955,363036364,0.0,0.0,0.0,0.35440716,-0.19225687,0.0,0.0,0.0,0.0,0.0,0.0,0.0,0.0,2.2905984,0.0,0.0,nan,0.0,0.0,0.07834226,-0.010838777,0.012026584,0.0120755285,0.0,0.0,0.0,0.0,0.0
363540895,363536694,0.0,0.0,0.0,0.2849771,-0.32478717,0.0,0.0,0.0,0.0,0.0,0.0,0.0,0.0,2.0534606,0.0,0.0,nan,0.0,0.0,0.078094214,0.0045728087,-0.005278945,-0.0036376864,0.0,0.0,0.0,0.0,0.0
364032902,364032517,0.0,0.0,0.0,0.18272936,-0.529549,0.0,0.0,0.0,0.0,0.0,0.0,0.0,0.0,2.3620782,0.0,0.0,nan,0.0,0.0,0.078094214,0.018100977,0.0057318658,0.00033706427,0.0,0.0,0.0,0.0,0.0
364537703,364532881,0.0,0.0,0.0,0.14286773,-0.55675364,0.0,0.0,0.0,0.0,0.0,0.0,0.0,0.0,2.4194522,0.0,0.0,nan,0.0,0.0,0.078094214,0.027114466,0.021596476,-0.002319187,0.0,0.0,0.0,0.0,0.0
365033700,365033167,0.0,0.0,0.0,0.12608147,-0.5898792,0.0,0.0,0.0,0.0,0.0,0.0,0.0,0.0,2.358829,0.0,0.0,nan,0.0,0.0,0.078094214,0.02692315,0.022783354,0.007256791,0.0,0.0,0.0,0.0,0.0
365536735,365533723,0.0,0.0,0.0,-0.051704563,-0.5998118,0.0,0.0,0.0,0.0,0.0,0.0,0.0,0.0,2.324974,0.0,0.0,nan,0.0,0.0,0.078094214,0.023650184,0.03971502,0.02123107,0.0,0.0,0.0,0.0,0.0
366037549,366033819,0.0,0.0,0.0,-0.30094305,-0.52097297,0.0,0.0,0.0,0.0,0.0,0.0,0.0,0.0,2.3294973,0.0,0.0,nan,0.0,0.0,0.078094214,0.020527244,0.03565663,0.009512708,0.0,0.0,0.0,0.0,0.0
366536281,366534143,0.0,0.0,0.0,-0.505776,-0.30421835,0.0,0.0,0.0,0.0,0.0,0.0,0.0,0.0,2.5108986,0.0,0.0,nan,0.0,0.0,0.078094214,0.022194834,0.051485375,0.015211508,0.0,0.0,0.0,0.0,0.0
367041103,367039142,0.0,0.0,0.0,-0.6251411,-0.06989243,0.0,0.0,0.0,0.0,0.0,0.0,0.0,0.0,2.2019773,0.0,0.0,nan,0.0,0.0,0.078094214,0.008493131,0.04209745,0.014987797,0.0,0.0,0.0,0.0,0.0
368532939,368530944,0.0,0.0,0.0,-1.0168668,0.6356253,0.0,0.0,0.0,0.0,0.0,0.0,0.0,0.0,2.1343718,0.0,0.0,nan,0.0,0.0,0.078094214,0.010680407,0.01672782,-0.006031558,0.0,0.0,0.0,0.0,0.0
369031883,369031386,0.0,0.0,0.0,-1.0583545,0.6591798,0.0,0.0,0.0,0.0,0.0,0.0,0.0,0.0,1.9942126,0.0,0.0,nan,0.0,0.0,0.078094214,0.0052665174,0.008615226,0.015550688,0.0,0.0,0.0,0.0,0.0
369532109,369531595,0.0,0.0,0.0,-1.07679,0.7320325,0.0,0.0,0.0,0.0,0.0,0.0,0.0,0.0,1.9985046,0.0,0.0,nan,0.0,0.0,0.078094214,0.019853204,0.0105519295,0.017215982,0.0,0.0,0.0,0.0,0.0
370038942,370036429,0.0,0.0,0.0,-1.0549884,0.7801101,0.0,0.0,0.0,0.0,0.0,0.0,0.0,0.0,2.057024,0.0,0.0,nan,0.0,0.0,0.078094214,-0.003027156,-0.030162618,0.0421277,0.0,0.0,0.0,0.0,0.0
370534440,370532250,0.0,0.0,0.0,-1.0228783,0.719657,0.0,0.0,0.0,0.0,0.0,0.0,0.0,0.0,2.228024,0.0,0.0,nan,0.0,0.0,0.078094214,0.003651306,-0.050840512,0.049092352,0.0,0.0,0.0,0.0,0.0
371033078,371032576,0.0,0.0,0.0,-0.96959805,0.60519457,0.0,0.0,0.0,0.0,0.0,0.0,0.0,0.0,1.9866915,0.0,0.0,nan,0.0,0.0,-0.10491419,0.011650607,-0.052139446,0.01989998,0.0,0.0,0.0,0.0,0.0
371533443,371532942,0.0,0.0,0.0,-0.9219225,0.5643282,0.0,0.0,0.0,0.0,0.0,0.0,0.0,0.0,2.0975742,0.0,0.0,nan,0.0,0.0,-0.11710262,0.011650607,-0.052139446,0.01989998,0.0,0.0,0.0,0.0,0.0
372029142,372028774,0.0,0.0,0.0,-0.8077057,0.5238592,0.0,0.0,0.0,0.0,0.0,0.0,0.0,0.0,2.1156874,0.0,0.0,nan,0.0,0.0,-0.19286454,0.011650607,-0.052139446,0.01989998,0.0,0.0,0.0,0.0,0.0
372535014,372533599,0.0,0.0,0.0,-0.7078364,0.5126605,0.0,0.0,0.0,0.0,0.0,0.0,0.0,0.0,2.2553873,0.0,0.0,nan,0.0,0.0,-0.24413037,0.011650607,-0.052139446,0.01989998,0.0,0.0,0.0,0.0,0.0
373034386,373033879,0.0,0.0,0.0,-0.58130103,0.49104118,0.0,0.0,0.0,0.0,0.0,0.0,0.0,0.0,2.3224688,0.0,0.0,nan,0.0,0.0,-0.2923535,0.011650607,-0.052139446,0.01989998,0.0,0.0,0.0,0.0,0.0
373534760,373534211,0.0,0.0,0.0,-0.34127533,0.4465271,0.0,0.0,0.0,0.0,0.0,0.0,0.0,0.0,2.1343455,0.0,0.0,nan,0.0,0.0,-0.1898408,0.011650607,-0.052139446,0.01989998,0.0,0.0,0.0,0.0,0.0
374039688,374039041,0.0,0.0,0.0,-0.1373775,0.38691756,0.0,0.0,0.0,0.0,0.0,0.0,0.0,0.0,2.332148,0.0,0.0,nan,0.0,0.0,-0.27933252,0.011650607,-0.052139446,0.01989998,0.0,0.0,0.0,0.0,0.0
375036392,375035228,0.0,0.0,0.0,0.3731171,0.29262665,0.0,0.0,0.0,0.0,0.0,0.0,0.0,0.0,2.4807925,0.0,0.0,nan,0.0,0.0,-0.14735425,0.011650607,-0.052139446,0.01989998,0.0,0.0,0.0,0.0,0.0
375531543,375531159,0.0,0.0,0.0,0.67616373,0.29893124,0.0,0.0,0.0,0.0,0.0,0.0,0.0,0.0,2.5912347,0.0,0.0,nan,0.0,0.0,-0.10207045,0.011650607,-0.052139446,0.01989998,0.0,0.0,0.0,0.0,0.0
376032049,376031328,0.0,0.0,0.0,0.862864,0.3368945,0.0,0.0,0.0,0.0,0.0,0.0,0.0,0.0,2.6209264,0.0,0.0,nan,0.0,0.0,0.015778184,0.011650607,-0.052139446,0.01989998,0.0,0.0,0.0,0.0,0.0
376527794,376527269,0.0,0.0,0.0,1.0304667,0.3828823,0.0,0.0,0.0,0.0,0.0,0.0,0.0,0.0,2.6288157,0.0,0.0,nan,0.0,0.0,-0.077103734,0.011650607,-0.052139446,0.01989998,0.0,0.0,0.0,0.0,0.0
377037112,377036626,0.0,0.0,0.0,1.3034796,0.48459938,0.0,0.0,0.0,0.0,0.0,0.0,0.0,0.0,2.442122,0.0,0.0,nan,0.0,0.0,-0.10512221,0.011650607,-0.052139446,0.01989998,0.0,0.0,0.0,0.0,0.0
378037938,378037138,0.0,0.0,0.0,1.822729,0.62107116,0.0,0.0,0.0,0.0,0.0,0.0,0.0,0.0,2.5658054,0.0,0.0,nan,0.0,0.0,-0.1743108,0.011650607,-0.052139446,0.01989998,0.0,0.0,0.0,0.0,0.0
378537952,378537464,0.0,0.0,0.0,2.0092087,0.65099657,0.0,0.0,0.0,0.0,0.0,0.0,0.0,0.0,2.5894117,0.0,0.0,nan,0.0,0.0,-0.11068106,0.011650607,-0.052139446,0.01989998,0.0,0.0,0.0,0.0,0.0
379029296,379028815,0.0,0.0,0.0,2.206562,0.6301118,0.0,0.0,0.0,0.0,0.0,0.0,0.0,0.0,2.468474,0.0,0.0,nan,0.0,0.0,-0.07440817,0.011650607,-0.052139446,0.01989998,0.0,0.0,0.0,0.0,0.0
380030103,380029425,0.0,0.0,0.0,2.4373574,0.5166372,0.0,0.0,0.0,0.0,0.0,0.0,0.0,0.0,2.510126,0.0,0.0,nan,0.0,0.0,-0.026417613,0.011650607,-0.052139446,0.01989998,0.0,0.0,0.0,0.0,0.0
381039473,381039092,0.0,0.0,0.0,2.5104942,0.4170491,0.0,0.0,0.0,0.0,0.0,0.0,0.0,0.0,2.5836272,0.0,0.0,nan,0.0,0.0,-0.06215179,0.011650607,-0.052139446,0.01989998,0.0,0.0,0.0,0.0,0.0
381535529,381534908,0.0,0.0,0.0,2.548127,0.38151333,0.0,0.0,0.0,0.0,0.0,0.0,0.0,0.0,2.4164915,0.0,0.0,nan,0.0,0.0,-0.11256945,0.011650607,-0.052139446,0.01989998,0.0,0.0,0.0,0.0,0.0
382031928,382030914,0.0,0.0,0.0,2.5533907,0.36600706,0.0,0.0,0.0,0.0,0.0,0.0,0.0,0.0,2.573351,0.0,0.0,nan,0.0,0.0,-0.12979054,0.011650607,-0.052139446,0.01989998,0.0,0.0,0.0,0.0,0.0
382531674,382531051,0.0,0.0,0.0,2.579976,0.37082002,0.0,0.0,0.0,0.0,0.0,0.0,0.0,0.0,2.511526,0.0,0.0,nan,0.0,0.0,-0.17150044,0.011650607,-0.052139446,0.01989998,0.0,0.0,0.0,0.0,0.0
383027412,383027038,0.0,0.0,0.0,2.6004052,0.38930747,0.0,0.0,0.0,0.0,0.0,0.0,0.0,0.0,2.4854527,0.0,0.0,nan,0.0,0.0,-0.12307322,0.011650607,-0.052139446,0.01989998,0.0,0.0,0.0,0.0,0.0
383536846,383536391,0.0,0.0,0.0,2.6041915,0.41767108,0.0,0.0,0.0,0.0,0.0,0.0,0.0,0.0,2.283893,0.0,0.0,nan,0.0,0.0,-0.18390429,0.011650607,-0.052139446,0.01989998,0.0,0.0,0.0,0.0,0.0
384037046,384036534,0.0,0.0,0.0,2.5219204,0.46435958,0.0,0.0,0.0,0.0,0.0,0.0,0.0,0.0,2.3933372,0.0,0.0,nan,0.0,0.0,-0.14692259,0.011650607,-0.052139446,0.01989998,0.0,0.0,0.0,0.0,0.0
384533790,384532449,0.0,0.0,0.0,2.4137528,0.53286195,0.0,0.0,0.0,0.0,0.0,0.0,0.0,0.0,2.3563938,0.0,0.0,nan,0.0,0.0,-0.0625999,0.011650607,-0.052139446,0.01989998,0.0,0.0,0.0,0.0,0.0
385037621,385037184,0.0,0.0,0.0,2.2309482,0.64634067,0.0,0.0,0.0,0.0,0.0,0.0,0.0,0.0,2.2335238,0.0,0.0,nan,0.0,0.0,-0.032536864,0.011650607,-0.052139446,0.01989998,0.0,0.0,0.0,0.0,0.0
385537929,385537554,0.0,0.0,0.0,2.1267962,0.70710945,0.0,0.0,0.0,0.0,0.0,0.0,0.0,0.0,2.4207268,0.0,0.0,nan,0.0,0.0,0.034229994,0.011650607,-0.052139446,0.01989998,0.0,0.0,0.0,0.0,0.0
386029642,386028818,0.0,0.0,0.0,2.054465,0.79285467,0.0,0.0,0.0,0.0,0.0,0.0,0.0,0.0,2.493547,0.0,0.0,nan,0.0,0.0,0.015710235,0.011650607,-0.052139446,0.01989998,0.0,0.0,0.0,0.0,0.0
386530006,386529189,0.0,0.0,0.0,2.0057354,0.8269722,0.0,0.0,0.0,0.0,0.0,0.0,0.0,0.0,2.2736812,0.0,0.0,nan,0.0,0.0,0.053289533,0.011650607,-0.052139446,0.01989998,0.0,0.0,0.0,0.0,0.0
387025711,387025262,0.0,0.0,0.0,1.9490969,0.86218566,0.0,0.0,0.0,0.0,0.0,0.0,0.0,0.0,2.426715,0.0,0.0,nan,0.0,0.0,-0.030801535,0.011650607,-0.052139446,0.01989998,0.0,0.0,0.0,0.0,0.0
387534925,387534546,0.0,0.0,0.0,1.804605,0.8540979,0.0,0.0,0.0,0.0,0.0,0.0,0.0,0.0,2.3607926,0.0,0.0,nan,0.0,0.0,0.01737094,0.011650607,-0.052139446,0.01989998,0.0,0.0,0.0,0.0,0.0
388035205,388034626,0.0,0.0,0.0,1.7321774,0.80163187,0.0,0.0,0.0,0.0,0.0,0.0,0.0,0.0,2.3461032,0.0,0.0,nan,0.0,0.0,-0.1095804,0.011650607,-0.052139446,0.01989998,0.0,0.0,0.0,0.0,0.0
388531065,388530667,0.0,0.0,0.0,1.6152494,0.67448515,0.0,0.0,0.0,0.0,0.0,0.0,0.0,0.0,2.126768,0.0,0.0,nan,0.0,0.0,-0.15045822,0.011650607,-0.052139446,0.01989998,0.0,0.0,0.0,0.0,0.0
389032111,389030812,0.0,0.0,0.0,1.5198209,0.55953145,0.0,0.0,0.0,0.0,0.0,0.0,0.0,0.0,2.1333632,0.0,0.0,nan,0.0,0.0,-0.21369255,0.011650607,-0.052139446,0.01989998,0.0,0.0,0.0,0.0,0.0
389527492,389526784,0.0,0.0,0.0,1.3871541,0.36394307,0.0,0.0,0.0,0.0,0.0,0.0,0.0,0.0,2.3697443,0.0,0.0,nan,0.0,0.0,-0.14768553,0.011650607,-0.052139446,0.01989998,0.0,0.0,0.0,0.0,0.0
390036584,390036075,0.0,0.0,0.0,1.3004098,0.24422789,0.0,0.0,0.0,0.0,0.0,0.0,0.0,0.0,2.1625323,0.0,0.0,nan,0.0,0.0,-0.08042979,0.011650607,-0.052139446,0.01989998,0.0,0.0,0.0,0.0,0.0
390532234,390531743,0.0,0.0,0.0,1.2080785,0.12311442,0.0,0.0,0.0,0.0,0.0,0.0,0.0,0.0,2.297071,0.0,0.0,nan,0.0,0.0,-0.024756312,0.011650607,-0.052139446,0.01989998,0.0,0.0,0.0,0.0,0.0
391032816,391032189,0.0,0.0,0.0,1.072469,-0.030829081,0.0,0.0,0.0,0.0,0.0,0.0,0.0,0.0,2.136959,0.0,0.0,nan,0.0,0.0,-0.003264308,0.011650607,-0.052139446,0.01989998,0.0,0.0,0.0,0.0,0.0
391534128,391532434,0.0,0.0,0.0,0.9979277,-0.09087637,0.0,0.0,0.0,0.0,0.0,0.0,0.0,0.0,2.1292915,0.0,0.0,nan,0.0,0.0,-0.0011348724,0.011650607,-0.052139446,0.01989998,0.0,0.0,0.0,0.0,0.0
392037713,392037226,0.0,0.0,0.0,0.8920187,-0.11320228,0.0,0.0,0.0,0.0,0.0,0.0,0.0,0.0,2.1072073,0.0,0.0,nan,0.0,0.0,0.036258936,0.011650607,-0.052139446,0.01989998,0.0,0.0,0.0,0.0,0.0
392533539,392533037,0.0,0.0,0.0,0.8349593,-0.07249906,0.0,0.0,0.0,0.0,0.0,0.0,0.0,0.0,1.937151,0.0,0.0,nan,0.0,0.0,0.03642404,0.011650607,-0.052139446,0.01989998,0.0,0.0,0.0,0.0,0.0
393024805,393024435,0.0,0.0,0.0,0.76939183,-0.0147812,0.0,0.0,0.0,0.0,0.0,0.0,0.0,0.0,2.0881915,0.0,0.0,nan,0.0,0.0,0.09831607,0.011650607,-0.052139446,0.01989998,0.0,0.0,0.0,0.0,0.0
393534273,393533719,0.0,0.0,0.0,0.6744618,0.08455293,0.0,0.0,0.0,0.0,0.0,0.0,0.0,0.0,2.1664948,0.0,0.0,nan,0.0,0.0,0.16906357,0.011650607,-0.052139446,0.01989998,0.0,0.0,0.0,0.0,0.0
394035376,394034271,0.0,0.0,0.0,0.597318,0.14246741,0.0,0.0,0.0,0.0,0.0,0.0,0.0,0.0,2.1913052,0.0,0.0,nan,0.0,0.0,0.17936516,0.011650607,-0.052139446,0.01989998,0.0,0.0,0.0,0.0,0.0
395035017,395034658,0.0,0.0,0.0,0.33239758,0.284964,0.0,0.0,0.0,0.0,0.0,0.0,0.0,0.0,2.288271,0.0,0.0,nan,0.0,0.0,0.33671367,0.011650607,-0.052139446,0.01989998,0.0,0.0,0.0,0.0,0.0
395535616,395534981,0.0,0.0,0.0,0.1314358,0.4226988,0.0,0.0,0.0,0.0,0.0,0.0,0.0,0.0,2.522849,0.0,0.0,nan,0.0,0.0,0.29134178,0.011650607,-0.052139446,0.01989998,0.0,0.0,0.0,0.0,0.0
396031328,396030798,0.0,0.0,0.0,0.0040707276,0.5105094,0.0,0.0,0.0,0.0,0.0,0.0,0.0,0.0,2.4014883,0.0,0.0,nan,0.0,0.0,0.3459705,0.011650607,-0.052139446,0.01989998,0.0,0.0,0.0,0.0,0.0
396536826,396535802,0.0,0.0,0.0,-0.100205794,0.5806695,0.0,0.0,0.0,0.0,0.0,0.0,0.0,0.0,2.4965572,0.0,0.0,nan,0.0,0.0,0.267879,0.011650607,-0.052139446,0.01989998,0.0,0.0,0.0,0.0,0.0
397036577,397035959,0.0,0.0,0.0,-0.2096098,0.64919883,0.0,0.0,0.0,0.0,0.0,0.0,0.0,0.0,2.6950655,0.0,0.0,nan,0.0,0.0,0.33197856,0.011650607,-0.052139446,0.01989998,0.0,0.0,0.0,0.0,0.0
397532461,397531919,0.0,0.0,0.0,-0.26714617,0.6329508,0.0,0.0,0.0,0.0,0.0,0.0,0.0,0.0,2.786067,0.0,0.0,nan,0.0,0.0,0.22969651,0.011650607,-0.052139446,0.01989998,0.0,0.0,0.0,0.0,0.0
398032615,398032093,0.0,0.0,0.0,-0.34511775,0.5186314,0.0,0.0,0.0,0.0,0.0,0.0,0.0,0.0,2.5869083,0.0,0.0,nan,0.0,0.0,0.21201515,0.011650607,-0.052139446,0.01989998,0.0,0.0,0.0,0.0,0.0
398532894,398532419,0.0,0.0,0.0,-0.38409007,0.39850312,0.0,0.0,0.0,0.0,0.0,0.0,0.0,0.0,2.6586065,0.0,0.0,nan,0.0,0.0,0.09900904,0.011650607,-0.052139446,0.01989998,0.0,0.0,0.0,0.0,0.0
399038115,399037390,0.0,0.0,0.0,-0.4276214,0.16244441,0.0,0.0,0.0,0.0,0.0,0.0,0.0,0.0,2.755845,0.0,0.0,nan,0.0,0.0,0.05884421,0.011650607,-0.052139446,0.01989998,0.0,0.0,0.0,0.0,0.0
399528952,399528556,0.0,0.0,0.0,-0.4468407,-0.018469559,0.0,0.0,0.0,0.0,0.0,0.0,0.0,0.0,2.7124085,0.0,0.0,nan,0.0,0.0,-0.060468674,0.011650607,-0.052139446,0.01989998,0.0,0.0,0.0,0.0,0.0
400029286,400028926,0.0,0.0,0.0,-0.4614393,-0.20524316,0.0,0.0,0.0,0.0,0.0,0.0,0.0,0.0,2.753118,0.0,0.0,nan,0.0,0.0,-0.15991378,0.011650607,-0.052139446,0.01989998,0.0,0.0,0.0,0.0,0.0
400534338,400533711,0.0,0.0,0.0,-0.47447827,-0.46127942,0.0,0.0,0.0,0.0,0.0,0.0,0.0,0.0,2.5046158,0.0,0.0,nan,0.0,0.0,-0.11792004,0.011650607,-0.052139446,0.01989998,0.0,0.0,0.0,0.0,0.0
401035321,401034036,0.0,0.0,0.0,-0.49179372,-0.5835628,0.0,0.0,0.0,0.0,0.0,0.0,0.0,0.0,2.6577077,0.0,0.0,nan,0.0,0.0,-0.0882225,0.011650607,-0.052139446,0.01989998,0.0,0.0,0.0,0.0,0.0
401530690,401530113,0.0,0.0,0.0,-0.6176774,-0.67892414,0.0,0.0,0.0,0.0,0.0,0.0,0.0,0.0,2.6957054,0.0,0.0,nan,0.0,0.0,0.0042961836,0.011650607,-0.052139446,0.01989998,0.0,0.0,0.0,0.0,0.0
402035225,402034742,0.0,0.0,0.0,-0.7615311,-0.6774829,0.0,0.0,0.0,0.0,0.0,0.0,0.0,0.0,2.4527783,0.0,0.0,nan,0.0,0.0,0.085656285,0.011650607,-0.052139446,0.01989998,0.0,0.0,0.0,0.0,0.0
402540030,402539520,0.0,0.0,0.0,-0.9537531,-0.6678749,0.0,0.0,0.0,0.0,0.0,0.0,0.0,0.0,2.556611,0.0,0.0,nan,0.0,0.0,0.16871655,0.011650607,-0.052139446,0.01989998,0.0,0.0,0.0,0.0,0.0
403036021,403035507,0.0,0.0,0.0,-1.0348412,-0.6745734,0.0,0.0,0.0,0.0,0.0,0.0,0.0,0.0,2.2861648,0.0,0.0,nan,0.0,0.0,0.18261135,0.011650607,-0.052139446,0.01989998,0.0,0.0,0.0,0.0,0.0
403536586,403535656,0.0,0.0,0.0,-1.0714258,-0.6920084,0.0,0.0,0.0,0.0,0.0,0.0,0.0,0.0,2.5024695,0.0,0.0,nan,0.0,0.0,0.18878138,0.011650607,-0.052139446,0.01989998,0.0,0.0,0.0,0.0,0.0
404032138,404031636,0.0,0.0,0.0,-1.0675734,-0.73851,0.0,0.0,0.0,0.0,0.0,0.0,0.0,0.0,2.486023,0.0,0.0,nan,0.0,0.0,0.13093972,0.011650607,-0.052139446,0.01989998,0.0,0.0,0.0,0.0,0.0
404532301,404531788,0.0,0.0,0.0,-1.0477828,-0.76683456,0.0,0.0,0.0,0.0,0.0,0.0,0.0,0.0,2.5481768,0.0,0.0,nan,0.0,0.0,0.09675312,0.011650607,-0.052139446,0.01989998,0.0,0.0,0.0,0.0,0.0
405032792,405032156,0.0,0.0,0.0,-0.9770022,-0.7652374,0.0,0.0,0.0,0.0,0.0,0.0,0.0,0.0,2.4135551,0.0,0.0,nan,0.0,0.0,-0.023554206,0.011650607,-0.052139446,0.01989998,0.0,0.0,0.0,0.0,0.0
405537591,405537032,0.0,0.0,0.0,-0.9129681,-0.7548248,0.0,0.0,0.0,0.0,0.0,0.0,0.0,0.0,2.5026956,0.0,0.0,nan,0.0,0.0,-0.034575224,0.011650607,-0.052139446,0.01989998,0.0,0.0,0.0,0.0,0.0
406034050,406032757,0.0,0.0,0.0,-0.81722236,-0.73810005,0.0,0.0,0.0,0.0,0.0,0.0,0.0,0.0,2.3930025,0.0,0.0,nan,0.0,0.0,0.07152951,0.011650607,-0.052139446,0.01989998,0.0,0.0,0.0,0.0,0.0
406533665,406533156,0.0,0.0,0.0,-0.76288956,-0.7011917,0.0,0.0,0.0,0.0,0.0,0.0,0.0,0.0,2.4348125,0.0,0.0,nan,0.0,0.0,0.056691527,0.011650607,-0.052139446,0.01989998,0.0,0.0,0.0,0.0,0.0
407030932,407028893,0.0,0.0,0.0,-0.72690403,-0.63885313,0.0,0.0,0.0,0.0,0.0,0.0,0.0,0.0,2.263278,0.0,0.0,nan,0.0,0.0,0.15689719,0.028409913,0.033248007,0.010057449,0.0,0.0,0.0,0.0,0.0
407532041,407529260,0.0,0.0,0.0,-0.8076633,0.057786006,0.0,0.0,0.0,0.0,0.0,0.0,0.0,0.0,2.5650902,0.0,0.0,nan,0.0,0.0,0.15689719,0.012258828,0.020925477,-0.00065895915,0.0,0.0,0.0,0.0,0.0
408038676,408034047,0.0,0.0,0.0,-0.87588346,0.37776124,0.0,0.0,0.0,0.0,0.0,0.0,0.0,0.0,2.3122387,0.0,0.0,nan,0.0,0.0,0.15689719,-0.009094372,0.003062576,-0.017540753,0.0,0.0,0.0,0.0,0.0
408530269,408529863,0.0,0.0,0.0,-1.0029137,0.5719762,0.0,0.0,0.0,0.0,0.0,0.0,0.0,0.0,2.4994617,0.0,0.0,nan,0.0,0.0,0.15689719,0.0013264418,0.013156891,-0.014474526,0.0,0.0,0.0,0.0,0.0
409039832,409039197,0.0,0.0,0.0,-1.1254014,0.70172393,0.0,0.0,0.0,0.0,0.0,0.0,0.0,0.0,2.231833,0.0,0.0,nan,0.0,0.0,0.15689719,-0.0134777725,-0.0049110726,-0.02875787,0.0,0.0,0.0,0.0,0.0
410037964,410035379,0.0,0.0,0.0,-1.4868759,0.5824745,0.0,0.0,0.0,0.0,0.0,0.0,0.0,0.0,2.3669763,0.0,0.0,nan,0.0,0.0,0.15689719,-0.01983565,-0.043905307,-0.050455302,0.0,0.0,0.0,0.0,0.0
410535745,410531390,0.0,0.0,0.0,-1.6259065,0.46330136,0.0,0.0,0.0,0.0,0.0,0.0,0.0,0.0,2.2928338,0.0,0.0,nan,0.0,0.0,0.15689719,0.007023096,-0.05294797,-0.04907772,0.0,0.0,0.0,0.0,0.0
411033624,411031471,0.0,0.0,0.0,-1.7455692,0.34179333,0.0,0.0,0.0,0.0,0.0,0.0,0.0,0.0,2.3259516,0.0,0.0,nan,0.0,0.0,0.15689719,0.033799708,-0.062230356,-0.043640018,0.0,0.0,0.0,0.0,0.0
411529651,411527443,0.0,0.0,0.0,-1.7360599,0.18629964,0.0,0.0,0.0,0.0,0.0,0.0,0.0,0.0,2.1796665,0.0,0.0,nan,0.0,0.0,0.15689719,0.04194227,-0.052022014,-0.0393281,0.0,0.0,0.0,0.0,0.0
412037174,412036731,0.0,0.0,0.0,-1.722251,-0.0479623,0.0,0.0,0.0,0.0,0.0,0.0,0.0,0.0,2.5979156,0.0,0.0,nan,0.0,0.0,0.15689719,0.050781995,-0.034637347,-0.039787784,0.0,0.0,0.0,0.0,0.0
413035607,413032853,0.0,0.0,0.0,-1.5393015,-0.36417487,0.0,0.0,0.0,0.0,0.0,0.0,0.0,0.0,2.4472914,0.0,0.0,nan,0.0,0.0,0.15689719,0.056878388,-0.008188635,-0.018397689,0.0,0.0,0.0,0.0,0.0
413538235,413537589,0.0,0.0,0.0,-1.6019629,-0.34951288,0.0,0.0,0.0,0.0,0.0,0.0,0.0,0.0,2.4697928,0.0,0.0,nan,0.0,0.0,0.009921789,0.05013722,-0.0018554181,-0.0052841753,0.0,0.0,0.0,0.0,0.0
414033994,414033405,0.0,0.0,0.0,-1.7035073,-0.35206026,0.0,0.0,0.0,0.0,0.0,0.0,0.0,0.0,2.4183702,0.0,0.0,nan,0.0,0.0,0.09931421,0.05013722,-0.0018554181,-0.0052841753,0.0,0.0,0.0,0.0,0.0
414534321,414533726,0.0,0.0,0.0,-1.7662773,-0.39836067,0.0,0.0,0.0,0.0,0.0,0.0,0.0,0.0,2.6021218,0.0,0.0,nan,0.0,0.0,0.22448373,0.05013722,-0.0018554181,-0.0052841753,0.0,0.0,0.0,0.0,0.0
415034579,415034047,0.0,0.0,0.0,-1.8194144,-0.53391683,0.0,0.0,0.0,0.0,0.0,0.0,0.0,0.0,2.2001147,0.0,0.0,nan,0.0,0.0,0.23867011,0.05013722,-0.0018554181,-0.0052841753,0.0,0.0,0.0,0.0,0.0
415535786,415534414,0.0,0.0,0.0,-1.9612113,-0.8469324,0.0,0.0,0.0,0.0,0.0,0.0,0.0,0.0,2.4696999,0.0,0.0,nan,0.0,0.0,0.15467286,0.05013722,-0.0018554181,-0.0052841753,0.0,0.0,0.0,0.0,0.0
416535697,416535012,0.0,0.0,0.0,-2.2871814,-1.4343295,0.0,0.0,0.0,0.0,0.0,0.0,0.0,0.0,2.3601594,0.0,0.0,nan,0.0,0.0,0.101917505,0.05013722,-0.0018554181,-0.0052841753,0.0,0.0,0.0,0.0,0.0
417035694,417035333,0.0,0.0,0.0,-2.3834121,-1.6338688,0.0,0.0,0.0,0.0,0.0,0.0,0.0,0.0,2.3072004,0.0,0.0,nan,0.0,0.0,0.051207066,0.05013722,-0.0018554181,-0.0052841753,0.0,0.0,0.0,0.0,0.0
417532436,417531146,0.0,0.0,0.0,-2.4459066,-1.7902865,0.0,0.0,0.0,0.0,0.0,0.0,0.0,0.0,2.2308378,0.0,0.0,nan,0.0,0.0,-0.11286163,0.05013722,-0.0018554181,-0.0052841753,0.0,0.0,0.0,0.0,0.0
418027712,418027132,0.0,0.0,0.0,-2.4724796,-1.9288282,0.0,0.0,0.0,0.0,0.0,0.0,0.0,0.0,2.2402806,0.0,0.0,nan,0.0,0.0,-0.21195197,0.05013722,-0.0018554181,-0.0052841753,0.0,0.0,0.0,0.0,0.0
418536940,418536424,0.0,0.0,0.0,-2.4655762,-2.0215015,0.0,0.0,0.0,0.0,0.0,0.0,0.0,0.0,2.2741923,0.0,0.0,nan,0.0,0.0,-0.14265394,0.05013722,-0.0018554181,-0.0052841753,0.0,0.0,0.0,0.0,0.0
419037118,419036618,0.0,0.0,0.0,-2.390264,-2.1572,0.0,0.0,0.0,0.0,0.0,0.0,0.0,0.0,2.388647,0.0,0.0,nan,0.0,0.0,-0.09332657,0.05013722,-0.0018554181,-0.0052841753,0.0,0.0,0.0,0.0,0.0
419533077,419532529,0.0,0.0,0.0,-2.3201423,-2.2702715,0.0,0.0,0.0,0.0,0.0,0.0,0.0,0.0,2.3285027,0.0,0.0,nan,0.0,0.0,-0.042181015,0.05013722,-0.0018554181,-0.0052841753,0.0,0.0,0.0,0.0,0.0
420037775,420037266,0.0,0.0,0.0,-2.170793,-2.4666443,0.0,0.0,0.0,0.0,0.0,0.0,0.0,0.0,2.212288,0.0,0.0,nan,0.0,0.0,-0.06811762,0.05013722,-0.0018554181,-0.0052841753,0.0,0.0,0.0,0.0,0.0
420533703,420533074,0.0,0.0,0.0,-2.0794456,-2.6083608,0.0,0.0,0.0,0.0,0.0,0.0,0.0,0.0,2.3116407,0.0,0.0,nan,0.0,0.0,-0.105872154,0.05013722,-0.0018554181,-0.0052841753,0.0,0.0,0.0,0.0,0.0
421029555,421028887,0.0,0.0,0.0,-1.9843439,-2.752375,0.0,0.0,0.0,0.0,0.0,0.0,0.0,0.0,2.0424504,0.0,0.0,nan,0.0,0.0,-0.22164202,0.05013722,-0.0018554181,-0.0052841753,0.0,0.0,0.0,0.0,0.0
421529940,421529252,0.0,0.0,0.0,-1.8054047,-2.9261625,0.0,0.0,0.0,0.0,0.0,0.0,0.0,0.0,2.1456876,0.0,0.0,nan,0.0,0.0,-0.25873804,0.05013722,-0.0018554181,-0.0052841753,0.0,0.0,0.0,0.0,0.0
422026743,422025292,0.0,0.0,0.0,-1.6514609,-3.0043824,0.0,0.0,0.0,0.0,0.0,0.0,0.0,0.0,2.138761,0.0,0.0,nan,0.0,0.0,-0.2451663,0.05013722,-0.0018554181,-0.0052841753,0.0,0.0,0.0,0.0,0.0
422530242,422529850,0.0,0.0,0.0,-1.4008586,-3.0862231,0.0,0.0,0.0,0.0,0.0,0.0,0.0,0.0,2.0241446,0.0,0.0,nan,0.0,0.0,-0.17624927,0.05013722,-0.0018554181,-0.0052841753,0.0,0.0,0.0,0.0,0.0
423035222,423034677,0.0,0.0,0.0,-1.2132713,-3.1543992,0.0,0.0,0.0,0.0,0.0,0.0,0.0,0.0,2.179748,0.0,0.0,nan,0.0,0.0,-0.33009052,0.05013722,-0.0018554181,-0.0052841753,0.0,0.0,0.0,0.0,0.0
423531207,423530715,0.0,0.0,0.0,-0.9165314,-3.1812394,0.0,0.0,0.0,0.0,0.0,0.0,0.0,0.0,2.1280313,0.0,0.0,nan,0.0,0.0,-0.58357096,0.05013722,-0.0018554181,-0.0052841753,0.0,0.0,0.0,0.0,0.0
424040380,424039976,0.0,0.0,0.0,-0.708369,-3.174466,0.0,0.0,0.0,0.0,0.0,0.0,0.0,0.0,2.2918167,0.0,0.0,nan,0.0,0.0,-0.65185404,0.05013722,-0.0018554181,-0.0052841753,0.0,0.0,0.0,0.0,0.0
424527596,424526801,0.0,0.0,0.0,-0.35328516,-3.0722203,0.0,0.0,0.0,0.0,0.0,0.0,0.0,0.0,2.2150702,0.0,0.0,nan,0.0,0.0,-0.5833421,0.05013722,-0.0018554181,-0.0052841753,0.0,0.0,0.0,0.0,0.0
425037415,425036090,0.0,0.0,0.0,-0.08046084,-2.930511,0.0,0.0,0.0,0.0,0.0,0.0,0.0,0.0,2.1422582,0.0,0.0,nan,0.0,0.0,-0.50670004,0.05013722,-0.0018554181,-0.0052841753,0.0,0.0,0.0,0.0,0.0
425532240,425531771,0.0,0.0,0.0,0.15444826,-2.7896106,0.0,0.0,0.0,0.0,0.0,0.0,0.0,0.0,2.0603561,0.0,0.0,nan,0.0,0.0,-0.438087,0.05013722,-0.0018554181,-0.0052841753,0.0,0.0,0.0,0.0,0.0
426032620,426032194,0.0,0.0,0.0,0.47261822,-2.6160905,0.0,0.0,0.0,0.0,0.0,0.0,0.0,0.0,2.077386,0.0,0.0,nan,0.0,0.0,-0.34085894,0.05013722,-0.0018554181,-0.0052841753,0.0,0.0,0.0,0.0,0.0
426533074,426532457,0.0,0.0,0.0,0.6308005,-2.5538578,0.0,0.0,0.0,0.0,0.0,0.0,0.0,0.0,1.9391294,0.0,0.0,nan,0.0,0.0,-0.31554222,0.05013722,-0.0018554181,-0.0052841753,0.0,0.0,0.0,0.0,0.0
427029083,427028365,0.0,0.0,0.0,0.8798072,-2.5109658,0.0,0.0,0.0,0.0,0.0,0.0,0.0,0.0,1.8444123,0.0,0.0,nan,0.0,0.0,-0.24796534,0.05013722,-0.0018554181,-0.0052841753,0.0,0.0,0.0,0.0,0.0
427529070,427528544,0.0,0.0,0.0,0.99592036,-2.499538,0.0,0.0,0.0,0.0,0.0,0.0,0.0,0.0,1.6579905,0.0,0.0,nan,0.0,0.0,-0.14153337,0.05013722,-0.0018554181,-0.0052841753,0.0,0.0,0.0,0.0,0.0
428029498,428028864,0.0,0.0,0.0,1.0900072,-2.5330513,0.0,0.0,0.0,0.0,0.0,0.0,0.0,0.0,1.8229074,0.0,0.0,nan,0.0,0.0,-0.028687,0.05013722,-0.0018554181,-0.0052841753,0.0,0.0,0.0,0.0,0.0
428529833,428529186,0.0,0.0,0.0,1.1036245,-2.5214999,0.0,0.0,0.0,0.0,0.0,0.0,0.0,0.0,1.7731886,0.0,0.0,nan,0.0,0.0,0.07577133,0.05013722,-0.0018554181,-0.0052841753,0.0,0.0,0.0,0.0,0.0
429034756,429034239,0.0,0.0,0.0,1.0728483,-2.4950156,0.0,0.0,0.0,0.0,0.0,0.0,0.0,0.0,1.8543625,0.0,0.0,nan,0.0,0.0,0.040012836,0.05013722,-0.0018554181,-0.0052841753,0.0,0.0,0.0,0.0,0.0
429535524,429534334,0.0,0.0,0.0,0.97731674,-2.4074595,0.0,0.0,0.0,0.0,0.0,0.0,0.0,0.0,1.6826649,0.0,0.0,nan,0.0,0.0,-0.055073738,0.05013722,-0.0018554181,-0.0052841753,0.0,0.0,0.0,0.0,0.0
430030986,430030364,0.0,0.0,0.0,0.91160583,-2.3126364,0.0,0.0,0.0,0.0,0.0,0.0,0.0,0.0,1.7292013,0.0,0.0,nan,0.0,0.0,-0.1284635,0.05013722,-0.0018554181,-0.0052841753,0.0,0.0,0.0,0.0,0.0
430540025,430539641,0.0,0.0,0.0,0.82971627,-2.1547859,0.0,0.0,0.0,0.0,0.0,0.0,0.0,0.0,1.4867349,0.0,0.0,nan,0.0,0.0,-0.18952489,0.05013722,-0.0018554181,-0.0052841753,0.0,0.0,0.0,0.0,0.0
431040413,431039843,0.0,0.0,0.0,0.7824159,-2.0391595,0.0,0.0,0.0,0.0,0.0,0.0,0.0,0.0,1.57623,0.0,0.0,nan,0.0,0.0,-0.18926215,0.05013722,-0.0018554181,-0.0052841753,0.0,0.0,0.0,0.0,0.0
431536104,431535746,0.0,0.0,0.0,0.7312227,-1.920902,0.0,0.0,0.0,0.0,0.0,0.0,0.0,0.0,1.6223798,0.0,0.0,nan,0.0,0.0,-0.18694448,0.05013722,-0.0018554181,-0.0052841753,0.0,0.0,0.0,0.0,0.0
432036870,432035930,0.0,0.0,0.0,0.7353467,-1.8522639,0.0,0.0,0.0,0.0,0.0,0.0,0.0,0.0,1.2941256,0.0,0.0,nan,0.0,0.0,-0.23106956,0.05013722,-0.0018554181,-0.0052841753,0.0,0.0,0.0,0.0,0.0
432532302,432531863,0.0,0.0,0.0,0.73438454,-1.7311732,0.0,0.0,0.0,0.0,0.0,0.0,0.0,0.0,1.2284937,0.0,0.0,nan,0.0,0.0,-0.201092,0.05013722,-0.0018554181,-0.0052841753,0.0,0.0,0.0,0.0,0.0
433037006,433036569,0.0,0.0,0.0,0.69608235,-1.5637199,0.0,0.0,0.0,0.0,0.0,0.0,0.0,0.0,1.0245166,0.0,0.0,nan,0.0,0.0,-0.17884135,0.05013722,-0.0018554181,-0.0052841753,0.0,0.0,0.0,0.0,0.0
433537386,433536888,0.0,0.0,0.0,0.6610384,-1.4431404,0.0,0.0,0.0,0.0,0.0,0.0,0.0,0.0,1.3229432,0.0,0.0,nan,0.0,0.0,-0.13210869,0.05013722,-0.0018554181,-0.0052841753,0.0,0.0,0.0,0.0,0.0
434037663,434037292,0.0,0.0,0.0,0.5794441,-1.2555526,0.0,0.0,0.0,0.0,0.0,0.0,0.0,0.0,1.0735879,0.0,0.0,nan,0.0,0.0,-0.18510509,0.05013722,-0.0018554181,-0.0052841753,0.0,0.0,0.0,0.0,0.0
434529179,434528513,0.0,0.0,0.0,0.51036966,-1.1428783,0.0,0.0,0.0,0.0,0.0,0.0,0.0,0.0,1.104506,0.0,0.0,nan,0.0,0.0,-0.18816757,0.05013722,-0.0018554181,-0.0052841753,0.0,0.0,0.0,0.0,0.0
435033763,435033360,0.0,0.0,0.0,0.37217003,-0.99539435,0.0,0.0,0.0,0.0,0.0,0.0,0.0,0.0,1.0557542,0.0,0.0,nan,0.0,0.0,-0.18177676,0.05013722,-0.0018554181,-0.0052841753,0.0,0.0,0.0,0.0,0.0
435534438,435533900,0.0,0.0,0.0,0.27071074,-0.8952558,0.0,0.0,0.0,0.0,0.0,0.0,0.0,0.0,1.0360093,0.0,0.0,nan,0.0,0.0,-0.14412165,0.05013722,-0.0018554181,-0.0052841753,0.0,0.0,0.0,0.0,0.0
436034606,436033977,0.0,0.0,0.0,0.17374203,-0.80795723,0.0,0.0,0.0,0.0,0.0,0.0,0.0,0.0,1.0363145,0.0,0.0,nan,0.0,0.0,-0.1312108,0.05013722,-0.0018554181,-0.0052841753,0.0,0.0,0.0,0.0,0.0
436531035,436530028,0.0,0.0,0.0,0.034315728,-0.6848648,0.0,0.0,0.0,0.0,0.0,0.0,0.0,0.0,0.7779732,0.0,0.0,nan,0.0,0.0,-0.10455656,0.05013722,-0.0018554181,-0.0052841753,0.0,0.0,0.0,0.0,0.0
437040139,437039279,0.0,0.0,0.0,-0.06486661,-0.6171246,0.0,0.0,0.0,0.0,0.0,0.0,0.0,0.0,0.56803226,0.0,0.0,nan,0.0,0.0,-0.074557304,0.05013722,-0.0018554181,-0.0052841753,0.0,0.0,0.0,0.0,0.0
437540021,437539443,0.0,0.0,0.0,-0.20921023,-0.5513261,0.0,0.0,0.0,0.0,0.0,0.0,0.0,0.0,0.8958087,0.0,0.0,nan,0.0,0.0,-0.009892225,0.05013722,-0.0018554181,-0.0052841753,0.0,0.0,0.0,0.0,0.0
438035925,438035378,0.0,0.0,0.0,-0.28178012,-0.49745864,0.0,0.0,0.0,0.0,0.0,0.0,0.0,0.0,0.89634895,0.0,0.0,nan,0.0,0.0,-0.021413326,0.05013722,-0.0018554181,-0.0052841753,0.0,0.0,0.0,0.0,0.0
438531557,438531065,0.0,0.0,0.0,-0.3302667,-0.44260454,0.0,0.0,0.0,0.0,0.0,0.0,0.0,0.0,0.9327841,0.0,0.0,nan,0.0,0.0,-0.01673317,0.05013722,-0.0018554181,-0.0052841753,0.0,0.0,0.0,0.0,0.0
439036862,439035891,0.0,0.0,0.0,-0.3631911,-0.36780336,0.0,0.0,0.0,0.0,0.0,0.0,0.0,0.0,0.7188225,0.0,0.0,nan,0.0,0.0,0.034631252,0.05013722,-0.0018554181,-0.0052841753,0.0,0.0,0.0,0.0,0.0
439532432,439531704,0.0,0.0,0.0,-0.36650348,-0.31537032,0.0,0.0,0.0,0.0,0.0,0.0,0.0,0.0,0.91399384,0.0,0.0,nan,0.0,0.0,0.08739567,0.05013722,-0.0018554181,-0.0052841753,0.0,0.0,0.0,0.0,0.0
440037020,440036528,0.0,0.0,0.0,-0.35256296,-0.22352828,0.0,0.0,0.0,0.0,0.0,0.0,0.0,0.0,0.8486786,0.0,0.0,nan,0.0,0.0,0.065145016,0.05013722,-0.0018554181,-0.0052841753,0.0,0.0,0.0,0.0,0.0
440528515,440528133,0.0,0.0,0.0,-0.32551435,-0.102495335,0.0,0.0,0.0,0.0,0.0,0.0,0.0,0.0,1.0080438,0.0,0.0,nan,0.0,0.0,0.025146246,0.05013722,-0.0018554181,-0.0052841753,0.0,0.0,0.0,0.0,0.0
441037997,441037427,0.0,0.0,0.0,-0.2698876,0.11938528,0.0,0.0,0.0,0.0,0.0,0.0,0.0,0.0,1.2624893,0.0,0.0,nan,0.0,0.0,-0.018513918,0.05013722,-0.0018554181,-0.0052841753,0.0,0.0,0.0,0.0,0.0
441534289,441532979,0.0,0.0,0.0,-0.2374474,0.23454227,0.0,0.0,0.0,0.0,0.0,0.0,0.0,0.0,1.0647998,0.0,0.0,nan,0.0,0.0,-0.10087824,0.05013722,-0.0018554181,-0.0052841753,0.0,0.0,0.0,0.0,0.0
442033915,442033539,0.0,0.0,0.0,-0.22808632,0.4085455,0.0,0.0,0.0,0.0,0.0,0.0,0.0,0.0,1.2419848,0.0,0.0,nan,0.0,0.0,-0.14667726,0.05013722,-0.0018554181,-0.0052841753,0.0,0.0,0.0,0.0,0.0
442534393,442533659,0.0,0.0,0.0,-0.25452474,0.4884146,0.0,0.0,0.0,0.0,0.0,0.0,0.0,0.0,1.3605676,0.0,0.0,nan,0.0,0.0,-0.16681266,0.05013722,-0.0018554181,-0.0052841753,0.0,0.0,0.0,0.0,0.0
443030010,443029635,0.0,0.0,0.0,-0.3035754,0.5417536,0.0,0.0,0.0,0.0,0.0,0.0,0.0,0.0,1.2738595,0.0,0.0,nan,0.0,0.0,-0.16667056,0.05013722,-0.0018554181,-0.0052841753,0.0,0.0,0.0,0.0,0.0
443531185,443529742,0.0,0.0,0.0,-0.4254979,0.574952,0.0,0.0,0.0,0.0,0.0,0.0,0.0,0.0,1.1939287,0.0,0.0,nan,0.0,0.0,-0.14211988,0.05013722,-0.0018554181,-0.0052841753,0.0,0.0,0.0,0.0,0.0
444040077,444039076,0.0,0.0,0.0,-0.5030004,0.5743779,0.0,0.0,0.0,0.0,0.0,0.0,0.0,0.0,1.2290168,0.0,0.0,nan,0.0,0.0,-0.027663708,0.05013722,-0.0018554181,-0.0052841753,0.0,0.0,0.0,0.0,0.0
444535592,444535020,0.0,0.0,0.0,-0.6174119,0.594952,0.0,0.0,0.0,0.0,0.0,0.0,0.0,0.0,1.0699506,0.0,0.0,nan,0.0,0.0,0.05288911,0.05013722,-0.0018554181,-0.0052841753,0.0,0.0,0.0,0.0,0.0
445035820,445035252,0.0,0.0,0.0,-0.69384384,0.605066,0.0,0.0,0.0,0.0,0.0,0.0,0.0,0.0,1.0063748,0.0,0.0,nan,0.0,0.0,0.14727068,0.05013722,-0.0018554181,-0.0052841753,0.0,0.0,0.0,0.0,0.0
445531548,445531165,0.0,0.0,0.0,-0.75961614,0.6082805,0.0,0.0,0.0,0.0,0.0,0.0,0.0,0.0,1.428205,0.0,0.0,nan,0.0,0.0,0.22109842,0.05013722,-0.0018554181,-0.0052841753,0.0,0.0,0.0,0.0,0.0
446036198,446035840,0.0,0.0,0.0,-0.7843498,0.58749527,0.0,0.0,0.0,0.0,0.0,0.0,0.0,0.0,1.4755211,0.0,0.0,nan,0.0,0.0,0.21332288,0.05013722,-0.0018554181,-0.0052841753,0.0,0.0,0.0,0.0,0.0
446536692,446536159,0.0,0.0,0.0,-0.8232027,0.537273,0.0,0.0,0.0,0.0,0.0,0.0,0.0,0.0,1.6660643,0.0,0.0,nan,0.0,0.0,0.23483443,0.05013722,-0.0018554181,-0.0052841753,0.0,0.0,0.0,0.0,0.0
447037015,447036498,0.0,0.0,0.0,-0.8822575,0.47851032,0.0,0.0,0.0,0.0,0.0,0.0,0.0,0.0,1.6036539,0.0,0.0,nan,0.0,0.0,0.20358396,0.05013722,-0.0018554181,-0.0052841753,0.0,0.0,0.0,0.0,0.0
447537568,447537084,0.0,0.0,0.0,-0.93921417,0.434514,0.0,0.0,0.0,0.0,0.0,0.0,0.0,0.0,1.870842,0.0,0.0,nan,0.0,0.0,0.2124064,0.05013722,-0.0018554181,-0.0052841753,0.0,0.0,0.0,0.0,0.0
448037636,448037128,0.0,0.0,0.0,-0.9950656,0.37778208,0.0,0.0,0.0,0.0,0.0,0.0,0.0,0.0,2.0931916,0.0,0.0,nan,0.0,0.0,0.21735334,0.05013722,-0.0018554181,-0.0052841753,0.0,0.0,0.0,0.0,0.0
448534175,448533131,0.0,0.0,0.0,-0.98131686,0.3879471,0.0,0.0,0.0,0.0,0.0,0.0,0.0,0.0,1.9852495,0.0,0.0,nan,0.0,0.0,0.19564962,0.05013722,-0.0018554181,-0.0052841753,0.0,0.0,0.0,0.0,0.0
449034016,449033242,0.0,0.0,0.0,-0.9364994,0.42997506,0.0,0.0,0.0,0.0,0.0,0.0,0.0,0.0,1.8429317,0.0,0.0,nan,0.0,0.0,0.22219658,0.05013722,-0.0018554181,-0.0052841753,0.0,0.0,0.0,0.0,0.0
449529672,449529228,0.0,0.0,0.0,-0.859995,0.47408226,0.0,0.0,0.0,0.0,0.0,0.0,0.0,0.0,2.0380583,0.0,0.0,nan,0.0,0.0,0.205096,0.05013722,-0.0018554181,-0.0052841753,0.0,0.0,0.0,0.0,0.0
450030063,450029367,0.0,0.0,0.0,-0.77890277,0.5059054,0.0,0.0,0.0,0.0,0.0,0.0,0.0,0.0,2.037188,0.0,0.0,nan,0.0,0.0,0.21440911,0.05013722,-0.0018554181,-0.0052841753,0.0,0.0,0.0,0.0,0.0
450526474,450525334,0.0,0.0,0.0,-0.62457836,0.5637588,0.0,0.0,0.0,0.0,0.0,0.0,0.0,0.0,2.133451,0.0,0.0,nan,0.0,0.0,0.20221734,0.05013722,-0.0018554181,-0.0052841753,0.0,0.0,0.0,0.0,0.0
451035917,451034614,0.0,0.0,0.0,-0.52761745,0.5949574,0.0,0.0,0.0,0.0,0.0,0.0,0.0,0.0,2.1301618,0.0,0.0,nan,0.0,0.0,0.16085625,0.05013722,-0.0018554181,-0.0052841753,0.0,0.0,0.0,0.0,0.0
451535495,451534827,0.0,0.0,0.0,-0.39816263,0.6156648,0.0,0.0,0.0,0.0,0.0,0.0,0.0,0.0,2.1411967,0.0,0.0,nan,0.0,0.0,0.07877946,0.05013722,-0.0018554181,-0.0052841753,0.0,0.0,0.0,0.0,0.0
452040164,452039655,0.0,0.0,0.0,-0.31499946,0.611402,0.0,0.0,0.0,0.0,0.0,0.0,0.0,0.0,2.07695,0.0,0.0,nan,0.0,0.0,0.025613785,0.05013722,-0.0018554181,-0.0052841753,0.0,0.0,0.0,0.0,0.0
452531614,452530954,0.0,0.0,0.0,-0.2273798,0.5971985,0.0,0.0,0.0,0.0,0.0,0.0,0.0,0.0,2.2229857,0.0,0.0,nan,0.0,0.0,0.05372286,0.05013722,-0.0018554181,-0.0052841753,0.0,0.0,0.0,0.0,0.0
453036309,453035824,0.0,0.0,0.0,-0.1911329,0.5875374,0.0,0.0,0.0,0.0,0.0,0.0,0.0,0.0,2.1478438,0.0,0.0,nan,0.0,0.0,0.1289022,0.05013722,-0.0018554181,-0.0052841753,0.0,0.0,0.0,0.0,0.0
453532626,453531637,0.0,0.0,0.0,-0.16124116,0.56164306,0.0,0.0,0.0,0.0,0.0,0.0,0.0,0.0,2.028648,0.0,0.0,nan,0.0,0.0,0.14641356,0.05013722,-0.0018554181,-0.0052841753,0.0,0.0,0.0,0.0,0.0
454037081,454036657,0.0,0.0,0.0,-0.1585758,0.56056875,0.0,0.0,0.0,0.0,0.0,0.0,0.0,0.0,2.0980172,0.0,0.0,nan,0.0,0.0,0.18592954,0.05013722,-0.0018554181,-0.0052841753,0.0,0.0,0.0,0.0,0.0
454537368,454536730,0.0,0.0,0.0,-0.16010867,0.578025,0.0,0.0,0.0,0.0,0.0,0.0,0.0,0.0,2.065514,0.0,0.0,nan,0.0,0.0,0.23074889,0.05013722,-0.0018554181,-0.0052841753,0.0,0.0,0.0,0.0,0.0
455037410,455037047,0.0,0.0,0.0,-0.19039512,0.574603,0.0,0.0,0.0,0.0,0.0,0.0,0.0,0.0,1.9771285,0.0,0.0,nan,0.0,0.0,0.25988603,0.05013722,-0.0018554181,-0.0052841753,0.0,0.0,0.0,0.0,0.0
455534141,455532857,0.0,0.0,0.0,-0.20509437,0.56855136,0.0,0.0,0.0,0.0,0.0,0.0,0.0,0.0,2.0486126,0.0,0.0,nan,0.0,0.0,0.29034114,0.05013722,-0.0018554181,-0.0052841753,0.0,0.0,0.0,0.0,0.0
456029345,456028843,0.0,0.0,0.0,-0.2349819,0.5301501,0.0,0.0,0.0,0.0,0.0,0.0,0.0,0.0,2.0826192,0.0,0.0,nan,0.0,0.0,0.35496283,0.05013722,-0.0018554181,-0.0052841753,0.0,0.0,0.0,0.0,0.0
456529546,456529029,0.0,0.0,0.0,-0.27027047,0.47534424,0.0,0.0,0.0,0.0,0.0,0.0,0.0,0.0,1.9812598,0.0,0.0,nan,0.0,0.0,0.39677906,0.05013722,-0.0018554181,-0.0052841753,0.0,0.0,0.0,0.0,0.0
457034300,457033809,0.0,0.0,0.0,-0.3845627,0.38719487,0.0,0.0,0.0,0.0,0.0,0.0,0.0,0.0,1.9014359,0.0,0.0,nan,0.0,0.0,0.44167948,0.05013722,-0.0018554181,-0.0052841753,0.0,0.0,0.0,0.0,0.0
457539263,457538634,0.0,0.0,0.0,-0.4720883,0.337761,0.0,0.0,0.0,0.0,0.0,0.0,0.0,0.0,1.9365149,0.0,0.0,nan,0.0,0.0,0.46793604,0.05013722,-0.0018554181,-0.0052841753,0.0,0.0,0.0,0.0,0.0
458039585,458038995,0.0,0.0,0.0,-0.51768386,0.3154801,0.0,0.0,0.0,0.0,0.0,0.0,0.0,0.0,1.8655267,0.0,0.0,nan,0.0,0.0,0.46927214,0.05013722,-0.0018554181,-0.0052841753,0.0,0.0,0.0,0.0,0.0
458535353,458534805,0.0,0.0,0.0,-0.5024116,0.30684796,0.0,0.0,0.0,0.0,0.0,0.0,0.0,0.0,1.7647438,0.0,0.0,nan,0.0,0.0,0.47413206,-0.0010111332,0.15912384,-0.04475096,0.0,0.0,0.0,0.0,0.0
459031285,459030851,0.0,0.0,0.0,-0.46701908,0.3584074,0.0,0.0,0.0,0.0,0.0,0.0,0.0,0.0,1.6309776,0.0,0.0,nan,0.0,0.0,0.47413206,-0.0356656,0.16168272,-0.023720592,0.0,0.0,0.0,0.0,0.0
459531288,459530886,0.0,0.0,0.0,-0.39153138,0.4599558,0.0,0.0,0.0,0.0,0.0,0.0,0.0,0.0,1.8018608,0.0,0.0,nan,0.0,0.0,0.47413206,-0.09951289,0.15757166,0.010956213,0.0,0.0,0.0,0.0,0.0
460534159,460531519,0.0,0.0,0.0,-3.1582625,4.545703,0.0,0.0,0.0,0.0,0.0,0.0,0.0,0.0,1.5295315,0.0,0.0,nan,0.0,0.0,0.47413206,-0.123287216,0.07702623,0.022173584,0.0,0.0,0.0,0.0,0.0
461037056,461036388,0.0,0.0,0.0,-4.5198464,5.554281,0.0,0.0,0.0,0.0,0.0,0.0,0.0,0.0,1.4152856,0.0,0.0,nan,0.0,0.0,0.47413206,-0.12154929,0.053586617,0.017085478,0.0,0.0,0.0,0.0,0.0
461534332,461532334,0.0,0.0,0.0,-5.750034,6.4184437,0.0,0.0,0.0,0.0,0.0,0.0,0.0,0.0,1.3623595,0.0,0.0,nan,0.0,0.0,0.47413206,-0.122785516,0.03812015,0.035901487,0.0,0.0,0.0,0.0,0.0
462032991,462032470,0.0,0.0,0.0,-7.6674047,7.3568892,0.0,0.0,0.0,0.0,0.0,0.0,0.0,0.0,1.0906811,0.0,0.0,nan,0.0,0.0,0.47413206,-0.11671551,0.0062511265,0.0060205758,0.0,0.0,0.0,0.0,0.0
462531025,462528416,0.0,0.0,0.0,-8.566717,7.702545,0.0,0.0,0.0,0.0,0.0,0.0,0.0,0.0,0.9887953,0.0,0.0,nan,0.0,0.0,0.47413206,-0.067543834,-0.008598328,-0.02876234,0.0,0.0,0.0,0.0,0.0
463030844,463028595,0.0,0.0,0.0,-9.37078,7.8940067,0.0,0.0,0.0,0.0,0.0,0.0,0.0,0.0,0.7826719,0.0,0.0,nan,0.0,0.0,0.47413206,-0.060448386,-0.02864945,-0.03563331,0.0,0.0,0.0,0.0,0.0
464031915,464029227,0.0,0.0,0.0,-9.095945,7.701113,0.0,0.0,0.0,0.0,0.0,0.0,0.0,0.0,0.4441824,0.0,0.0,nan,0.0,0.0,0.47413206,0.033260047,0.02668941,-0.04774055,0.0,0.0,0.0,0.0,0.0
464538917,464534051,0.0,0.0,0.0,-8.515559,7.58615,0.0,0.0,0.0,0.0,0.0,0.0,0.0,0.0,0.5820713,0.0,0.0,nan,0.0,0.0,0.47413206,0.039924473,0.035657644,-0.04491374,0.0,0.0,0.0,0.0,0.0
465034769,465034369,0.0,0.0,0.0,-8.002574,7.5222754,0.0,0.0,0.0,0.0,0.0,0.0,0.0,0.0,0.3863945,0.0,0.0,nan,0.0,0.0,-0.08083701,0.027967632,0.03739658,-0.042457804,0.0,0.0,0.0,0.0,0.0
465535681,465534684,0.0,0.0,0.0,-7.920268,7.59487,0.0,0.0,0.0,0.0,0.0,0.0,0.0,0.0,0.77469254,0.0,0.0,nan,0.0,0.0,-0.063173294,0.027967632,0.03739658,-0.042457804,0.0,0.0,0.0,0.0,0.0
466031174,466030493,0.0,0.0,0.0,-7.8677983,7.6061034,0.0,0.0,0.0,0.0,0.0,0.0,0.0,0.0,0.76372147,0.0,0.0,nan,0.0,0.0,0.029116988,0.027967632,0.03739658,-0.042457804,0.0,0.0,0.0,0.0,0.0
466526893,466526522,0.0,0.0,0.0,-7.722712,7.5683484,0.0,0.0,0.0,0.0,0.0,0.0,0.0,0.0,0.34622192,0.0,0.0,nan,0.0,0.0,0.11335933,0.027967632,0.03739658,-0.042457804,0.0,0.0,0.0,0.0,0.0
467036168,467035807,0.0,0.0,0.0,-7.581295,7.5272393,0.0,0.0,0.0,0.0,0.0,0.0,0.0,0.0,0.39049244,0.0,0.0,nan,0.0,0.0,0.18610203,0.027967632,0.03739658,-0.042457804,0.0,0.0,0.0,0.0,0.0
468032472,468031911,0.0,0.0,0.0,-7.104608,7.20361,0.0,0.0,0.0,0.0,0.0,0.0,0.0,0.0,0.22604465,0.0,0.0,nan,0.0,0.0,0.1870699,0.027967632,0.03739658,-0.042457804,0.0,0.0,0.0,0.0,0.0
469037439,469036942,0.0,0.0,0.0,-6.57745,6.685068,0.0,0.0,0.0,0.0,0.0,0.0,0.0,0.0,0.19787025,0.0,0.0,nan,0.0,0.0,0.06606889,0.027967632,0.03739658,-0.042457804,0.0,0.0,0.0,0.0,0.0
470034171,470033022,0.0,0.0,0.0,-6.2223396,6.1487274,0.0,0.0,0.0,0.0,0.0,0.0,0.0,0.0,0.051200867,0.0,0.0,nan,0.0,0.0,0.31762052,0.027967632,0.03739658,-0.042457804,0.0,0.0,0.0,0.0,0.0
471029578,471029147,0.0,0.0,0.0,-5.9458756,5.517601,0.0,0.0,0.0,0.0,0.0,0.0,0.0,0.0,-0.19337845,0.0,0.0,nan,0.0,0.0,-0.11316943,0.027967632,0.03739658,-0.042457804,0.0,0.0,0.0,0.0,0.0
473040020,473039430,0.0,0.0,0.0,-5.510278,4.0476146,0.0,0.0,0.0,0.0,0.0,0.0,0.0,0.0,-0.2297945,0.0,0.0,nan,0.0,0.0,0.6030234,0.027967632,0.03739658,-0.042457804,0.0,0.0,0.0,0.0,0.0
473535750,473535369,0.0,0.0,0.0,-5.4430833,3.4369695,0.0,0.0,0.0,0.0,0.0,0.0,0.0,0.0,-0.4346304,0.0,0.0,nan,0.0,0.0,0.76297593,0.027967632,0.03739658,-0.042457804,0.0,0.0,0.0,0.0,0.0
474036179,474035547,0.0,0.0,0.0,-5.474317,3.0591085,0.0,0.0,0.0,0.0,0.0,0.0,0.0,0.0,-0.6228123,0.0,0.0,nan,0.0,0.0,0.377764,0.027967632,0.03739658,-0.042457804,0.0,0.0,0.0,0.0,0.0
474532849,474531474,0.0,0.0,0.0,-5.4514475,2.551178,0.0,0.0,0.0,0.0,0.0,0.0,0.0,0.0,-0.5214138,0.0,0.0,nan,0.0,0.0,0.28784382,0.027967632,0.03739658,-0.042457804,0.0,0.0,0.0,0.0,0.0
475032500,475031717,0.0,0.0,0.0,-5.4299994,2.2550805,0.0,0.0,0.0,0.0,0.0,0.0,0.0,0.0,-0.6242666,0.0,0.0,nan,0.0,0.0,0.40195823,0.027967632,0.03739658,-0.042457804,0.0,0.0,0.0,0.0,0.0
475536999,475536494,0.0,0.0,0.0,-5.374951,1.8650166,0.0,0.0,0.0,0.0,0.0,0.0,0.0,0.0,-0.64750767,0.0,0.0,nan,0.0,0.0,0.33424604,0.027967632,0.03739658,-0.042457804,0.0,0.0,0.0,0.0,0.0
