timestamp,timestamp_sample,vibe[0],vibe[1],vibe[2],output_tracking_error[0],output_tracking_error[1],output_tracking_error[2],control_mode_flags,filter_fault_flags,pos_horiz_accuracy,pos_vert_accuracy,mag_test_ratio,vel_test_ratio,pos_test_ratio,hgt_test_ratio,tas_test_ratio,hagl_test_ratio,beta_test_ratio,time_slip,accel_device_id,gyro_device_id,baro_device_id,mag_device_id,gps_check_fail_flags,innovation_check_flags,solution_status_flags,reset_count_vel_ne,reset_count_vel_d,reset_count_pos_ne,reset_count_pod_d,reset_count_quat,pre_flt_fail_innov_heading,pre_flt_fail_innov_vel_horiz,pre_flt_fail_innov_vel_vert,pre_flt_fail_innov_height,pre_flt_fail_mag_field_disturbed,health_flags,timeout_flags
293739128,293738751,1.2098368e-09,7.597202e-05,0.008687534,0.0017747901,0.0029007455,0.018528027,531,0,0.31373292,0.5044747,0.14176121,0.0,0.005009994,0.0077829524,0.0,0.0,0.0,0.0,4259850,4325386,3997730,396825,0,0,229,1,3,1,3,3,0,0,0,0,0,0,0
293938055,293936926,1.31268e-09,7.335044e-05,0.009504189,0.0018414318,0.003918935,0.023585837,531,0,0.312892,0.50303924,0.14238444,0.0,0.007514781,0.0045775142,0.0,0.0,0.0,0.0,4259850,4325386,3997730,396825,0,0,229,1,3,1,3,3,0,0,0,0,0,0,0
294135961,294135254,1.3368641e-09,6.940183e-05,0.009868691,0.0018085516,0.0055424157,0.034204893,531,0,0.3119346,0.5068584,0.14443736,0.0,0.011679993,0.03284786,0.0,0.0,0.0,0.0,4259850,4325386,3997730,396825,0,0,229,1,3,1,3,3,0,0,0,0,0,0,0
294329674,294329167,1.9239494e-09,7.296234e-05,0.010649721,0.001878307,0.0067141177,0.037893806,531,0,0.30945402,0.5043923,0.14804454,0.0,0.016776923,0.01951233,0.0,0.0,0.0,0.0,4259850,4325386,3997730,396825,0,0,229,1,3,1,3,3,0,0,0,0,0,0,0
294528098,294527664,1.8903437e-09,7.377763e-05,0.01040696,0.001836525,0.0074347467,0.040405158,531,0,0.30860114,0.5029324,0.1287014,0.0,0.02275821,0.021789063,0.0,0.0,0.0,0.0,4259850,4325386,3997730,396825,0,0,229,1,3,1,3,3,0,0,0,0,0,0,0
294735330,294734855,2.9381986e-09,7.486145e-05,0.01010449,0.001726696,0.0064618164,0.03140513,659,0,0.30791557,0.50675404,0.130059,0.0,0.030671798,0.020511843,0.0,0.0,0.0,0.0,4259850,4325386,3997730,396825,0,0,229,1,3,1,3,3,0,0,0,0,0,0,0
294938209,294937625,6.021978e-09,8.3652434e-05,0.01054047,0.0014281394,0.0021950116,0.017172063,659,0,0.3389674,0.5063225,0.1039682,0.0,0.0022621318,0.0053053843,0.0,0.0,0.0,0.0,4259850,4325386,3997730,396825,0,0,229,1,3,1,3,3,0,0,0,0,0,0,0
295132137,295131401,2.2754849e-08,0.00011251577,0.011395877,0.0012363183,0.0019069758,0.016423155,659,0,0.3694511,0.5038808,0.098377876,0.0,0.003208942,0.008645385,0.0,0.0,0.0,0.0,4259850,4325386,3997730,396825,0,0,229,1,3,1,3,3,0,0,0,0,0,0,0
295334681,295334236,3.490189e-08,0.00014101158,0.013379994,0.0012014682,0.0012531099,0.01194645,659,0,0.40583158,0.5033979,0.09019023,0.0,0.004330419,0.011940705,0.0,0.0,0.0,0.0,4259850,4325386,3997730,396825,0,0,229,1,3,1,3,3,0,0,0,0,0,0,0
295731413,295731049,4.6856382e-08,0.00015015896,0.012801902,0.001009647,0.0021631657,0.004495577,659,0,0.48288327,0.50569165,0.07374744,0.0,0.00704411,0.0033376515,0.0,0.0,0.0,0.0,4259850,4325386,3997730,396825,0,0,229,1,3,1,3,3,0,0,0,0,0,0,0
295930302,295929460,5.1483987e-08,0.00015110453,0.012085491,0.0008917506,0.0019988269,0.003976975,659,0,0.52306885,0.5032151,0.05661065,0.0,0.008538795,0.005977328,0.0,0.0,0.0,0.0,4259850,4325386,3997730,396825,0,0,229,1,3,1,3,3,0,0,0,0,0,0,0
296137038,296136678,7.511462e-08,0.00016360957,0.011745861,0.0009390853,0.0012270472,0.0030686434,659,0,0.5703587,0.5027908,0.076517545,0.0,0.010459176,0.010176713,0.0,0.0,0.0,0.0,4259850,4325386,3997730,396825,0,0,229,1,3,1,3,3,0,0,0,0,0,0,0
296330885,296330387,8.166672e-08,0.00016248785,0.011034749,0.0006926395,0.0013631866,0.003286029,659,0,0.6155509,0.50558805,0.062603086,0.0,0.012516716,0.0167957,0.0,0.0,0.0,0.0,4259850,4325386,3997730,396825,0,0,229,1,3,1,3,3,0,0,0,0,0,0,0
296736610,296736055,5.343743e-08,0.00013249693,0.011432805,0.000247367,0.0006319842,0.0073021934,659,0,0.72114486,0.50360984,0.009390358,0.0,0.017400233,0.018428687,0.0,0.0,0.0,0.0,4259850,4325386,3997730,396825,0,0,229,1,3,1,3,3,0,0,0,0,0,0,0
296930453,296929876,5.325703e-08,0.00012421687,0.010161373,0.00055504096,0.00083529396,0.009553294,659,0,0.7766709,0.50214267,0.046603475,0.0,0.020034777,0.012426952,0.0,0.0,0.0,0.0,4259850,4325386,3997730,396825,0,0,229,1,3,1,3,3,0,0,0,0,0,0,0
297134132,297132800,5.9150977e-08,0.00011725684,0.009919556,0.0009732864,0.0017476672,0.0020189676,659,0,0.8347771,0.5059061,0.1152212,0.0,0.02253761,0.0067827846,0.0,0.0,0.0,0.0,4259850,4325386,3997730,396825,0,0,229,1,3,1,3,3,0,0,0,0,0,0,0
297335911,297335547,5.5709815e-08,0.00011192219,0.01001746,0.0018574819,0.0037965209,0.0149433995,659,0,0.89540416,0.5044037,0.16927934,0.0,0.025353603,0.019949634,0.0,0.0,0.0,0.0,4259850,4325386,3997730,396825,0,0,229,1,3,1,3,3,0,0,0,0,0,0,0
297737788,297736994,4.5632163e-08,0.00010358921,0.009766598,0.0015961499,0.0044765007,0.021872133,659,0,1.0240467,0.5014156,0.1152131,0.0,0.031772584,0.017060528,0.0,0.0,0.0,0.0,4259850,4325386,3997730,396825,0,0,229,1,3,1,3,3,0,0,0,0,0,0,0
297935629,297935085,4.3475694e-08,9.8611825e-05,0.009003865,0.0015798644,0.0023708905,0.012350398,659,0,1.0954206,0.505177,0.15508734,0.0,0.031772584,0.012716141,0.0,0.0,0.0,0.0,4259850,4325386,3997730,396825,0,0,229,1,3,1,3,3,0,0,0,0,0,0,0
298133766,298133367,3.2446863e-08,8.950453e-05,0.008713767,0.002313002,0.004283203,0.016009256,659,0,1.1666117,0.5036871,0.20501475,0.0,0.035511386,0.016898902,0.0,0.0,0.0,0.0,4259850,4325386,3997730,396825,0,0,229,1,3,1,3,3,0,0,0,0,0,0,0
298332803,298331699,2.4649172e-08,7.7553894e-05,0.008432018,0.0031249993,0.0057760305,0.021910235,659,0,1.2401314,0.50218236,0.3027063,0.0,0.039768428,0.019644825,0.0,0.0,0.0,0.0,4259850,4325386,3997730,396825,0,0,229,1,3,1,3,3,0,0,0,0,0,0,0
298733669,298733096,1.9892104e-08,6.62769e-05,0.008074387,0.0049597663,0.0090668565,0.02844522,659,0,1.3933356,0.50440115,0.4078612,0.0,0.04859954,0.013959732,0.0,0.0,0.0,0.0,4259850,4325386,3997730,396825,0,0,229,1,3,1,3,3,0,0,0,0,0,0,0
298931911,298931189,1.9581453e-08,6.269451e-05,0.008730557,0.005645171,0.0104994085,0.03335629,659,0,1.4683746,0.5019586,0.45848906,0.0,0.05297365,0.025843088,0.0,0.0,0.0,0.0,4259850,4325386,3997730,396825,0,0,229,1,3,1,3,3,0,0,0,0,0,0,0
299139435,299138791,2.0966494e-08,6.0510603e-05,0.0079141995,0.006100938,0.010732579,0.031220846,659,0,1.5537986,0.50146747,0.48821267,0.0,0.05763566,0.0032714633,0.0,0.0,0.0,0.0,4259850,4325386,3997730,396825,0,0,229,1,3,1,3,3,0,0,0,0,0,0,0
299337488,299336859,2.1959947e-08,6.585123e-05,0.008127741,0.0061424733,0.010782178,0.03437249,659,0,1.6361889,0.5000289,0.5101924,0.0,0.061896075,0.010049857,0.0,0.0,0.0,0.0,4259850,4325386,3997730,396825,0,0,229,1,3,1,3,3,0,0,0,0,0,0,0
299531194,299530756,1.8376488e-08,6.242379e-05,0.0076126168,0.0059739756,0.008733844,0.027978836,659,0,1.7194179,0.5037197,0.5032345,0.0,0.0664529,0.012010003,0.0,0.0,0.0,0.0,4259850,4325386,3997730,396825,0,0,229,1,3,1,3,3,0,0,0,0,0,0,0
299734094,299733516,2.287238e-08,6.121182e-05,0.0071084164,0.0064825406,0.01106194,0.035548158,659,0,1.8033427,0.50219977,0.5249917,0.0,0.07007245,0.010828048,0.0,0.0,0.0,0.0,4259850,4325386,3997730,396825,0,0,165,1,3,1,3,3,0,0,0,0,0,0,0
299937067,299936441,2.5255316e-08,6.520784e-05,0.007129104,0.006492008,0.0123299,0.044307444,659,0,1.8878064,0.5007268,0.5032725,0.0,0.07397716,0.02380172,0.0,0.0,0.0,0.0,4259850,4325386,3997730,396825,0,0,165,1,3,1,3,3,0,0,0,0,0,0,0
300135292,300134928,3.1205932e-08,6.681985e-05,0.007495184,0.006183662,0.013413355,0.047861136,659,0,1.9726732,0.50443655,0.5161411,0.0,0.07669149,0.015902376,0.0,0.0,0.0,0.0,4259850,4325386,3997730,396825,0,0,165,1,3,1,3,3,0,0,0,0,0,0,0
300334896,300333009,2.580177e-08,6.080575e-05,0.007640287,0.006706948,0.013800853,0.04905656,659,0,2.0576022,0.5029632,0.520117,0.0,0.07882299,0.018921427,0.0,0.0,0.0,0.0,4259850,4325386,3997730,396825,0,0,165,1,3,1,3,3,0,0,0,0,0,0,0
300536205,300535847,2.2949841e-08,5.823596e-05,0.007524377,0.0064343615,0.01241525,0.04544497,659,0,2.142232,0.50146145,0.54707897,0.0,0.0803253,0.008966149,0.0,0.0,0.0,0.0,4259850,4325386,3997730,396825,0,0,165,1,3,1,3,3,0,0,0,0,0,0,0
300739275,300738681,1.9522368e-08,5.455646e-05,0.007838637,0.006567816,0.01254786,0.04910708,659,0,2.2262065,0.5051907,0.55541533,0.0,0.08208861,0.018469922,0.0,0.0,0.0,0.0,4259850,4325386,3997730,396825,0,0,165,1,3,1,3,3,0,0,0,0,0,0,0
300937947,300937009,1.6934901e-08,5.537158e-05,0.007796498,0.007321705,0.014684647,0.057762705,659,0,2.3091667,0.5037155,0.5745964,0.0,0.08348977,0.018798945,0.0,0.0,0.0,0.0,4259850,4325386,3997730,396825,0,0,165,1,3,1,3,3,0,0,0,0,0,0,0
301131409,301131042,1.6716294e-08,5.6638582e-05,0.007640472,0.007124784,0.016544914,0.0653432,659,0,2.3907807,0.50227505,0.6017796,0.0,0.084358335,0.013674541,0.0,0.0,0.0,0.0,4259850,4325386,3997730,396825,0,0,165,1,3,1,3,3,0,0,0,0,0,0,0
301329719,301329158,1.4395937e-08,5.336176e-05,0.0077872025,0.007419642,0.017621465,0.07120775,659,0,2.464972,0.49985957,0.62242794,0.0,0.08477904,0.009974848,0.0,0.0,0.0,0.0,4259850,4325386,3997730,396825,0,0,165,1,3,1,3,3,0,0,0,0,0,0,0
301537408,301536736,1.8724851e-08,5.3893626e-05,0.007678002,0.007909361,0.017840018,0.07321125,659,0,2.5488317,0.49941376,0.6466336,0.0,0.08517674,0.0011158704,0.0,0.0,0.0,0.0,4259850,4325386,3997730,396825,0,0,165,1,3,1,3,3,0,0,0,0,0,0,0
301735373,301734830,1.8761929e-08,5.4221204e-05,0.007096414,0.008276128,0.019523162,0.08321206,659,0,2.6186843,0.50222856,0.67657554,0.0,0.08513768,0.013460497,0.0,0.0,0.0,0.0,4259850,4325386,3997730,396825,0,0,165,1,3,1,3,3,0,0,0,0,0,0,0
301938026,301937668,1.5029215e-08,5.140051e-05,0.0075151604,0.008684735,0.019113911,0.08527547,659,0,2.6979814,0.5018398,0.71661603,0.0,0.08498863,0.0039092894,0.0,0.0,0.0,0.0,4259850,4325386,3997730,396825,0,0,165,1,3,1,3,3,0,0,0,0,0,0,0
302127686,302127168,1.41050345e-08,5.131507e-05,0.00751208,0.008836251,0.020657849,0.09534729,659,0,2.7623773,0.50467336,0.72615045,0.0,0.0844679,0.0047767214,0.0,0.0,0.0,0.0,4259850,4325386,3997730,396825,0,0,165,1,3,1,3,3,0,0,0,0,0,0,0
302334874,302334378,1.25238095e-08,4.8527127e-05,0.007625172,0.009101947,0.020614505,0.09773061,659,0,2.835993,0.5042617,0.7362577,0.0,0.08407996,0.010457877,0.0,0.0,0.0,0.0,4259850,4325386,3997730,396825,0,0,165,1,3,1,3,3,0,0,0,0,0,0,0
302731571,302730980,1.2260127e-08,4.8164336e-05,0.0077602277,0.00852561,0.0217783,0.1077802,659,0,2.9613822,0.50150967,0.7232634,0.0,0.08346778,0.0089623025,0.0,0.0,0.0,0.0,4259850,4325386,3997730,396825,0,0,165,1,3,1,3,3,0,0,0,0,0,0,0
302939099,302938546,1.3876472e-08,4.801554e-05,0.007143604,0.009075438,0.022610124,0.11252346,659,0,3.0190895,0.5001359,0.72696507,0.0,0.083314076,0.0059476234,0.0,0.0,0.0,0.0,4259850,4325386,3997730,396825,0,0,165,1,3,1,3,3,0,0,0,0,0,0,0
303137147,303136656,1.1139774e-08,4.896892e-05,0.007210618,0.008834127,0.021887671,0.11462941,659,0,3.073504,0.50400656,0.7161422,0.0,0.08356436,0.0051583657,0.0,0.0,0.0,0.0,4259850,4325386,3997730,396825,0,0,165,1,3,1,3,3,0,0,0,0,0,0,0
303335578,303334986,9.786347e-09,4.8064554e-05,0.006944867,0.008285237,0.021061521,0.11577937,659,0,3.1245263,0.50268066,0.7095783,0.0,0.0833635,0.0022214775,0.0,0.0,0.0,0.0,4259850,4325386,3997730,396825,0,0,165,1,3,1,3,3,0,0,0,0,0,0,0
303529782,303528989,1.0483559e-08,5.2753632e-05,0.006491173,0.008993375,0.02440379,0.13139136,659,0,3.1655123,0.50042915,0.68833804,0.0,0.08351019,0.010140871,0.0,0.0,0.0,0.0,4259850,4325386,3997730,396825,0,0,165,1,3,1,3,3,0,0,0,0,0,0,0
303736753,303736200,1.2533312e-08,5.573699e-05,0.0062891133,0.008917996,0.023597179,0.12902895,659,0,3.2157757,0.50016046,0.6892408,0.0,0.08356713,0.013339001,0.0,0.0,0.0,0.0,4259850,4325386,3997730,396825,0,0,165,1,3,1,3,3,0,0,0,0,0,0,0
303930497,303930011,1.1878658e-08,5.3636293e-05,0.0063284985,0.008379522,0.023666173,0.13585514,659,0,3.2560992,0.5040873,0.6677297,0.0,0.08375373,0.0048942342,0.0,0.0,0.0,0.0,4259850,4325386,3997730,396825,0,0,165,1,3,1,3,3,0,0,0,0,0,0,0
304134667,304132848,1.089059e-08,5.3438573e-05,0.0069173463,0.008225962,0.025247915,0.14640339,659,0,3.2928343,0.5028179,0.6707592,0.0,0.08358158,0.014797491,0.0,0.0,0.0,0.0,4259850,4325386,3997730,396825,0,0,165,1,3,1,3,3,0,0,0,0,0,0,0
304331530,304331131,1.1511669e-08,5.3185162e-05,0.0071548847,0.007756385,0.0072239377,0.011696445,659,0,3.4224856,0.50156254,0.65174025,0.0,0.08358158,0.0069925115,0.0,0.0,0.0,0.0,4259850,4325386,3997730,396825,0,0,165,1,3,1,3,3,0,0,0,0,0,0,0
304737186,304736803,9.826483e-09,5.1911087e-05,0.008497763,0.007576358,0.0072144507,0.009261947,659,0,3.48537,0.50432754,0.63192266,0.0,0.08278996,0.007981206,0.0,0.0,0.0,0.0,4259850,4325386,3997730,396825,0,0,165,1,3,1,3,3,0,0,0,0,0,0,0
304931229,304930802,7.7171665e-09,5.033382e-05,0.007837656,0.0073629348,0.005196649,0.005067738,659,0,3.5054867,0.5021597,0.6076432,0.0,0.08218913,0.00643493,0.0,0.0,0.0,0.0,4259850,4325386,3997730,396825,0,0,165,1,3,1,3,3,0,0,0,0,0,0,0
305138449,305138093,1.2283738e-08,4.9829752e-05,0.008227785,0.0068431394,0.0053081675,0.0106462035,659,0,3.5359848,0.50201255,0.5553148,0.0,0.08121545,0.00023650244,0.0,0.0,0.0,0.0,4259850,4325386,3997730,396825,0,0,165,1,3,1,3,3,0,0,0,0,0,0,0
305337139,305336506,2.0061151e-08,5.21224e-05,0.007966978,0.0064196726,0.0042394307,0.01137984,659,0,3.5570805,0.5061099,0.5842357,0.0,0.08019937,0.00057151617,0.0,0.0,0.0,0.0,4259850,4325386,3997730,396825,0,0,165,1,3,1,3,3,0,0,0,0,0,0,0
305530543,305530163,2.1484512e-08,5.1851315e-05,0.007494769,0.0066790604,0.0036434962,0.010406448,659,0,3.5693645,0.50397897,0.57834625,0.0,0.078720145,0.004574531,0.0,0.0,0.0,0.0,4259850,4325386,3997730,396825,0,0,165,1,3,1,3,3,0,0,0,0,0,0,0
305733504,305732999,1.7686334e-08,5.0225975e-05,0.008061422,0.007069555,0.0052054576,0.008483106,659,0,3.5918586,0.5038597,0.58243376,0.0,0.077552125,0.0036001694,0.0,0.0,0.0,0.0,4259850,4325386,3997730,396825,0,0,165,1,3,1,3,3,0,0,0,0,0,0,0
305927428,305926937,1.3901402e-08,5.2897114e-05,0.00828722,0.006872861,0.0047222064,0.0042683715,659,0,3.5993502,0.5069959,0.54617506,0.0,0.07583737,0.00029251602,0.0,0.0,0.0,0.0,4259850,4325386,3997730,396825,0,0,165,1,3,1,3,3,0,0,0,0,0,0,0
306139177,306138671,1.2396661e-08,5.3239124e-05,0.008714762,0.006667023,0.0058721174,0.0104732,659,0,3.6173544,0.5068868,0.54931736,0.0,0.07439972,0.005856389,0.0,0.0,0.0,0.0,4259850,4325386,3997730,396825,0,0,165,1,3,1,3,3,0,0,0,0,0,0,0
306333158,306332628,1.17616095e-08,5.2355874e-05,0.008511483,0.0066064293,0.0052263825,0.008834924,659,0,3.6211095,0.50483525,0.5245114,0.0,0.07264043,0.0013020941,0.0,0.0,0.0,0.0,4259850,4325386,3997730,396825,0,0,165,1,3,1,3,3,0,0,0,0,0,0,0
306729981,306729104,1.1992614e-08,5.0249448e-05,0.00850087,0.0057722186,0.0049097026,0.010652718,659,0,3.6360815,0.5080613,0.5066019,0.0,0.06901079,0.0035915284,0.0,0.0,0.0,0.0,4259850,4325386,3997730,396825,0,0,165,1,3,1,3,3,0,0,0,0,0,0,0
306936949,306936449,1.1834902e-08,4.9891893e-05,0.008055671,0.006016986,0.0059453915,0.017572137,659,0,3.6474423,0.5080544,0.5137187,0.0,0.067325026,0.0036736606,0.0,0.0,0.0,0.0,4259850,4325386,3997730,396825,0,0,165,1,3,1,3,3,0,0,0,0,0,0,0
307139778,307139286,1.0034391e-08,4.9057024e-05,0.007505983,0.005998406,0.006258122,0.0156035395,659,0,3.6509607,0.5070047,0.47884867,0.0,0.06535898,0.007894043,0.0,0.0,0.0,0.0,4259850,4325386,3997730,396825,0,0,165,1,3,1,3,3,0,0,0,0,0,0,0
307329624,307328758,9.950728e-09,5.4132863e-05,0.007745676,0.005895657,0.005039316,0.013428674,659,0,3.6531599,0.50601643,0.48377246,0.0,0.06354574,0.011102933,0.0,0.0,0.0,0.0,4259850,4325386,3997730,396825,0,0,165,1,3,1,3,3,0,0,0,0,0,0,0
307532072,307531434,1.1215504e-08,5.1123687e-05,0.007665379,0.0057463855,0.0046291845,0.009295374,659,0,3.648212,0.50930274,0.4685489,0.0,0.061405748,0.0028705846,0.0,0.0,0.0,0.0,4259850,4325386,3997730,396825,0,0,165,1,3,1,3,3,0,0,0,0,0,0,0
307735030,307734458,1.4068779e-08,5.190181e-05,0.007516416,0.0058536776,0.0060381046,0.018809563,659,0,3.6547172,0.5093234,0.46348295,0.0,0.05947941,0.0021574805,0.0,0.0,0.0,0.0,4259850,4325386,3997730,396825,0,0,165,1,3,1,3,3,0,0,0,0,0,0,0
307937468,307937107,1.5261849e-08,5.378476e-05,0.008329572,0.005316098,0.0065357275,0.022117812,659,0,3.6544201,0.50832105,0.4596027,0.0,0.05735234,0.009315981,0.0,0.0,0.0,0.0,4259850,4325386,3997730,396825,0,0,165,1,3,1,3,3,0,0,0,0,0,0,0
308135928,308135436,1.4876387e-08,5.437124e-05,0.008156151,0.005770864,0.0069126408,0.023849307,659,0,3.6533391,0.50733334,0.46649852,0.0,0.05522533,0.00080964545,0.0,0.0,0.0,0.0,4259850,4325386,3997730,396825,0,0,165,1,3,1,3,3,0,0,0,0,0,0,0
308325352,308324883,1.1861069e-08,5.2964617e-05,0.008504891,0.005371307,0.0049494044,0.016389407,659,0,3.6455417,0.51072377,0.45479423,0.0,0.05282448,0.0077884677,0.0,0.0,0.0,0.0,4259850,4325386,3997730,396825,0,0,165,1,3,1,3,3,0,0,0,0,0,0,0
308537407,308536601,9.971479e-09,5.0512393e-05,0.008686955,0.00536375,0.006844966,0.026981628,659,0,3.6494207,0.51076686,0.469715,0.0,0.050105028,0.0069421194,0.0,0.0,0.0,0.0,4259850,4325386,3997730,396825,0,0,165,1,3,1,3,3,0,0,0,0,0,0,0
308730934,308730577,1.0479195e-08,4.9240512e-05,0.0079478575,0.0055430736,0.006484064,0.026869994,659,0,3.6409824,0.50874573,0.46063438,0.0,0.047159363,0.00010956397,0.0,0.0,0.0,0.0,4259850,4325386,3997730,396825,0,0,165,1,3,1,3,3,0,0,0,0,0,0,0
308938221,308937803,1.1704787e-08,4.7423153e-05,0.008176022,0.0056830463,0.008426536,0.038164873,659,0,3.6437123,0.5087899,0.4863388,0.0,0.044090666,0.018706989,0.0,0.0,0.0,0.0,4259850,4325386,3997730,396825,0,0,165,1,3,1,3,3,0,0,0,0,0,0,0
309136945,309136285,1.348601e-08,5.0430743e-05,0.007768218,0.0055453866,0.007180282,0.035629112,659,0,3.6398613,0.51321495,0.48907116,0.0,0.040774774,0.005632197,0.0,0.0,0.0,0.0,4259850,4325386,3997730,396825,0,0,165,1,3,1,3,3,0,0,0,0,0,0,0
309330284,309329916,1.6071754e-08,5.31995e-05,0.008039014,0.005578944,0.007053761,0.032534525,659,0,3.629676,0.5111113,0.47738194,0.0,0.037138745,0.014059899,0.0,0.0,0.0,0.0,4259850,4325386,3997730,396825,0,0,165,1,3,1,3,3,0,0,0,0,0,0,0
309533299,309532752,1.6023376e-08,5.5884e-05,0.007455039,0.005973573,0.010016508,0.04296576,659,0,3.6250517,0.5100768,0.49746424,0.0,0.033432536,0.001128521,0.0,0.0,0.0,0.0,4259850,4325386,3997730,396825,0,0,165,1,3,1,3,3,0,0,0,0,0,0,0
309731855,309731081,1.3154325e-08,5.2682848e-05,0.007366352,0.0061911866,0.011577033,0.05329609,659,0,3.6260343,0.51008624,0.5178573,0.0,0.029598843,0.00785325,0.0,0.0,0.0,0.0,4259850,4325386,3997730,396825,0,0,165,1,3,1,3,3,0,0,0,0,0,0,0
309939105,309938425,1.1041907e-08,5.2875086e-05,0.007170674,0.006114222,0.011399027,0.053988066,659,0,3.6209273,0.5144981,0.5414033,0.0,0.025645932,0.0094958665,0.0,0.0,0.0,0.0,4259850,4325386,3997730,396825,0,0,165,1,3,1,3,3,0,0,0,0,0,0,0
310132851,310132405,9.971328e-09,4.941179e-05,0.0069471523,0.0061855935,0.011881234,0.059918318,659,0,3.6161056,0.51342773,0.54395264,0.0,0.021266982,0.0064879395,0.0,0.0,0.0,0.0,4259850,4325386,3997730,396825,0,0,165,1,3,1,3,3,0,0,0,0,0,0,0
310336125,310335086,9.5416555e-09,4.8674126e-05,0.0068258145,0.006598567,0.014838484,0.0717603,659,0,3.611487,0.512365,0.5623369,0.0,0.017086672,0.0067059873,0.0,0.0,0.0,0.0,4259850,4325386,3997730,396825,0,0,165,1,3,1,3,3,0,0,0,0,0,0,0
310538451,310538093,8.036476e-09,4.713962e-05,0.0066333273,0.0067368434,0.015924914,0.080966875,659,0,3.606697,0.5168267,0.5959134,0.0,0.012597801,0.011721221,0.0,0.0,0.0,0.0,4259850,4325386,3997730,396825,0,0,165,1,3,1,3,3,0,0,0,0,0,0,0
310732106,310731740,6.3667245e-09,4.6746307e-05,0.0066660237,0.007003709,0.017637264,0.08885432,659,0,3.596362,0.5146869,0.6106965,0.0,0.008359872,0.0015732178,0.0,0.0,0.0,0.0,4259850,4325386,3997730,396825,0,0,165,1,3,1,3,3,0,0,0,0,0,0,0
310930628,310930069,6.115603e-09,4.7379086e-05,0.00732339,0.00721319,0.019349556,0.09993178,659,0,3.5970612,0.5146874,0.6203848,0.0,0.003923216,0.0128125455,0.0,0.0,0.0,0.0,4259850,4325386,3997730,396825,0,0,165,1,3,1,3,3,0,0,0,0,0,0,0
312138861,312138072,1.526077e-08,5.210883e-05,0.007917936,0.0067768903,0.029390967,0.10773835,8389267,0,3.6871574,0.5135054,0.008813417,0.0,0.01621354,0.0048246374,0.0,0.0,0.0,0.0,4259850,4325386,3997730,396825,0,0,165,1,3,1,3,4,0,0,0,0,0,0,0
312337954,312336445,1.5540753e-08,5.2808868e-05,0.007838909,0.00052938226,0.032841295,0.1127872,8389267,0,3.6781106,0.5176593,0.0017263858,0.0,0.020371415,0.012404034,0.0,0.0,0.0,0.0,4259850,4325386,3997730,396825,0,0,165,1,3,1,3,4,0,0,0,0,0,0,0
312733543,312733059,1.491917e-08,5.3155723e-05,0.008052936,0.0031443313,0.028850148,0.10420758,8389267,0,3.6560006,0.5143491,0.020128388,0.0,0.027724117,0.018450588,0.0,0.0,0.0,0.0,4259850,4325386,3997730,396825,0,0,165,1,3,1,3,4,0,0,0,0,0,0,0
312937556,312936057,1.720946e-08,5.5018605e-05,0.008775495,0.00457159,0.027550273,0.10159754,8389267,0,3.6433609,0.51831627,0.030988151,0.0,0.031052044,0.023229126,0.0,0.0,0.0,0.0,4259850,4325386,3997730,396825,0,0,165,1,3,1,3,4,0,0,0,0,0,0,0
313139106,313138730,2.213606e-08,5.4763503e-05,0.008452898,0.004809422,0.021848876,0.092863634,8389267,0,3.630049,0.51677996,0.044214357,0.0,0.034389615,0.03727071,0.0,0.0,0.0,0.0,4259850,4325386,3997730,396825,0,0,165,1,3,1,3,4,0,0,0,0,0,0,0
313333048,313332551,2.8484724e-08,5.6699675e-05,0.008158942,0.005359049,0.01933265,0.09085207,8389267,0,3.6111422,0.514457,0.062521964,0.0,0.037457157,0.03517516,0.0,0.0,0.0,0.0,4259850,4325386,3997730,396825,0,0,165,1,3,1,3,4,0,0,0,0,0,0,0
313734154,313733776,2.2235518e-08,5.2484735e-05,0.007265879,0.0054782317,0.016418198,0.0857194,8389267,0,3.586948,0.5196926,0.07375006,0.0,0.043565087,0.033430815,0.0,0.0,0.0,0.0,4259850,4325386,3997730,396825,0,0,165,1,3,1,3,4,0,0,0,0,0,0,0
313932588,313932177,2.2278254e-08,5.8157977e-05,0.0069508357,0.005034897,0.014758084,0.08742937,8389267,0,3.5718005,0.5195544,0.07762726,0.0,0.0462828,0.05039715,0.0,0.0,0.0,0.0,4259850,4325386,3997730,396825,0,0,165,1,3,1,3,4,0,0,0,0,0,0,0
314135934,314134885,2.0701883e-08,5.615363e-05,0.0067673787,0.0051631876,0.012305134,0.08941693,8389267,0,3.556869,0.5198746,0.068014055,0.0,0.04823414,0.05443484,0.0,0.0,0.0,0.0,4259850,4325386,3997730,396825,0,0,165,1,3,1,3,4,0,0,0,0,0,0,0
314338219,314337867,2.078804e-08,5.5204167e-05,0.0071331626,0.0038492535,0.011878714,0.08128168,8389267,0,3.5423298,0.5266841,0.05000372,0.0,0.05002771,0.051315915,0.0,0.0,0.0,0.0,4259850,4325386,3997730,396825,0,0,165,1,3,1,3,4,0,0,0,0,0,0,0
314734919,314734376,2.0480913e-08,5.6112545e-05,0.0073477407,0.001572046,0.010569927,0.07980241,8389267,0,3.514645,0.5304473,0.024896458,0.0,0.052989397,0.06123981,0.0,0.0,0.0,0.0,4259850,4325386,3997730,396825,0,0,165,1,3,1,3,4,0,0,0,0,0,0,0
314937657,314937212,1.7400831e-08,5.2906285e-05,0.0075361873,0.0011916611,0.012931501,0.08697194,8389267,0,3.5014367,0.5330556,0.037238024,0.0,0.054016322,0.0673369,0.0,0.0,0.0,0.0,4259850,4325386,3997730,396825,0,0,165,1,3,1,3,4,0,0,0,0,0,0,0
315131609,315131078,1.408334e-08,4.879837e-05,0.007845614,0.00044553066,0.011839253,0.07752895,8389267,0,3.4891171,0.54258806,0.0026872952,0.0,0.05486003,0.07067635,0.0,0.0,0.0,0.0,4259850,4325386,3997730,396825,0,0,165,1,3,1,3,4,0,0,0,0,0,0,0
315334518,315334014,1.1208465e-08,4.822849e-05,0.0075608245,0.0002667845,0.017851792,0.09678053,8389267,0,3.472784,0.54469234,0.023712685,0.0,0.055490114,0.078192286,0.0,0.0,0.0,0.0,4259850,4325386,3997730,396825,0,0,165,1,3,1,3,4,0,0,0,0,0,0,0
315537356,315536760,1.2354118e-08,4.9780443e-05,0.0072697704,0.0015123377,0.018702477,0.08989547,8389267,0,3.4669094,0.5501579,0.061928064,0.0,0.05615081,0.072786376,0.0,0.0,0.0,0.0,4259850,4325386,3997730,396825,0,0,165,1,3,1,3,4,0,0,0,0,0,0,0
315740136,315739706,1.341113e-08,4.9454127e-05,0.007003004,0.0022978676,0.021970509,0.096958004,8389267,0,3.4571793,0.5543185,0.070503935,0.0,0.056565553,0.07710004,0.0,0.0,0.0,0.0,4259850,4325386,3997730,396825,0,0,165,1,3,1,3,4,0,0,0,0,0,0,0
315938509,315937871,1.2645657e-08,5.010478e-05,0.007123678,0.004261418,0.017055452,0.07971876,8389267,0,3.4484117,0.5659182,0.1344692,0.0,0.057069965,0.08521861,0.0,0.0,0.0,0.0,4259850,4325386,3997730,396825,0,0,165,1,3,1,3,4,0,0,0,0,0,0,0
316137110,316136206,1.2371124e-08,5.0832157e-05,0.0074279876,0.005018877,0.02078918,0.08805233,8389267,0,3.4405801,0.5703523,0.13358994,0.0,0.05700284,0.07126586,0.0,0.0,0.0,0.0,4259850,4325386,3997730,396825,0,0,165,1,3,1,3,4,0,0,0,0,0,0,0
316330715,316330141,1.962083e-08,5.5737295e-05,0.007152102,0.0052789026,0.028233947,0.108045265,8389267,0,3.4292428,0.57286054,0.14957993,0.0,0.056633387,0.08048116,0.0,0.0,0.0,0.0,4259850,4325386,3997730,396825,0,0,165,1,3,1,3,4,0,0,0,0,0,0,0
316533435,316532857,1.6320124e-08,5.2969535e-05,0.0067920783,0.0062877084,0.029469661,0.106426306,8389267,0,3.428627,0.5787356,0.18750049,0.0,0.056203306,0.07476157,0.0,0.0,0.0,0.0,4259850,4325386,3997730,396825,0,0,165,1,3,1,3,4,0,0,0,0,0,0,0
316737301,316735830,1.9579167e-08,5.703655e-05,0.0070669902,0.0064786747,0.019502578,0.07774068,8389267,0,3.4246602,0.5908492,0.19516075,0.0,0.05567731,0.073568,0.0,0.0,0.0,0.0,4259850,4325386,3997730,396825,0,0,165,1,3,1,3,4,0,0,0,0,0,0,0
316930056,316929520,1.9931804e-08,5.969255e-05,0.0068833176,0.0068010325,0.027247816,0.09806994,8389267,0,3.4169953,0.59267586,0.22419962,0.0,0.055445176,0.07940858,0.0,0.0,0.0,0.0,4259850,4325386,3997730,396825,0,0,165,1,3,1,3,4,0,0,0,0,0,0,0
317133039,317132357,1.9166741e-08,5.749399e-05,0.006962006,0.0072485134,0.032782912,0.11081439,8389267,0,3.4158356,0.596032,0.23999651,0.0,0.055032793,0.07593251,0.0,0.0,0.0,0.0,4259850,4325386,3997730,396825,0,0,165,1,3,1,3,4,0,0,0,0,0,0,0
317335717,317335191,1.6193196e-08,5.57339e-05,0.007426051,0.007909335,0.030226031,0.10096727,8389267,0,3.420964,0.60088754,0.2707444,0.0,0.05479761,0.07928053,0.0,0.0,0.0,0.0,4259850,4325386,3997730,396825,0,0,165,1,3,1,3,4,0,0,0,0,0,0,0
317732365,317731965,1.688696e-08,5.8656235e-05,0.006671138,0.008073515,0.025762662,0.0896837,8389267,0,3.419861,0.6121107,0.29236078,0.0,0.053786308,0.07921592,0.0,0.0,0.0,0.0,4259850,4325386,3997730,396825,0,0,165,1,3,1,3,4,0,0,0,0,0,0,0
317930764,317930179,1.6494937e-08,5.714538e-05,0.0064240796,0.008247462,0.024938656,0.08516629,8389267,0,3.4289978,0.61533123,0.30941397,0.0,0.053364683,0.08600611,0.0,0.0,0.0,0.0,4259850,4325386,3997730,396825,0,0,165,1,3,1,3,4,0,0,0,0,0,0,0
318129802,318128549,1.517774e-08,5.940128e-05,0.0065054563,0.007964458,0.017309573,0.072280705,8389267,0,3.433824,0.625591,0.32716644,0.0,0.052699447,0.07664953,0.0,0.0,0.0,0.0,4259850,4325386,3997730,396825,0,0,165,1,3,1,3,4,0,0,0,0,0,0,0
318336377,318335847,1.2572617e-08,5.9848993e-05,0.00651018,0.008751917,0.022193585,0.08071724,8389267,0,3.4399636,0.6254737,0.33898562,0.0,0.05244341,0.07153817,0.0,0.0,0.0,0.0,4259850,4325386,3997730,396825,0,0,165,1,3,1,3,4,0,0,0,0,0,0,0
318534757,318534221,1.1187969e-08,5.5792792e-05,0.0064930874,0.008892372,0.02412769,0.0889199,8389267,0,3.4471433,0.6251026,0.3697097,0.0,0.052194618,0.08670195,0.0,0.0,0.0,0.0,4259850,4325386,3997730,396825,0,0,165,1,3,1,3,4,0,0,0,0,0,0,0
318737612,318737057,1.019321e-08,5.141691e-05,0.007113506,0.00947108,0.025599431,0.092587724,8389267,0,3.4554925,0.6241848,0.37422127,0.0,0.051881403,0.07435981,0.0,0.0,0.0,0.0,4259850,4325386,3997730,396825,0,0,165,1,3,1,3,4,0,0,0,0,0,0,0
318927226,318926582,8.261295e-09,4.8342055e-05,0.0070583113,0.009588936,0.01155969,0.038944673,8389267,0,3.5673902,0.6309993,0.3821676,0.0,0.051881403,0.073657535,0.0,0.0,0.0,0.0,4259850,4325386,3997730,396825,0,0,165,1,3,1,3,4,0,0,0,0,0,0,0
319134205,319133793,1.1681976e-08,5.323189e-05,0.007698494,0.008949351,0.011532793,0.039933976,8389267,0,3.578166,0.6291552,0.3758042,0.0,0.051892776,0.07740921,0.0,0.0,0.0,0.0,4259850,4325386,3997730,396825,0,0,165,1,3,1,3,4,0,0,0,0,0,0,0
319336931,319336508,1.2918978e-08,4.9924125e-05,0.0070764218,0.008811151,0.014985123,0.05253438,8389267,0,3.5960567,0.6288209,0.37404078,0.0,0.051894765,0.07162471,0.0,0.0,0.0,0.0,4259850,4325386,3997730,396825,0,0,165,1,3,1,3,4,0,0,0,0,0,0,0
319531026,319530327,1.2597786e-08,5.0725106e-05,0.0073668933,0.0083888015,0.0054151085,0.03311313,8389267,0,3.6019256,0.63441634,0.37471187,0.0,0.052178055,0.06425926,0.0,0.0,0.0,0.0,4259850,4325386,3997730,396825,0,0,165,1,3,1,3,4,0,0,0,0,0,0,0
319733605,319733164,1.2035801e-08,4.919965e-05,0.0073123868,0.0077230614,0.0051393383,0.03581314,8389267,0,3.6211839,0.6332265,0.37182075,0.0,0.052097477,0.05665945,0.0,0.0,0.0,0.0,4259850,4325386,3997730,396825,0,0,165,1,3,1,3,4,0,0,0,0,0,0,0
319937119,319935999,1.1221243e-08,4.6980946e-05,0.0072227414,0.0077028004,0.008046227,0.03441959,8389267,0,3.6343591,0.6296949,0.35128093,0.0,0.052263346,0.06180698,0.0,0.0,0.0,0.0,4259850,4325386,3997730,396825,0,0,165,1,3,1,3,4,0,0,0,0,0,0,0
320139212,320138836,1.43061065e-08,5.1711573e-05,0.008119652,0.007177495,0.009969226,0.04116014,8389267,0,3.6482234,0.62613136,0.3471134,0.0,0.052583665,0.07419473,0.0,0.0,0.0,0.0,4259850,4325386,3997730,396825,0,0,165,1,3,1,3,4,0,0,0,0,0,0,0
320328947,320328402,1.5578866e-08,5.3504602e-05,0.007649707,0.0074686026,0.0052511087,0.033761878,8389267,0,3.655518,0.6306173,0.32992005,0.0,0.05272407,0.06199063,0.0,0.0,0.0,0.0,4259850,4325386,3997730,396825,0,0,165,1,3,1,3,4,0,0,0,0,0,0,0
320729682,320729315,1.1121269e-08,4.9298273e-05,0.007892056,0.0061532664,0.0033624351,0.026739443,8389267,0,3.684054,0.622533,0.30712965,0.0,0.053001475,0.060705997,0.0,0.0,0.0,0.0,4259850,4325386,3997730,396825,0,0,165,1,3,1,3,4,0,0,0,0,0,0,0
320932674,320932150,1.0601991e-08,5.088634e-05,0.0075901677,0.005846045,0.003675433,0.02920837,8389267,0,3.7052135,0.6200559,0.27538237,0.0,0.052820697,0.062848255,0.0,0.0,0.0,0.0,4259850,4325386,3997730,396825,0,0,165,1,3,1,3,4,0,0,0,0,0,0,0
321135809,321135027,1.3536789e-08,5.3416952e-05,0.008366708,0.0051078927,0.009597664,0.041090015,8389267,0,3.7189257,0.6253536,0.27681553,0.0,0.05286284,0.06744145,0.0,0.0,0.0,0.0,4259850,4325386,3997730,396825,0,0,165,1,3,1,3,4,0,0,0,0,0,0,0
321338513,321337882,1.675345e-08,5.17099e-05,0.008485417,0.0051591503,0.00580953,0.03148494,8389267,0,3.7325795,0.62062436,0.2397882,0.0,0.05254766,0.06690377,0.0,0.0,0.0,0.0,4259850,4325386,3997730,396825,0,0,165,1,3,1,3,4,0,0,0,0,0,0,0
321735093,321734535,1.8077658e-08,5.1903455e-05,0.00801406,0.004296987,0.006323891,0.029479748,8389267,0,3.7598853,0.611427,0.22032338,0.0,0.051926073,0.051784042,0.0,0.0,0.0,0.0,4259850,4325386,3997730,396825,0,0,165,1,3,1,3,4,0,0,0,0,0,0,0
321937965,321937437,1.4863804e-08,4.9566206e-05,0.008188527,0.004031802,0.013677245,0.049953792,8389267,0,3.7726355,0.61609745,0.20763679,0.0,0.051485553,0.0454009,0.0,0.0,0.0,0.0,4259850,4325386,3997730,396825,0,0,165,1,3,1,3,4,0,0,0,0,0,0,0
322131614,322131139,1.16023475e-08,4.708525e-05,0.007780285,0.003652443,0.010379636,0.035718217,8389267,0,3.777264,0.60970414,0.17142381,0.0,0.050996564,0.044908743,0.0,0.0,0.0,0.0,4259850,4325386,3997730,396825,0,0,165,1,3,1,3,4,0,0,0,0,0,0,0
322334748,322333975,9.958035e-09,4.730363e-05,0.0072400104,0.0031205697,0.011022611,0.03348304,8389267,0,3.795466,0.6066028,0.14005215,0.0,0.050439104,0.054804865,0.0,0.0,0.0,0.0,4259850,4325386,3997730,396825,0,0,165,1,3,1,3,4,0,0,0,0,0,0,0
322726765,322726357,9.766383e-09,4.7095087e-05,0.007894862,0.0019076966,0.015181449,0.043127585,8389267,0,3.8071523,0.60447097,0.075436026,0.0,0.048547998,0.048787102,0.0,0.0,0.0,0.0,4259850,4325386,3997730,396825,0,0,165,1,3,1,3,4,0,0,0,0,0,0,0
322934001,322933575,1.1027696e-08,4.9068294e-05,0.0075988704,0.0013626493,0.015927145,0.044075005,8389267,0,3.8159666,0.5997282,0.06912601,0.0,0.047270752,0.03884092,0.0,0.0,0.0,0.0,4259850,4325386,3997730,396825,0,0,165,1,3,1,3,4,0,0,0,0,0,0,0
323133458,323132049,9.319675e-09,4.7653597e-05,0.007862072,0.0009818999,0.016041562,0.042950872,8389267,0,3.8243113,0.5951703,0.025842601,0.0,0.045994323,0.042301077,0.0,0.0,0.0,0.0,4259850,4325386,3997730,396825,0,0,165,1,3,1,3,4,0,0,0,0,0,0,0
323330642,323330126,8.200877e-09,4.731605e-05,0.007912114,0.00063726207,0.022489036,0.06195626,8389267,0,3.83145,0.599312,0.01932754,0.0,0.044698052,0.03905969,0.0,0.0,0.0,0.0,4259850,4325386,3997730,396825,0,0,165,1,3,1,3,4,0,0,0,0,0,0,0
323736560,323735799,1.10721885e-08,5.0447103e-05,0.008653021,0.00027458149,0.014501943,0.032255575,8389267,0,3.849838,0.5912693,0.019273799,0.0,0.04179975,0.065241866,0.0,0.0,0.0,0.0,4259850,4325386,3997730,396825,0,0,165,1,3,1,3,4,0,0,0,0,0,0,0
323930178,323929710,1.1570574e-08,5.0714487e-05,0.008134195,0.0004226438,0.011849232,0.021833314,8389267,0,3.8471625,0.5852229,0.033560965,0.0,0.040257014,0.05494065,0.0,0.0,0.0,0.0,4259850,4325386,3997730,396825,0,0,165,1,3,1,3,4,0,0,0,0,0,0,0
324132896,324132456,9.854935e-09,5.082662e-05,0.008242836,0.00044859556,0.009159803,0.01860657,8389267,0,3.8582962,0.58217466,0.046851438,0.0,0.038803972,0.0631301,0.0,0.0,0.0,0.0,4259850,4325386,3997730,396825,0,0,165,1,3,1,3,4,0,0,0,0,0,0,0
324336439,324335392,8.0912175e-09,5.0707004e-05,0.008025558,0.0005980759,0.014818194,0.031256445,8389267,0,3.8610098,0.5858474,0.053573094,0.0,0.037210926,0.05322105,0.0,0.0,0.0,0.0,4259850,4325386,3997730,396825,0,0,165,1,3,1,3,4,0,0,0,0,0,0,0
324732563,324731994,7.308737e-09,5.2447635e-05,0.008040527,0.00028707855,0.008738173,0.02008995,8389267,0,3.8641431,0.5770393,0.037186287,0.0,0.033789016,0.053101387,0.0,0.0,0.0,0.0,4259850,4325386,3997730,396825,0,0,165,1,3,1,3,4,0,0,0,0,0,0,0
324935667,324934832,5.915301e-09,4.928261e-05,0.008140915,0.00016314336,0.013328415,0.033190206,8389267,0,3.8644817,0.58058864,0.0014378853,0.0,0.03195221,0.051840298,0.0,0.0,0.0,0.0,4259850,4325386,3997730,396825,0,0,165,1,3,1,3,4,0,0,0,0,0,0,0
325125450,325124311,6.7802994e-09,4.8052952e-05,0.008448483,0.00048954017,0.00751834,0.021272324,8389267,0,3.8570042,0.5748823,0.020439643,0.0,0.030102467,0.052431498,0.0,0.0,0.0,0.0,4259850,4325386,3997730,396825,0,0,165,1,3,1,3,4,0,0,0,0,0,0,0
325336635,325335951,7.0995627e-09,4.981665e-05,0.008020765,0.0006162142,0.00688117,0.025720282,8389267,0,3.8637986,0.57198375,0.023585001,0.0,0.028271977,0.058110714,0.0,0.0,0.0,0.0,4259850,4325386,3997730,396825,0,0,165,1,3,1,3,4,0,0,0,0,0,0,0
325737577,325737224,7.970221e-09,4.9735445e-05,0.007058789,0.0009330759,0.008539984,0.030141277,8389267,0,3.859986,0.57120115,0.065719694,0.0,0.024701305,0.055105336,0.0,0.0,0.0,0.0,4259850,4325386,3997730,396825,0,0,165,1,3,1,3,4,0,0,0,0,0,0,0
325936054,325935704,7.3150748e-09,4.9341623e-05,0.0070979046,0.001119081,0.0074516134,0.030714067,8389267,0,3.8574812,0.56706524,0.08094221,0.0,0.022971023,0.05361443,0.0,0.0,0.0,0.0,4259850,4325386,3997730,396825,0,0,165,1,3,1,3,4,0,0,0,0,0,0,0
326134485,326133795,9.542885e-09,5.4211305e-05,0.0070398697,0.0015628958,0.0058838157,0.030837024,8389267,0,3.8542604,0.56307495,0.10395854,0.0,0.021339376,0.053279597,0.0,0.0,0.0,0.0,4259850,4325386,3997730,396825,0,0,165,1,3,1,3,4,0,0,0,0,0,0,0
326336972,326336609,8.458349e-09,5.3553933e-05,0.007150287,0.0017590689,0.008728578,0.038014837,8389267,0,3.8508258,0.56643224,0.12941787,0.0,0.019755758,0.057810053,0.0,0.0,0.0,0.0,4259850,4325386,3997730,396825,0,0,165,1,3,1,3,4,0,0,0,0,0,0,0
326738209,326737820,8.986452e-09,5.218604e-05,0.0071112826,0.0022792167,0.0067253844,0.03860341,8389267,0,3.8423908,0.5585964,0.14024329,0.0,0.01657365,0.06760558,0.0,0.0,0.0,0.0,4259850,4325386,3997730,396825,0,0,165,1,3,1,3,4,0,0,0,0,0,0,0
326936701,326936103,8.520703e-09,5.000068e-05,0.0075054206,0.0023102667,0.007918133,0.046164095,8389267,0,3.8373537,0.5547848,0.1757754,0.0,0.015056544,0.06769901,0.0,0.0,0.0,0.0,4259850,4325386,3997730,396825,0,0,165,1,3,1,3,4,0,0,0,0,0,0,0
327139680,327139048,7.670885e-09,5.1252897e-05,0.0074395835,0.0024566387,0.0073711583,0.041454703,8389267,0,3.8322644,0.55806,0.15197219,0.0,0.013719525,0.0761659,0.0,0.0,0.0,0.0,4259850,4325386,3997730,396825,0,0,165,1,3,1,3,4,0,0,0,0,0,0,0
327337950,327337539,7.244829e-09,5.39217e-05,0.007320404,0.0024937494,0.011738953,0.0637063,8389267,0,3.975556,0.5543195,0.18466453,0.0,0.013719525,0.06440761,0.0,0.0,0.0,0.0,4259850,4325386,3997730,396825,0,0,165,1,3,1,3,4,0,0,0,0,0,0,0
327729917,327729538,8.8016705e-09,5.1013154e-05,0.007997858,0.0025558835,0.010458208,0.055936243,8389267,0,3.9557161,0.5527664,0.1948452,0.0,0.011294404,0.05392229,0.0,0.0,0.0,0.0,4259850,4325386,3997730,396825,0,0,165,1,3,1,3,4,0,0,0,0,0,0,0
327932660,327932298,8.0088345e-09,5.0561935e-05,0.007995938,0.0027285002,0.009523821,0.052292068,8389267,0,3.9559455,0.5503934,0.18791081,0.0,0.010153695,0.07121303,0.0,0.0,0.0,0.0,4259850,4325386,3997730,396825,0,0,165,1,3,1,3,4,0,0,0,0,0,0,0
328131008,328130582,9.08826e-09,5.2308482e-05,0.0077659544,0.0027778572,0.0090916725,0.050485834,8389267,0,3.941315,0.5457022,0.18614033,0.0,0.009122174,0.06866831,0.0,0.0,0.0,0.0,4259850,4325386,3997730,396825,0,0,165,1,3,1,3,4,0,0,0,0,0,0,0
328334200,328333670,1.1556013e-08,5.349538e-05,0.007858494,0.0027963624,0.008706959,0.049140945,8389267,0,3.9412007,0.5434818,0.1861606,0.0,0.00828254,0.057702515,0.0,0.0,0.0,0.0,4259850,4325386,3997730,396825,0,0,165,1,3,1,3,4,0,0,0,0,0,0,0
328735986,328734586,9.779435e-09,5.1428964e-05,0.007866285,0.0026810106,0.009378158,0.04694305,8389267,0,3.9267433,0.5433394,0.164718,0.0,0.010213663,0.06596687,0.0,0.0,0.0,0.0,4259850,4325386,3997730,396825,0,0,165,1,3,1,3,4,0,0,0,0,0,0,0
328937916,328937419,8.395293e-09,4.896302e-05,0.008362207,0.0025545887,0.008828341,0.045613483,8389267,0,3.919087,0.54003316,0.16287422,0.0,0.011267828,0.060380988,0.0,0.0,0.0,0.0,4259850,4325386,3997730,396825,0,0,165,1,3,1,3,4,0,0,0,0,0,0,0
329131858,329131318,1.3996575e-08,5.1141553e-05,0.007566478,0.0026614468,0.009074442,0.047425784,8389267,0,3.9112267,0.5368127,0.16863021,0.0,0.012385475,0.07184059,0.0,0.0,0.0,0.0,4259850,4325386,3997730,396825,0,0,165,1,3,1,3,4,0,0,0,0,0,0,0
329330237,329329796,1.67626e-08,5.0326285e-05,0.0075268126,0.0024325352,0.009123089,0.04387355,8389267,0,3.896141,0.538833,0.17735988,0.0,0.013234196,0.06742202,0.0,0.0,0.0,0.0,4259850,4325386,3997730,396825,0,0,165,1,3,1,3,4,0,0,0,0,0,0,0
329736000,329735480,2.2660059e-08,5.649198e-05,0.007992278,0.0026580454,0.0070722313,0.04090921,8389267,0,3.8877525,0.5336311,0.1910497,0.0,0.014041776,0.07628708,0.0,0.0,0.0,0.0,4259850,4325386,3997730,396825,0,0,165,1,3,1,3,4,0,0,0,0,0,0,0
329934111,329933573,1.7693019e-08,5.5798173e-05,0.008261935,0.0026278559,0.0070998264,0.042891372,8389267,0,3.8805046,0.5305961,0.18812361,0.0,0.013864609,0.073119774,0.0,0.0,0.0,0.0,4259850,4325386,3997730,396825,0,0,165,1,3,1,3,4,0,0,0,0,0,0,0
330136801,330136438,1.4404136e-08,5.64917e-05,0.007964613,0.0026840705,0.0072157485,0.039425436,8389267,0,3.8731594,0.5336974,0.21261734,0.0,0.013683943,0.070835434,0.0,0.0,0.0,0.0,4259850,4325386,3997730,396825,0,0,165,1,3,1,3,4,0,0,0,0,0,0,0
330330756,330330226,1.1487904e-08,5.6465735e-05,0.0075726947,0.00354181,0.007357656,0.0412145,8389267,0,3.8664439,0.5307222,0.2667431,0.0,0.013600285,0.062925786,0.0,0.0,0.0,0.0,4259850,4325386,3997730,396825,0,0,165,1,3,1,3,4,0,0,0,0,0,0,0
330732713,330731611,8.973034e-09,5.3701388e-05,0.008370565,0.0045406455,0.010035494,0.051313523,8389267,0,3.853491,0.52488685,0.3642585,0.0,0.013536817,0.082166344,0.0,0.0,0.0,0.0,4259850,4325386,3997730,396825,0,0,165,1,3,1,3,4,0,0,0,0,0,0,0
330930328,330929765,7.986071e-09,5.4018623e-05,0.008381932,0.005139442,0.008314107,0.04365261,8389267,0,3.840749,0.5269718,0.40770957,0.0,0.013585028,0.06600774,0.0,0.0,0.0,0.0,4259850,4325386,3997730,396825,0,0,165,1,3,1,3,4,0,0,0,0,0,0,0
331133009,331132602,8.217418e-09,5.1371597e-05,0.008284117,0.0056522423,0.009492255,0.04528087,8389267,0,3.841882,0.525265,0.45282394,0.0,0.013769016,0.06470252,0.0,0.0,0.0,0.0,4259850,4325386,3997730,396825,0,0,165,1,3,1,3,4,0,0,0,0,0,0,0
331336856,331335438,9.024431e-09,5.0382292e-05,0.007837029,0.005781413,0.011701429,0.054513536,8389267,0,3.8358045,0.5224851,0.5070379,0.0,0.013891992,0.07288442,0.0,0.0,0.0,0.0,4259850,4325386,3997730,396825,0,0,165,1,3,1,3,4,0,0,0,0,0,0,0
331732416,331732049,1.0631263e-08,5.2514413e-05,0.008654329,0.0067472863,0.0101414155,0.04761432,8389267,0,3.8242624,0.5228727,0.5548635,0.0,0.01394648,0.07256472,0.0,0.0,0.0,0.0,4259850,4325386,3997730,396825,0,0,165,1,3,1,3,4,0,0,0,0,0,0,0
331936067,331934965,1.0610663e-08,5.0246494e-05,0.007943649,0.007314282,0.0116803795,0.047507312,8389267,0,3.8189704,0.52022666,0.5470917,0.0,0.014021186,0.067573264,0.0,0.0,0.0,0.0,4259850,4325386,3997730,396825,0,0,165,1,3,1,3,4,0,0,0,0,0,0,0
332133815,332133444,8.433934e-09,4.9308856e-05,0.008222206,0.0070317523,0.012359255,0.054327168,8389267,0,3.8136592,0.51766235,0.52133626,0.0,0.014178582,0.07911637,0.0,0.0,0.0,0.0,4259850,4325386,3997730,396825,0,0,165,1,3,1,3,4,0,0,0,0,0,0,0
332336683,332336050,7.2454367e-09,5.0446106e-05,0.0077008815,0.0070291352,0.013369422,0.05761445,8389267,0,3.8088682,0.5151483,0.5194348,0.0,0.01427313,0.07665553,0.0,0.0,0.0,0.0,4259850,4325386,3997730,396825,0,0,165,1,3,1,3,4,0,0,0,0,0,0,0
332737764,332737215,8.670889e-09,5.0225277e-05,0.0070808437,0.0049511227,0.008547316,0.049154088,8389267,0,3.798954,0.51587397,0.34783366,0.0,0.015509473,0.0773258,0.0,0.0,0.0,0.0,4259850,4325386,3997730,396825,0,0,165,1,3,1,3,4,0,0,0,0,0,0,0
332931596,332931098,9.614767e-09,5.030527e-05,0.006783514,0.0043727495,0.008975292,0.050628867,8389267,0,3.794179,0.51349384,0.2919858,0.0,0.016550764,0.057889316,0.0,0.0,0.0,0.0,4259850,4325386,3997730,396825,0,0,165,1,3,1,3,4,0,0,0,0,0,0,0
333134758,333133875,8.986376e-09,4.9884165e-05,0.0069773872,0.0034035824,0.011693769,0.058204267,8389267,0,3.7897706,0.51667297,0.23001644,0.0,0.017240304,0.069959536,0.0,0.0,0.0,0.0,4259850,4325386,3997730,396825,0,0,165,1,3,1,3,4,0,0,0,0,0,0,0
333337215,333336782,8.343538e-09,4.975539e-05,0.007824406,0.002767677,0.012847633,0.0594478,8389267,0,3.7853632,0.51430535,0.17709251,0.0,0.01795221,0.08150143,0.0,0.0,0.0,0.0,4259850,4325386,3997730,396825,0,0,165,1,3,1,3,4,0,0,0,0,0,0,0
333733991,333733365,6.807641e-09,4.9800517e-05,0.0073839645,0.0021082168,0.012717814,0.057553437,8389267,0,3.7775626,0.5097439,0.13006587,0.0,0.01911274,0.06650665,0.0,0.0,0.0,0.0,4259850,4325386,3997730,396825,0,0,165,1,3,1,3,4,0,0,0,0,0,0,0
333936636,333936203,7.6928925e-09,5.0980816e-05,0.0070131095,0.0017494793,0.014884519,0.063810535,8389267,0,3.7740138,0.5129613,0.11448985,0.0,0.019520884,0.06321668,0.0,0.0,0.0,0.0,4259850,4325386,3997730,396825,0,0,165,1,3,1,3,4,0,0,0,0,0,0,0
334139695,334139059,1.102206e-08,5.0843315e-05,0.0070976126,0.0016292986,0.014612671,0.0626274,8389267,0,3.7703948,0.510736,0.088198,0.0,0.019938651,0.06927568,0.0,0.0,0.0,0.0,4259850,4325386,3997730,396825,0,0,165,1,3,1,3,4,0,0,0,0,0,0,0
334337816,334337365,1.7120685e-08,5.404821e-05,0.007459507,0.0015283753,0.013709609,0.05967302,8389267,0,3.767198,0.50855273,0.094560854,0.0,0.02016945,0.07805272,0.0,0.0,0.0,0.0,4259850,4325386,3997730,396825,0,0,165,1,3,1,3,4,0,0,0,0,0,0,0
334730014,334729514,2.505791e-08,5.5084063e-05,0.008384511,0.0015520382,0.00721578,0.016283166,8389267,0,3.8946326,0.50869656,0.114141874,0.0,0.020576445,0.07795491,0.0,0.0,0.0,0.0,4259850,4325386,3997730,396825,0,0,165,1,3,1,3,4,0,0,0,0,0,0,0
334932718,334932351,2.2468601e-08,5.3943077e-05,0.008423926,0.0017604873,0.0059223706,0.013692235,8389267,0,3.8991425,0.50760615,0.1178147,0.0,0.020982374,0.07812865,0.0,0.0,0.0,0.0,4259850,4325386,3997730,396825,0,0,165,1,3,1,3,4,0,0,0,0,0,0,0
335136147,335135186,1.7841113e-08,5.145453e-05,0.008163355,0.0018700648,0.0023452097,0.01092436,8389267,0,3.889446,0.50456244,0.11673754,0.0,0.0214499,0.07798667,0.0,0.0,0.0,0.0,4259850,4325386,3997730,396825,0,0,165,1,3,1,3,4,0,0,0,0,0,0,0
335338515,335338024,1.44770285e-08,5.063331e-05,0.007839045,0.0018891917,0.0028895505,0.011871972,8389267,0,3.8947384,0.50357604,0.1154141,0.0,0.021807775,0.08231841,0.0,0.0,0.0,0.0,4259850,4325386,3997730,396825,0,0,165,1,3,1,3,4,0,0,0,0,0,0,0
335736071,335734752,1.4544481e-08,5.0249568e-05,0.0072005866,0.0019295014,0.0026648147,0.011193787,8389267,0,3.8911338,0.504894,0.13389198,0.0,0.022463767,0.096114606,0.0,0.0,0.0,0.0,4259850,4325386,3997730,396825,0,0,165,1,3,1,3,4,0,0,0,0,0,0,0
335933585,335933214,1.3503081e-08,4.930577e-05,0.007059162,0.001993394,0.0018468067,0.021400651,8389267,0,3.8896973,0.50294405,0.122878164,0.0,0.022815583,0.08324642,0.0,0.0,0.0,0.0,4259850,4325386,3997730,396825,0,0,165,1,3,1,3,4,0,0,0,0,0,0,0
336132115,336131337,1.2195475e-08,5.0521438e-05,0.006656192,0.0022586964,0.003960248,0.029900346,8389267,0,3.8888044,0.5010393,0.14042392,0.0,0.022872752,0.088500455,0.0,0.0,0.0,0.0,4259850,4325386,3997730,396825,0,0,165,1,3,1,3,4,0,0,0,0,0,0,0
336330060,336329666,1.0541635e-08,4.7692552e-05,0.006815586,0.0021655427,0.0015513059,0.011121909,8389267,0,3.8805225,0.5033973,0.15101698,0.0,0.023202391,0.09367103,0.0,0.0,0.0,0.0,4259850,4325386,3997730,396825,0,0,165,1,3,1,3,4,0,0,0,0,0,0,0
336735734,336735337,8.139045e-09,4.6874437e-05,0.0076770587,0.0022215901,0.0018475929,0.019364804,8389267,0,3.885131,0.5006087,0.14436495,0.0,0.024101915,0.083656386,0.0,0.0,0.0,0.0,4259850,4325386,3997730,396825,0,0,165,1,3,1,3,4,0,0,0,0,0,0,0
336934076,336933676,1.0662436e-08,5.134736e-05,0.00792311,0.0021291506,0.0021920167,0.0028582937,8389267,0,3.8838727,0.5039061,0.1441989,0.0,0.024487035,0.09612737,0.0,0.0,0.0,0.0,4259850,4325386,3997730,396825,0,0,165,1,3,1,3,4,0,0,0,0,0,0,0
337137180,337136572,9.721939e-09,5.0736246e-05,0.0074643316,0.0022234225,0.0013901555,0.009892005,8389267,0,3.8823102,0.50200707,0.13358797,0.0,0.0248593,0.09810123,0.0,0.0,0.0,0.0,4259850,4325386,3997730,396825,0,0,165,1,3,1,3,4,0,0,0,0,0,0,0
337330748,337330368,8.842568e-09,5.0275292e-05,0.0076526473,0.0021508832,0.0023606946,0.016748464,8389267,0,3.881028,0.50015235,0.116833664,0.0,0.024894152,0.079269275,0.0,0.0,0.0,0.0,4259850,4325386,3997730,396825,0,0,165,1,3,1,3,4,0,0,0,0,0,0,0
337733122,337731552,1.1128314e-08,5.2695632e-05,0.007184393,0.0018981526,0.0029262558,0.013298975,8389267,0,3.8716617,0.5006519,0.09365483,0.0,0.025340918,0.094197504,0.0,0.0,0.0,0.0,4259850,4325386,3997730,396825,0,0,165,1,3,1,3,4,0,0,0,0,0,0,0
337926041,337925477,1.0698196e-08,5.5754594e-05,0.008627407,0.001807043,0.0024489604,0.017126303,8389267,0,3.8710237,0.49890244,0.10226263,0.0,0.025732392,0.09915631,0.0,0.0,0.0,0.0,4259850,4325386,3997730,396825,0,0,165,1,3,1,3,4,0,0,0,0,0,0,0
338138010,338137160,1.0806143e-08,5.6446555e-05,0.008305817,0.0017379135,0.0026523825,0.014607454,8389267,0,3.8774085,0.49807283,0.10464062,0.0,0.025671268,0.10104133,0.0,0.0,0.0,0.0,4259850,4325386,3997730,396825,0,0,165,1,3,1,3,4,0,0,0,0,0,0,0
338336002,338335488,1.0396303e-08,5.303207e-05,0.008491579,0.0017811182,0.003508884,0.021685848,8389267,0,3.8769474,0.49637073,0.099916585,0.0,0.025547352,0.093365625,0.0,0.0,0.0,0.0,4259850,4325386,3997730,396825,0,0,165,1,3,1,3,4,0,0,0,0,0,0,0
338732563,338732145,7.942365e-09,4.675979e-05,0.007476446,0.0014356687,0.0029594973,0.014414475,8389267,0,3.8747582,0.49791983,0.07597075,0.0,0.025218084,0.09024547,0.0,0.0,0.0,0.0,4259850,4325386,3997730,396825,0,0,165,1,3,1,3,4,0,0,0,0,0,0,0
338931244,338930524,6.844248e-09,4.619987e-05,0.0071861227,0.0014711727,0.0043978402,0.025285026,8389267,0,3.8664713,0.49525353,0.072417066,0.0,0.025075546,0.08543814,0.0,0.0,0.0,0.0,4259850,4325386,3997730,396825,0,0,165,1,3,1,3,4,0,0,0,0,0,0,0
339133919,339133354,5.5183924e-09,4.450554e-05,0.007636778,0.0012336024,0.0058399537,0.019331262,8389267,0,3.872432,0.49952197,0.054309595,0.0,0.025128743,0.0876458,0.0,0.0,0.0,0.0,4259850,4325386,3997730,396825,0,0,165,1,3,1,3,4,0,0,0,0,0,0,0
339327665,339327301,5.789523e-09,4.5553275e-05,0.00781401,0.0011719578,0.004268774,0.017681386,8389267,0,3.864084,0.49686897,0.057819284,0.0,0.024962788,0.09909212,0.0,0.0,0.0,0.0,4259850,4325386,3997730,396825,0,0,165,1,3,1,3,4,0,0,0,0,0,0,0
339737840,339737313,6.594986e-09,4.462997e-05,0.00857185,0.0010584404,0.002949027,0.015021467,8389267,0,3.8702095,0.4944589,0.034171704,0.0,0.025027713,0.09351067,0.0,0.0,0.0,0.0,4259850,4325386,3997730,396825,0,0,165,1,3,1,3,4,0,0,0,0,0,0,0
339931830,339931131,9.298115e-09,4.5543995e-05,0.008367764,0.0009527181,0.00608053,0.019524392,8389267,0,3.8689852,0.49778625,0.04204163,0.0,0.02527913,0.10123275,0.0,0.0,0.0,0.0,4259850,4325386,3997730,396825,0,0,165,1,3,1,3,4,0,0,0,0,0,0,0
340134745,340133967,9.612817e-09,4.69268e-05,0.008059903,0.0009635436,0.005149793,0.018054707,8389267,0,3.8676336,0.4960566,0.040022697,0.0,0.025283305,0.08554699,0.0,0.0,0.0,0.0,4259850,4325386,3997730,396825,0,0,165,1,3,1,3,4,0,0,0,0,0,0,0
340337303,340336802,1.1504713e-08,5.2309268e-05,0.00814625,0.001105605,0.0040436476,0.01749347,8389267,0,3.865741,0.49437875,0.04890011,0.0,0.025158273,0.089176655,0.0,0.0,0.0,0.0,4259850,4325386,3997730,396825,0,0,165,1,3,1,3,4,0,0,0,0,0,0,0
340729560,340729132,1.18999965e-08,5.3460994e-05,0.008750471,0.0011676876,0.005064426,0.01866867,8389267,0,3.8615167,0.49597627,0.0595027,0.0,0.024132509,0.10673714,0.0,0.0,0.0,0.0,4259850,4325386,3997730,396825,0,0,165,1,3,1,3,4,0,0,0,0,0,0,0
340932267,340931788,1.1820743e-08,5.4367723e-05,0.008748442,0.001220043,0.00446072,0.022159915,8389267,0,3.8523266,0.4933914,0.05289282,0.0,0.023183314,0.09821225,0.0,0.0,0.0,0.0,4259850,4325386,3997730,396825,0,0,165,1,3,1,3,4,0,0,0,0,0,0,0
341135174,341134822,9.97629e-09,5.3075088e-05,0.0077914805,0.0013340233,0.0025283997,0.0169693,8389267,0,3.857686,0.49272603,0.07747005,0.0,0.021914689,0.10129356,0.0,0.0,0.0,0.0,4259850,4325386,3997730,396825,0,0,165,1,3,1,3,4,0,0,0,0,0,0,0
341338020,341337460,1.14112355e-08,5.2030544e-05,0.0075870575,0.0014201009,0.0028365317,0.019878305,8389267,0,3.8558857,0.4911234,0.05137965,0.0,0.020341005,0.092613146,0.0,0.0,0.0,0.0,4259850,4325386,3997730,396825,0,0,165,1,3,1,3,4,0,0,0,0,0,0,0
341725664,341725264,1.16312355e-08,5.0729934e-05,0.007993108,0.0013872022,0.001862532,0.013478149,8389267,0,3.843875,0.49184334,0.058470868,0.0,0.017043078,0.095672615,0.0,0.0,0.0,0.0,4259850,4325386,3997730,396825,0,0,165,1,3,1,3,4,0,0,0,0,0,0,0
341937629,341936954,1.047784e-08,4.9106355e-05,0.008121795,0.0011893712,0.0033280042,0.023007484,8389267,0,3.84858,0.4910671,0.023660822,0.0,0.01566638,0.10325437,0.0,0.0,0.0,0.0,4259850,4325386,3997730,396825,0,0,165,1,3,1,3,4,0,0,0,0,0,0,0
342132378,342130951,9.072853e-09,4.8166345e-05,0.007974995,0.0008318301,0.004688264,0.021655234,8389267,0,3.8389893,0.49339947,0.025139088,0.0,0.014457795,0.09695053,0.0,0.0,0.0,0.0,4259850,4325386,3997730,396825,0,0,165,1,3,1,3,4,0,0,0,0,0,0,0
342338686,342338165,7.044599e-09,4.685018e-05,0.00856538,0.0006026976,0.005530291,0.02578238,8389267,0,3.8435004,0.49267542,0.01382181,0.0,0.013294839,0.10988727,0.0,0.0,0.0,0.0,4259850,4325386,3997730,396825,0,0,165,1,3,1,3,4,0,0,0,0,0,0,0
342736029,342734774,5.6565908e-09,4.679062e-05,0.0075820596,0.0001713511,0.0095597785,0.05312494,8389267,0,3.987416,0.48941126,0.02915462,0.0,0.01209848,0.111922614,0.0,0.0,0.0,0.0,4259850,4325386,3997730,396825,0,0,165,1,3,1,3,4,0,0,0,0,0,0,0
342933858,342933102,6.544211e-09,4.7103436e-05,0.007499608,6.017504e-05,0.010892914,0.05287192,8389267,0,3.9840117,0.49259254,0.043682776,0.0,0.01091332,0.10067292,0.0,0.0,0.0,0.0,4259850,4325386,3997730,396825,0,0,165,1,3,1,3,4,0,0,0,0,0,0,0
343127618,343127086,5.7312746e-09,4.675354e-05,0.0074556367,0.00017371138,0.009532161,0.049760412,8389267,0,3.972832,0.4900569,0.059788026,0.0,0.00981992,0.10241905,0.0,0.0,0.0,0.0,4259850,4325386,3997730,396825,0,0,165,1,3,1,3,4,0,0,0,0,0,0,0
343330176,343329760,5.174259e-09,4.593846e-05,0.007902066,0.0001810075,0.009103928,0.05030181,8389267,0,3.9693525,0.4884518,0.051049292,0.0,0.008749512,0.103488006,0.0,0.0,0.0,0.0,4259850,4325386,3997730,396825,0,0,165,1,3,1,3,4,0,0,0,0,0,0,0
343735893,343735430,6.4387486e-09,4.7819864e-05,0.007647297,0.00038603172,0.010515,0.05068352,8389267,0,3.9698281,0.49094024,0.07537734,0.0,0.0065432624,0.10810702,0.0,0.0,0.0,0.0,4259850,4325386,3997730,396825,0,0,165,1,3,1,3,4,0,0,0,0,0,0,0
343934800,343933806,5.3582903e-09,4.8104892e-05,0.007949744,0.00040185414,0.00963025,0.04891607,8389267,0,3.965856,0.48931926,0.08162611,0.0,0.00545373,0.11121316,0.0,0.0,0.0,0.0,4259850,4325386,3997730,396825,0,0,165,1,3,1,3,4,0,0,0,0,0,0,0
344137324,344136640,8.6181675e-09,5.141903e-05,0.007911217,0.00039822672,0.009538948,0.04923835,8389267,0,3.961644,0.48771322,0.08075432,0.0,0.004362937,0.111098394,0.0,0.0,0.0,0.0,4259850,4325386,3997730,396825,0,0,165,1,3,1,3,4,0,0,0,0,0,0,0
344335497,344334922,7.610118e-09,5.39045e-05,0.007584977,0.00027166694,0.00907722,0.05057121,8389267,0,3.9570882,0.48612598,0.069625735,0.0,0.004020599,0.10870603,0.0,0.0,0.0,0.0,4259850,4325386,3997730,396825,0,0,165,1,3,1,3,4,0,0,0,0,0,0,0
344736533,344736118,1.3285556e-08,5.532627e-05,0.0070122886,0.0002512422,0.009171452,0.04758069,8389267,0,3.948298,0.4876799,0.062451757,0.0,0.005829656,0.112406105,0.0,0.0,0.0,0.0,4259850,4325386,3997730,396825,0,0,165,1,3,1,3,4,0,0,0,0,0,0,0
344935142,344934592,1.7174228e-08,5.5957593e-05,0.006925297,0.00012622263,0.009141099,0.05092357,8389267,0,3.9436653,0.48606744,0.035551507,0.0,0.0068013147,0.11438592,0.0,0.0,0.0,0.0,4259850,4325386,3997730,396825,0,0,165,1,3,1,3,4,0,0,0,0,0,0,0
345137882,345137251,1.6178907e-08,5.6218367e-05,0.0071294527,0.0001161866,0.00991083,0.056819927,8389267,0,3.9388802,0.4844885,0.04292602,0.0,0.00780821,0.10366876,0.0,0.0,0.0,0.0,4259850,4325386,3997730,396825,0,0,165,1,3,1,3,4,0,0,0,0,0,0,0
345332268,345331118,1.4691125e-08,5.454811e-05,0.007832686,0.00024548653,0.009677155,0.049307913,8389267,0,3.9339328,0.48761386,0.008997413,0.0,0.008857344,0.12123818,0.0,0.0,0.0,0.0,4259850,4325386,3997730,396825,0,0,165,1,3,1,3,4,0,0,0,0,0,0,0
345737369,345736789,1.1044826e-08,5.0918254e-05,0.0077776033,0.0007158918,0.01016502,0.052815385,8389267,0,3.9239757,0.48441628,0.030472806,0.0,0.010779718,0.113492936,0.0,0.0,0.0,0.0,4259850,4325386,3997730,396825,0,0,165,1,3,1,3,4,0,0,0,0,0,0,0
345931768,345930732,1.0430813e-08,5.2309304e-05,0.0077932347,0.00092994206,0.009350023,0.04975971,8389267,0,3.912269,0.486645,0.043329358,0.0,0.011754043,0.11337336,0.0,0.0,0.0,0.0,4259850,4325386,3997730,396825,0,0,165,1,3,1,3,4,0,0,0,0,0,0,0
346129390,346128892,1.0185837e-08,5.2492327e-05,0.007919593,0.0012189205,0.01019784,0.051581416,8389267,0,3.906866,0.48507848,0.05775939,0.0,0.012962019,0.119366266,0.0,0.0,0.0,0.0,4259850,4325386,3997730,396825,0,0,165,1,3,1,3,4,0,0,0,0,0,0,0
346336884,346336428,8.723525e-09,5.148818e-05,0.007692823,0.0015182026,0.010594904,0.054665525,8389267,0,3.908303,0.48432338,0.08123715,0.0,0.014093745,0.12213609,0.0,0.0,0.0,0.0,4259850,4325386,3997730,396825,0,0,165,1,3,1,3,4,0,0,0,0,0,0,0
346733567,346732893,8.360198e-09,5.3321663e-05,0.0077473223,0.0014202793,0.010055826,0.052176163,8389267,0,3.8972187,0.48577544,0.07415944,0.0,0.016283525,0.11302574,0.0,0.0,0.0,0.0,4259850,4325386,3997730,396825,0,0,165,1,3,1,3,4,0,0,0,0,0,0,0
346927344,346926856,1.0909808e-08,5.569193e-05,0.008382574,0.0013548927,0.011102478,0.057839658,8389267,0,3.8849404,0.48334095,0.061835106,0.0,0.017255642,0.11311062,0.0,0.0,0.0,0.0,4259850,4325386,3997730,396825,0,0,165,1,3,1,3,4,0,0,0,0,0,0,0
347129983,347129550,9.569587e-09,5.373841e-05,0.008595637,0.0011503206,0.012035133,0.06375487,8389267,0,3.8797493,0.48178786,0.031033425,0.0,0.01827161,0.118768305,0.0,0.0,0.0,0.0,4259850,4325386,3997730,396825,0,0,165,1,3,1,3,4,0,0,0,0,0,0,0
347332975,347332548,9.071375e-09,5.0700353e-05,0.008071353,0.00084643177,0.011908867,0.06336802,8389267,0,3.881456,0.48109043,0.004568445,0.0,0.019072607,0.11791081,0.0,0.0,0.0,0.0,4259850,4325386,3997730,396825,0,0,165,1,3,1,3,4,0,0,0,0,0,0,0
347739003,347738240,1.0716356e-08,5.0879593e-05,0.008264241,0.00018828006,0.011026234,0.058904488,8389267,0,3.8699415,0.48256114,0.029863007,0.0,0.01987345,0.12581693,0.0,0.0,0.0,0.0,4259850,4325386,3997730,396825,0,0,165,1,3,1,3,4,0,0,0,0,0,0,0
347932369,347931877,9.379304e-09,5.160053e-05,0.0076692887,0.00019668728,0.011427372,0.061979216,8389267,0,3.8576446,0.48020023,0.04298298,0.0,0.019801967,0.11936179,0.0,0.0,0.0,0.0,4259850,4325386,3997730,396825,0,0,165,1,3,1,3,4,0,0,0,0,0,0,0
348130576,348130205,7.89647e-09,5.234812e-05,0.008473788,0.000380963,0.012350446,0.06057576,8389267,0,3.8588936,0.48408744,0.07408202,0.0,0.019517357,0.123452336,0.0,0.0,0.0,0.0,4259850,4325386,3997730,396825,0,0,165,1,3,1,3,4,0,0,0,0,0,0,0
348329107,348328733,8.491127e-09,5.1574516e-05,0.008445727,0.00046709878,0.011503555,0.059857305,8389267,0,3.846196,0.48165983,0.07229687,0.0,0.018841082,0.1225999,0.0,0.0,0.0,0.0,4259850,4325386,3997730,396825,0,0,165,1,3,1,3,4,0,0,0,0,0,0,0
348735161,348734369,9.0540695e-09,4.961402e-05,0.007842945,0.0005341831,0.010802076,0.057096172,8389267,0,3.8410537,0.4794085,0.081327245,0.0,0.017221812,0.11694286,0.0,0.0,0.0,0.0,4259850,4325386,3997730,396825,0,0,165,1,3,1,3,4,0,0,0,0,0,0,0
348937750,348937087,9.171152e-09,5.0371844e-05,0.007489362,0.0007810231,0.011203202,0.05789041,8389267,0,3.8350136,0.4824027,0.103621736,0.0,0.016518986,0.12187215,0.0,0.0,0.0,0.0,4259850,4325386,3997730,396825,0,0,165,1,3,1,3,4,0,0,0,0,0,0,0
349132138,349130861,9.1030214e-09,5.0890696e-05,0.00712173,0.00087500317,0.0032428836,0.014235584,8389267,0,3.9707544,0.48004708,0.093213156,0.0,0.016518986,0.113736525,0.0,0.0,0.0,0.0,4259850,4325386,3997730,396825,0,0,165,1,3,1,3,4,0,0,0,0,0,0,0
349338694,349338204,8.4361895e-09,5.1333463e-05,0.0073396047,0.0009522059,0.002896975,0.012949351,8389267,0,3.9720862,0.47936714,0.11446318,0.0,0.015907252,0.122363694,0.0,0.0,0.0,0.0,4259850,4325386,3997730,396825,0,0,165,1,3,1,3,4,0,0,0,0,0,0,0
349731335,349730505,7.837273e-09,4.9024893e-05,0.007897151,0.0014283994,0.006194711,0.027057258,8389267,0,3.9591682,0.48083702,0.1543807,0.0,0.014977123,0.118675195,0.0,0.0,0.0,0.0,4259850,4325386,3997730,396825,0,0,165,1,3,1,3,4,0,0,0,0,0,0,0
349933679,349933189,7.007283e-09,5.0278286e-05,0.008156696,0.0015545551,0.0044215284,0.018296193,8389267,0,3.9525018,0.47931084,0.17080377,0.0,0.0153041575,0.12807138,0.0,0.0,0.0,0.0,4259850,4325386,3997730,396825,0,0,165,1,3,1,3,4,0,0,0,0,0,0,0
350136570,350136198,5.7824088e-09,4.9332677e-05,0.007918695,0.001645149,0.0033701444,0.015811382,8389267,0,3.945808,0.47779426,0.19091322,0.0,0.016087266,0.112826,0.0,0.0,0.0,0.0,4259850,4325386,3997730,396825,0,0,165,1,3,1,3,4,0,0,0,0,0,0,0
350330354,350329877,4.42652e-09,4.956296e-05,0.00805604,0.0020587253,0.005939586,0.027150204,8389267,0,3.9324336,0.47993472,0.19570807,0.0,0.016973827,0.12858222,0.0,0.0,0.0,0.0,4259850,4325386,3997730,396825,0,0,165,1,3,1,3,4,0,0,0,0,0,0,0
350726982,350726623,8.019129e-09,4.815685e-05,0.008537107,0.0023674783,0.003406124,0.020989776,8389267,0,3.920582,0.47692618,0.23206893,0.0,0.019202271,0.13957968,0.0,0.0,0.0,0.0,4259850,4325386,3997730,396825,0,0,165,1,3,1,3,4,0,0,0,0,0,0,0
350935140,350933843,8.325728e-09,4.8898506e-05,0.007698143,0.0027750586,0.0033379735,0.021846063,8389267,0,3.9212475,0.4762369,0.24307722,0.0,0.020319019,0.13059267,0.0,0.0,0.0,0.0,4259850,4325386,3997730,396825,0,0,165,1,3,1,3,4,0,0,0,0,0,0,0
351132762,351132311,8.869561e-09,4.8675134e-05,0.0076644043,0.0026222034,0.004560952,0.031734996,8389267,0,3.9145634,0.47473624,0.23591876,0.0,0.021472534,0.13088216,0.0,0.0,0.0,0.0,4259850,4325386,3997730,396825,0,0,165,1,3,1,3,4,0,0,0,0,0,0,0
351335501,351335008,7.537131e-09,4.9320937e-05,0.007959447,0.0030878752,0.005107892,0.024737064,8389267,0,3.9081848,0.47764966,0.25692752,0.0,0.022227341,0.12514168,0.0,0.0,0.0,0.0,4259850,4325386,3997730,396825,0,0,165,1,3,1,3,4,0,0,0,0,0,0,0
351736842,351736175,5.140566e-09,5.0065097e-05,0.0078090057,0.0026084643,0.0047652954,0.025861781,8389267,0,3.8959813,0.47467992,0.19131608,0.0,0.023932844,0.12867711,0.0,0.0,0.0,0.0,4259850,4325386,3997730,396825,0,0,165,1,3,1,3,4,0,0,0,0,0,0,0
351935216,351934575,7.792367e-09,5.1272953e-05,0.008950556,0.0018254503,0.0055191875,0.028270438,8389267,0,3.890179,0.47759524,0.12199917,0.0,0.024956016,0.13551302,0.0,0.0,0.0,0.0,4259850,4325386,3997730,396825,0,0,165,1,3,1,3,4,0,0,0,0,0,0,0
