timestamp,noutputs,output[0],output[1],output[2],output[3],output[4],output[5],output[6],output[7],output[8],output[9],output[10],output[11],output[12],output[13],output[14],output[15]
293534453,8,1150.0,1150.0,1150.0,1150.0,1150.0,1150.0,0.0,0.0,0.0,0.0,0.0,0.0,0.0,0.0,0.0,0.0
293556628,8,1150.0,1150.0,1150.0,1150.0,1150.0,1150.0,0.0,0.0,0.0,0.0,0.0,0.0,0.0,0.0,0.0,0.0
293620317,8,1150.0,1150.0,1150.0,1150.0,1150.0,1150.0,0.0,0.0,0.0,0.0,0.0,0.0,0.0,0.0,0.0,0.0
293730288,8,1150.0,1150.0,1150.0,1150.0,1150.0,1150.0,0.0,0.0,0.0,0.0,0.0,0.0,0.0,0.0,0.0,0.0
293835791,8,1150.0,1150.0,1150.0,1150.0,1150.0,1150.0,0.0,0.0,0.0,0.0,0.0,0.0,0.0,0.0,0.0,0.0
293924077,8,1150.0,1150.0,1150.0,1150.0,1150.0,1150.0,0.0,0.0,0.0,0.0,0.0,0.0,0.0,0.0,0.0,0.0
294033800,8,1150.0,1150.0,1150.0,1150.0,1150.0,1150.0,0.0,0.0,0.0,0.0,0.0,0.0,0.0,0.0,0.0,0.0
294119595,8,1150.0,1150.0,1150.0,1150.0,1150.0,1150.0,0.0,0.0,0.0,0.0,0.0,0.0,0.0,0.0,0.0,0.0
294228530,8,1150.0,1150.0,1150.0,1150.0,1150.0,1150.0,0.0,0.0,0.0,0.0,0.0,0.0,0.0,0.0,0.0,0.0
294313180,8,1150.0,1150.0,1150.0,1150.0,1150.0,1150.0,0.0,0.0,0.0,0.0,0.0,0.0,0.0,0.0,0.0,0.0
294420312,8,1163.0,1162.0,1161.0,1162.0,1160.0,1163.0,0.0,0.0,0.0,0.0,0.0,0.0,0.0,0.0,0.0,0.0
294524274,8,1163.0,1162.0,1162.0,1162.0,1161.0,1164.0,0.0,0.0,0.0,0.0,0.0,0.0,0.0,0.0,0.0,0.0
294629604,8,1164.0,1164.0,1161.0,1161.0,1161.0,1164.0,0.0,0.0,0.0,0.0,0.0,0.0,0.0,0.0,0.0,0.0
294738447,8,1186.0,1187.0,1181.0,1180.0,1182.0,1186.0,0.0,0.0,0.0,0.0,0.0,0.0,0.0,0.0,0.0,0.0
294824353,8,1182.0,1187.0,1178.0,1184.0,1183.0,1188.0,0.0,0.0,0.0,0.0,0.0,0.0,0.0,0.0,0.0,0.0
294933620,8,1186.0,1184.0,1183.0,1182.0,1181.0,1185.0,0.0,0.0,0.0,0.0,0.0,0.0,0.0,0.0,0.0,0.0
295036754,8,1191.0,1178.0,1190.0,1183.0,1179.0,1182.0,0.0,0.0,0.0,0.0,0.0,0.0,0.0,0.0,0.0,0.0
295123316,8,1171.0,1191.0,1163.0,1193.0,1185.0,1198.0,0.0,0.0,0.0,0.0,0.0,0.0,0.0,0.0,0.0,0.0
295231748,8,1198.0,1182.0,1191.0,1174.0,1175.0,1182.0,0.0,0.0,0.0,0.0,0.0,0.0,0.0,0.0,0.0,0.0
295318904,8,1176.0,1191.0,1173.0,1185.0,1187.0,1189.0,0.0,0.0,0.0,0.0,0.0,0.0,0.0,0.0,0.0,0.0
295423553,8,1208.0,1183.0,1207.0,1197.0,1186.0,1195.0,0.0,0.0,0.0,0.0,0.0,0.0,0.0,0.0,0.0,0.0
295532400,8,1193.0,1198.0,1193.0,1198.0,1197.0,1198.0,0.0,0.0,0.0,0.0,0.0,0.0,0.0,0.0,0.0,0.0
295619590,8,1196.0,1192.0,1200.0,1211.0,1200.0,1203.0,0.0,0.0,0.0,0.0,0.0,0.0,0.0,0.0,0.0,0.0
295729368,8,1189.0,1208.0,1197.0,1213.0,1215.0,1206.0,0.0,0.0,0.0,0.0,0.0,0.0,0.0,0.0,0.0,0.0
295838169,8,1199.0,1203.0,1206.0,1214.0,1211.0,1205.0,0.0,0.0,0.0,0.0,0.0,0.0,0.0,0.0,0.0,0.0
295922933,8,1197.0,1201.0,1203.0,1222.0,1211.0,1212.0,0.0,0.0,0.0,0.0,0.0,0.0,0.0,0.0,0.0,0.0
296032651,8,1205.0,1196.0,1212.0,1218.0,1207.0,1207.0,0.0,0.0,0.0,0.0,0.0,0.0,0.0,0.0,0.0,0.0
296139454,8,1198.0,1199.0,1209.0,1220.0,1212.0,1207.0,0.0,0.0,0.0,0.0,0.0,0.0,0.0,0.0,0.0,0.0
296227243,8,1202.0,1200.0,1211.0,1217.0,1211.0,1206.0,0.0,0.0,0.0,0.0,0.0,0.0,0.0,0.0,0.0,0.0
296336841,8,1207.0,1201.0,1216.0,1210.0,1210.0,1201.0,0.0,0.0,0.0,0.0,0.0,0.0,0.0,0.0,0.0,0.0
296422246,8,1199.0,1206.0,1206.0,1214.0,1213.0,1207.0,0.0,0.0,0.0,0.0,0.0,0.0,0.0,0.0,0.0,0.0
296531267,8,1225.0,1190.0,1232.0,1220.0,1202.0,1208.0,0.0,0.0,0.0,0.0,0.0,0.0,0.0,0.0,0.0,0.0
296617117,8,1211.0,1205.0,1219.0,1230.0,1217.0,1218.0,0.0,0.0,0.0,0.0,0.0,0.0,0.0,0.0,0.0,0.0
296726713,8,1231.0,1200.0,1241.0,1219.0,1212.0,1207.0,0.0,0.0,0.0,0.0,0.0,0.0,0.0,0.0,0.0,0.0
296836209,8,1209.0,1210.0,1219.0,1231.0,1222.0,1219.0,0.0,0.0,0.0,0.0,0.0,0.0,0.0,0.0,0.0,0.0
296921920,8,1218.0,1202.0,1225.0,1232.0,1214.0,1220.0,0.0,0.0,0.0,0.0,0.0,0.0,0.0,0.0,0.0,0.0
297030615,8,1220.0,1206.0,1222.0,1227.0,1213.0,1221.0,0.0,0.0,0.0,0.0,0.0,0.0,0.0,0.0,0.0,0.0
297117350,8,1208.0,1213.0,1208.0,1234.0,1218.0,1229.0,0.0,0.0,0.0,0.0,0.0,0.0,0.0,0.0,0.0,0.0
297228715,8,1213.0,1217.0,1214.0,1224.0,1221.0,1221.0,0.0,0.0,0.0,0.0,0.0,0.0,0.0,0.0,0.0,0.0
297315908,8,1216.0,1220.0,1217.0,1225.0,1221.0,1224.0,0.0,0.0,0.0,0.0,0.0,0.0,0.0,0.0,0.0,0.0
297424049,8,1228.0,1222.0,1232.0,1227.0,1227.0,1223.0,0.0,0.0,0.0,0.0,0.0,0.0,0.0,0.0,0.0,0.0
297531138,8,1229.0,1221.0,1233.0,1237.0,1228.0,1230.0,0.0,0.0,0.0,0.0,0.0,0.0,0.0,0.0,0.0,0.0
297616757,8,1226.0,1227.0,1234.0,1242.0,1237.0,1231.0,0.0,0.0,0.0,0.0,0.0,0.0,0.0,0.0,0.0,0.0
297725456,8,1226.0,1218.0,1237.0,1246.0,1234.0,1231.0,0.0,0.0,0.0,0.0,0.0,0.0,0.0,0.0,0.0,0.0
297835236,8,1225.0,1215.0,1238.0,1251.0,1234.0,1232.0,0.0,0.0,0.0,0.0,0.0,0.0,0.0,0.0,0.0,0.0
297925496,8,1218.0,1224.0,1233.0,1248.0,1241.0,1231.0,0.0,0.0,0.0,0.0,0.0,0.0,0.0,0.0,0.0,0.0
298036377,8,1222.0,1218.0,1233.0,1241.0,1232.0,1227.0,0.0,0.0,0.0,0.0,0.0,0.0,0.0,0.0,0.0,0.0
298123154,8,1213.0,1210.0,1227.0,1238.0,1227.0,1221.0,0.0,0.0,0.0,0.0,0.0,0.0,0.0,0.0,0.0,0.0
298226676,8,1216.0,1205.0,1231.0,1239.0,1224.0,1220.0,0.0,0.0,0.0,0.0,0.0,0.0,0.0,0.0,0.0,0.0
298334966,8,1213.0,1207.0,1230.0,1243.0,1228.0,1221.0,0.0,0.0,0.0,0.0,0.0,0.0,0.0,0.0,0.0,0.0
298428050,8,1215.0,1207.0,1234.0,1248.0,1231.0,1224.0,0.0,0.0,0.0,0.0,0.0,0.0,0.0,0.0,0.0,0.0
298529288,8,1216.0,1205.0,1237.0,1248.0,1232.0,1221.0,0.0,0.0,0.0,0.0,0.0,0.0,0.0,0.0,0.0,0.0
298638025,8,1218.0,1200.0,1239.0,1250.0,1229.0,1222.0,0.0,0.0,0.0,0.0,0.0,0.0,0.0,0.0,0.0,0.0
298726692,8,1213.0,1199.0,1234.0,1248.0,1226.0,1221.0,0.0,0.0,0.0,0.0,0.0,0.0,0.0,0.0,0.0,0.0
298830312,8,1213.0,1204.0,1232.0,1240.0,1227.0,1217.0,0.0,0.0,0.0,0.0,0.0,0.0,0.0,0.0,0.0,0.0
298919122,8,1217.0,1201.0,1235.0,1239.0,1224.0,1216.0,0.0,0.0,0.0,0.0,0.0,0.0,0.0,0.0,0.0,0.0
299028318,8,1205.0,1194.0,1221.0,1232.0,1215.0,1210.0,0.0,0.0,0.0,0.0,0.0,0.0,0.0,0.0,0.0,0.0
299136522,8,1217.0,1204.0,1232.0,1222.0,1219.0,1206.0,0.0,0.0,0.0,0.0,0.0,0.0,0.0,0.0,0.0,0.0
299221674,8,1208.0,1205.0,1219.0,1234.0,1220.0,1218.0,0.0,0.0,0.0,0.0,0.0,0.0,0.0,0.0,0.0,0.0
299330112,8,1217.0,1203.0,1230.0,1227.0,1218.0,1212.0,0.0,0.0,0.0,0.0,0.0,0.0,0.0,0.0,0.0,0.0
299416335,8,1212.0,1212.0,1227.0,1231.0,1228.0,1216.0,0.0,0.0,0.0,0.0,0.0,0.0,0.0,0.0,0.0,0.0
299525273,8,1219.0,1207.0,1232.0,1232.0,1223.0,1216.0,0.0,0.0,0.0,0.0,0.0,0.0,0.0,0.0,0.0,0.0
299631982,8,1223.0,1207.0,1235.0,1239.0,1223.0,1222.0,0.0,0.0,0.0,0.0,0.0,0.0,0.0,0.0,0.0,0.0
299718208,8,1229.0,1210.0,1240.0,1241.0,1226.0,1225.0,0.0,0.0,0.0,0.0,0.0,0.0,0.0,0.0,0.0,0.0
299827540,8,1233.0,1205.0,1243.0,1244.0,1222.0,1227.0,0.0,0.0,0.0,0.0,0.0,0.0,0.0,0.0,0.0,0.0
299935591,8,1222.0,1218.0,1237.0,1242.0,1235.0,1225.0,0.0,0.0,0.0,0.0,0.0,0.0,0.0,0.0,0.0,0.0
300021401,8,1225.0,1217.0,1240.0,1244.0,1235.0,1227.0,0.0,0.0,0.0,0.0,0.0,0.0,0.0,0.0,0.0,0.0
300131193,8,1220.0,1213.0,1234.0,1235.0,1229.0,1219.0,0.0,0.0,0.0,0.0,0.0,0.0,0.0,0.0,0.0,0.0
300238083,8,1218.0,1212.0,1230.0,1241.0,1228.0,1224.0,0.0,0.0,0.0,0.0,0.0,0.0,0.0,0.0,0.0,0.0
300326756,8,1217.0,1216.0,1232.0,1236.0,1232.0,1219.0,0.0,0.0,0.0,0.0,0.0,0.0,0.0,0.0,0.0,0.0
300434733,8,1227.0,1213.0,1240.0,1243.0,1230.0,1226.0,0.0,0.0,0.0,0.0,0.0,0.0,0.0,0.0,0.0,0.0
300520781,8,1223.0,1212.0,1237.0,1243.0,1230.0,1224.0,0.0,0.0,0.0,0.0,0.0,0.0,0.0,0.0,0.0,0.0
300630309,8,1221.0,1206.0,1235.0,1238.0,1224.0,1220.0,0.0,0.0,0.0,0.0,0.0,0.0,0.0,0.0,0.0,0.0
300739313,8,1224.0,1210.0,1238.0,1245.0,1229.0,1227.0,0.0,0.0,0.0,0.0,0.0,0.0,0.0,0.0,0.0,0.0
300827217,8,1225.0,1211.0,1238.0,1245.0,1229.0,1227.0,0.0,0.0,0.0,0.0,0.0,0.0,0.0,0.0,0.0,0.0
300935738,8,1220.0,1214.0,1234.0,1238.0,1231.0,1221.0,0.0,0.0,0.0,0.0,0.0,0.0,0.0,0.0,0.0,0.0
301024268,8,1218.0,1210.0,1232.0,1237.0,1226.0,1220.0,0.0,0.0,0.0,0.0,0.0,0.0,0.0,0.0,0.0,0.0
301129811,8,1220.0,1212.0,1233.0,1236.0,1228.0,1220.0,0.0,0.0,0.0,0.0,0.0,0.0,0.0,0.0,0.0,0.0
301237434,8,1221.0,1212.0,1232.0,1237.0,1226.0,1222.0,0.0,0.0,0.0,0.0,0.0,0.0,0.0,0.0,0.0,0.0
301324897,8,1225.0,1212.0,1236.0,1235.0,1226.0,1222.0,0.0,0.0,0.0,0.0,0.0,0.0,0.0,0.0,0.0,0.0
301433546,8,1221.0,1216.0,1232.0,1235.0,1229.0,1222.0,0.0,0.0,0.0,0.0,0.0,0.0,0.0,0.0,0.0,0.0
301539612,8,1222.0,1213.0,1232.0,1237.0,1227.0,1224.0,0.0,0.0,0.0,0.0,0.0,0.0,0.0,0.0,0.0,0.0
301626174,8,1222.0,1213.0,1232.0,1238.0,1227.0,1224.0,0.0,0.0,0.0,0.0,0.0,0.0,0.0,0.0,0.0,0.0
301737757,8,1220.0,1214.0,1232.0,1237.0,1229.0,1223.0,0.0,0.0,0.0,0.0,0.0,0.0,0.0,0.0,0.0,0.0
301822788,8,1221.0,1213.0,1233.0,1238.0,1228.0,1223.0,0.0,0.0,0.0,0.0,0.0,0.0,0.0,0.0,0.0,0.0
301932067,8,1221.0,1213.0,1234.0,1237.0,1229.0,1222.0,0.0,0.0,0.0,0.0,0.0,0.0,0.0,0.0,0.0,0.0
302017211,8,1220.0,1215.0,1233.0,1236.0,1230.0,1221.0,0.0,0.0,0.0,0.0,0.0,0.0,0.0,0.0,0.0,0.0
302128506,8,1222.0,1213.0,1235.0,1237.0,1228.0,1221.0,0.0,0.0,0.0,0.0,0.0,0.0,0.0,0.0,0.0,0.0
302232973,8,1224.0,1210.0,1235.0,1242.0,1226.0,1225.0,0.0,0.0,0.0,0.0,0.0,0.0,0.0,0.0,0.0,0.0
302318522,8,1223.0,1214.0,1237.0,1237.0,1230.0,1221.0,0.0,0.0,0.0,0.0,0.0,0.0,0.0,0.0,0.0,0.0
302427822,8,1222.0,1215.0,1236.0,1237.0,1231.0,1221.0,0.0,0.0,0.0,0.0,0.0,0.0,0.0,0.0,0.0,0.0
302517744,8,1223.0,1214.0,1237.0,1238.0,1230.0,1222.0,0.0,0.0,0.0,0.0,0.0,0.0,0.0,0.0,0.0,0.0
302623620,8,1223.0,1215.0,1237.0,1236.0,1231.0,1220.0,0.0,0.0,0.0,0.0,0.0,0.0,0.0,0.0,0.0,0.0
302728132,8,1221.0,1211.0,1234.0,1241.0,1228.0,1224.0,0.0,0.0,0.0,0.0,0.0,0.0,0.0,0.0,0.0,0.0
302838364,8,1219.0,1205.0,1232.0,1235.0,1222.0,1218.0,0.0,0.0,0.0,0.0,0.0,0.0,0.0,0.0,0.0,0.0
302926492,8,1218.0,1209.0,1232.0,1239.0,1226.0,1222.0,0.0,0.0,0.0,0.0,0.0,0.0,0.0,0.0,0.0,0.0
303033638,8,1220.0,1208.0,1235.0,1238.0,1226.0,1220.0,0.0,0.0,0.0,0.0,0.0,0.0,0.0,0.0,0.0,0.0
303122065,8,1220.0,1207.0,1234.0,1240.0,1225.0,1221.0,0.0,0.0,0.0,0.0,0.0,0.0,0.0,0.0,0.0,0.0
303229683,8,1227.0,1216.0,1243.0,1248.0,1235.0,1229.0,0.0,0.0,0.0,0.0,0.0,0.0,0.0,0.0,0.0,0.0
303332862,8,1228.0,1217.0,1243.0,1247.0,1236.0,1228.0,0.0,0.0,0.0,0.0,0.0,0.0,0.0,0.0,0.0,0.0
303421828,8,1228.0,1216.0,1243.0,1248.0,1235.0,1228.0,0.0,0.0,0.0,0.0,0.0,0.0,0.0,0.0,0.0,0.0
303528495,8,1228.0,1216.0,1245.0,1247.0,1236.0,1227.0,0.0,0.0,0.0,0.0,0.0,0.0,0.0,0.0,0.0,0.0
303635931,8,1225.0,1211.0,1241.0,1244.0,1231.0,1224.0,0.0,0.0,0.0,0.0,0.0,0.0,0.0,0.0,0.0,0.0
303723319,8,1223.0,1210.0,1239.0,1239.0,1229.0,1220.0,0.0,0.0,0.0,0.0,0.0,0.0,0.0,0.0,0.0,0.0
303833162,8,1222.0,1206.0,1238.0,1241.0,1226.0,1221.0,0.0,0.0,0.0,0.0,0.0,0.0,0.0,0.0,0.0,0.0
303919501,8,1221.0,1208.0,1236.0,1240.0,1228.0,1220.0,0.0,0.0,0.0,0.0,0.0,0.0,0.0,0.0,0.0,0.0
304027894,8,1220.0,1210.0,1236.0,1239.0,1229.0,1220.0,0.0,0.0,0.0,0.0,0.0,0.0,0.0,0.0,0.0,0.0
304136763,8,1220.0,1205.0,1235.0,1237.0,1224.0,1218.0,0.0,0.0,0.0,0.0,0.0,0.0,0.0,0.0,0.0,0.0
304225990,8,1221.0,1206.0,1235.0,1237.0,1224.0,1218.0,0.0,0.0,0.0,0.0,0.0,0.0,0.0,0.0,0.0,0.0
304331716,8,1219.0,1209.0,1234.0,1236.0,1226.0,1219.0,0.0,0.0,0.0,0.0,0.0,0.0,0.0,0.0,0.0,0.0
304420064,8,1220.0,1208.0,1234.0,1235.0,1225.0,1218.0,0.0,0.0,0.0,0.0,0.0,0.0,0.0,0.0,0.0,0.0
304532282,8,1221.0,1210.0,1234.0,1237.0,1227.0,1220.0,0.0,0.0,0.0,0.0,0.0,0.0,0.0,0.0,0.0,0.0
304635881,8,1224.0,1212.0,1236.0,1236.0,1227.0,1222.0,0.0,0.0,0.0,0.0,0.0,0.0,0.0,0.0,0.0,0.0
304720027,8,1230.0,1224.0,1233.0,1232.0,1228.0,1228.0,0.0,0.0,0.0,0.0,0.0,0.0,0.0,0.0,0.0,0.0
304828583,8,1234.0,1230.0,1234.0,1229.0,1230.0,1229.0,0.0,0.0,0.0,0.0,0.0,0.0,0.0,0.0,0.0,0.0
304936653,8,1243.0,1250.0,1226.0,1213.0,1228.0,1235.0,0.0,0.0,0.0,0.0,0.0,0.0,0.0,0.0,0.0,0.0
305023595,8,1246.0,1250.0,1227.0,1212.0,1226.0,1235.0,0.0,0.0,0.0,0.0,0.0,0.0,0.0,0.0,0.0,0.0
305130674,8,1240.0,1244.0,1229.0,1219.0,1230.0,1233.0,0.0,0.0,0.0,0.0,0.0,0.0,0.0,0.0,0.0,0.0
305219008,8,1233.0,1226.0,1235.0,1231.0,1229.0,1228.0,0.0,0.0,0.0,0.0,0.0,0.0,0.0,0.0,0.0,0.0
305329447,8,1220.0,1208.0,1234.0,1238.0,1226.0,1220.0,0.0,0.0,0.0,0.0,0.0,0.0,0.0,0.0,0.0,0.0
305434756,8,1208.0,1185.0,1240.0,1254.0,1226.0,1213.0,0.0,0.0,0.0,0.0,0.0,0.0,0.0,0.0,0.0,0.0
305524827,8,1209.0,1188.0,1240.0,1253.0,1227.0,1213.0,0.0,0.0,0.0,0.0,0.0,0.0,0.0,0.0,0.0,0.0
305632494,8,1218.0,1195.0,1248.0,1256.0,1232.0,1219.0,0.0,0.0,0.0,0.0,0.0,0.0,0.0,0.0,0.0,0.0
305718287,8,1217.0,1197.0,1245.0,1259.0,1233.0,1224.0,0.0,0.0,0.0,0.0,0.0,0.0,0.0,0.0,0.0,0.0
305824613,8,1221.0,1200.0,1246.0,1257.0,1233.0,1223.0,0.0,0.0,0.0,0.0,0.0,0.0,0.0,0.0,0.0,0.0
305934073,8,1230.0,1212.0,1253.0,1261.0,1242.0,1231.0,0.0,0.0,0.0,0.0,0.0,0.0,0.0,0.0,0.0,0.0
306023528,8,1229.0,1214.0,1251.0,1258.0,1242.0,1230.0,0.0,0.0,0.0,0.0,0.0,0.0,0.0,0.0,0.0,0.0
306128808,8,1219.0,1205.0,1239.0,1246.0,1230.0,1221.0,0.0,0.0,0.0,0.0,0.0,0.0,0.0,0.0,0.0,0.0
306218165,8,1223.0,1207.0,1242.0,1246.0,1231.0,1223.0,0.0,0.0,0.0,0.0,0.0,0.0,0.0,0.0,0.0,0.0
306324717,8,1226.0,1214.0,1244.0,1251.0,1236.0,1229.0,0.0,0.0,0.0,0.0,0.0,0.0,0.0,0.0,0.0,0.0
306413319,8,1229.0,1213.0,1245.0,1249.0,1234.0,1228.0,0.0,0.0,0.0,0.0,0.0,0.0,0.0,0.0,0.0,0.0
306524383,8,1222.0,1211.0,1238.0,1242.0,1231.0,1222.0,0.0,0.0,0.0,0.0,0.0,0.0,0.0,0.0,0.0,0.0
306636588,8,1225.0,1209.0,1240.0,1242.0,1228.0,1222.0,0.0,0.0,0.0,0.0,0.0,0.0,0.0,0.0,0.0,0.0
306722933,8,1225.0,1214.0,1241.0,1245.0,1233.0,1226.0,0.0,0.0,0.0,0.0,0.0,0.0,0.0,0.0,0.0,0.0
306834212,8,1225.0,1215.0,1239.0,1244.0,1232.0,1226.0,0.0,0.0,0.0,0.0,0.0,0.0,0.0,0.0,0.0,0.0
306918991,8,1229.0,1221.0,1238.0,1237.0,1231.0,1227.0,0.0,0.0,0.0,0.0,0.0,0.0,0.0,0.0,0.0,0.0
307027956,8,1233.0,1232.0,1231.0,1226.0,1229.0,1229.0,0.0,0.0,0.0,0.0,0.0,0.0,0.0,0.0,0.0,0.0
307117297,8,1231.0,1230.0,1227.0,1222.0,1225.0,1227.0,0.0,0.0,0.0,0.0,0.0,0.0,0.0,0.0,0.0,0.0
307225843,8,1225.0,1224.0,1219.0,1209.0,1216.0,1217.0,0.0,0.0,0.0,0.0,0.0,0.0,0.0,0.0,0.0,0.0
307335216,8,1223.0,1222.0,1219.0,1214.0,1217.0,1219.0,0.0,0.0,0.0,0.0,0.0,0.0,0.0,0.0,0.0,0.0
307421395,8,1225.0,1221.0,1226.0,1222.0,1222.0,1220.0,0.0,0.0,0.0,0.0,0.0,0.0,0.0,0.0,0.0,0.0
307529551,8,1226.0,1223.0,1233.0,1232.0,1230.0,1225.0,0.0,0.0,0.0,0.0,0.0,0.0,0.0,0.0,0.0,0.0
307618750,8,1227.0,1216.0,1237.0,1238.0,1229.0,1225.0,0.0,0.0,0.0,0.0,0.0,0.0,0.0,0.0,0.0,0.0
307726181,8,1232.0,1217.0,1248.0,1254.0,1238.0,1232.0,0.0,0.0,0.0,0.0,0.0,0.0,0.0,0.0,0.0,0.0
307831704,8,1235.0,1222.0,1255.0,1260.0,1246.0,1236.0,0.0,0.0,0.0,0.0,0.0,0.0,0.0,0.0,0.0,0.0
307920569,8,1236.0,1218.0,1257.0,1262.0,1245.0,1235.0,0.0,0.0,0.0,0.0,0.0,0.0,0.0,0.0,0.0,0.0
308026176,8,1226.0,1211.0,1250.0,1255.0,1239.0,1227.0,0.0,0.0,0.0,0.0,0.0,0.0,0.0,0.0,0.0,0.0
308130045,8,1227.0,1210.0,1249.0,1254.0,1237.0,1228.0,0.0,0.0,0.0,0.0,0.0,0.0,0.0,0.0,0.0,0.0
308237284,8,1219.0,1203.0,1239.0,1243.0,1227.0,1219.0,0.0,0.0,0.0,0.0,0.0,0.0,0.0,0.0,0.0,0.0
308326153,8,1217.0,1202.0,1236.0,1238.0,1225.0,1215.0,0.0,0.0,0.0,0.0,0.0,0.0,0.0,0.0,0.0,0.0
308435158,8,1214.0,1203.0,1232.0,1236.0,1224.0,1215.0,0.0,0.0,0.0,0.0,0.0,0.0,0.0,0.0,0.0,0.0
308520730,8,1213.0,1204.0,1229.0,1233.0,1223.0,1214.0,0.0,0.0,0.0,0.0,0.0,0.0,0.0,0.0,0.0,0.0
308629930,8,1215.0,1209.0,1230.0,1233.0,1226.0,1216.0,0.0,0.0,0.0,0.0,0.0,0.0,0.0,0.0,0.0,0.0
308739211,8,1222.0,1212.0,1234.0,1239.0,1227.0,1224.0,0.0,0.0,0.0,0.0,0.0,0.0,0.0,0.0,0.0,0.0
308827764,8,1225.0,1214.0,1235.0,1241.0,1228.0,1227.0,0.0,0.0,0.0,0.0,0.0,0.0,0.0,0.0,0.0,0.0
308936130,8,1224.0,1214.0,1231.0,1244.0,1226.0,1232.0,0.0,0.0,0.0,0.0,0.0,0.0,0.0,0.0,0.0,0.0
309024355,8,1221.0,1213.0,1229.0,1235.0,1225.0,1224.0,0.0,0.0,0.0,0.0,0.0,0.0,0.0,0.0,0.0,0.0
309129850,8,1226.0,1223.0,1236.0,1234.0,1233.0,1223.0,0.0,0.0,0.0,0.0,0.0,0.0,0.0,0.0,0.0,0.0
309238453,8,1226.0,1230.0,1236.0,1239.0,1239.0,1229.0,0.0,0.0,0.0,0.0,0.0,0.0,0.0,0.0,0.0,0.0
309323106,8,1234.0,1221.0,1243.0,1240.0,1232.0,1229.0,0.0,0.0,0.0,0.0,0.0,0.0,0.0,0.0,0.0,0.0
309428257,8,1231.0,1223.0,1241.0,1240.0,1234.0,1229.0,0.0,0.0,0.0,0.0,0.0,0.0,0.0,0.0,0.0,0.0
309536848,8,1231.0,1221.0,1240.0,1243.0,1233.0,1231.0,0.0,0.0,0.0,0.0,0.0,0.0,0.0,0.0,0.0,0.0
309631485,8,1232.0,1220.0,1241.0,1243.0,1232.0,1231.0,0.0,0.0,0.0,0.0,0.0,0.0,0.0,0.0,0.0,0.0
309733929,8,1231.0,1220.0,1241.0,1243.0,1233.0,1230.0,0.0,0.0,0.0,0.0,0.0,0.0,0.0,0.0,0.0,0.0
309818738,8,1227.0,1214.0,1237.0,1240.0,1228.0,1226.0,0.0,0.0,0.0,0.0,0.0,0.0,0.0,0.0,0.0,0.0
309928322,8,1223.0,1214.0,1235.0,1238.0,1229.0,1223.0,0.0,0.0,0.0,0.0,0.0,0.0,0.0,0.0,0.0,0.0
310036740,8,1229.0,1224.0,1231.0,1227.0,1226.0,1225.0,0.0,0.0,0.0,0.0,0.0,0.0,0.0,0.0,0.0,0.0
310124571,8,1227.0,1222.0,1231.0,1231.0,1227.0,1226.0,0.0,0.0,0.0,0.0,0.0,0.0,0.0,0.0,0.0,0.0
310232269,8,1226.0,1218.0,1233.0,1233.0,1227.0,1225.0,0.0,0.0,0.0,0.0,0.0,0.0,0.0,0.0,0.0,0.0
310319926,8,1220.0,1210.0,1235.0,1242.0,1229.0,1223.0,0.0,0.0,0.0,0.0,0.0,0.0,0.0,0.0,0.0,0.0
310427922,8,1212.0,1200.0,1225.0,1232.0,1218.0,1214.0,0.0,0.0,0.0,0.0,0.0,0.0,0.0,0.0,0.0,0.0
310536040,8,1219.0,1209.0,1233.0,1238.0,1226.0,1221.0,0.0,0.0,0.0,0.0,0.0,0.0,0.0,0.0,0.0,0.0
310622130,8,1222.0,1214.0,1233.0,1237.0,1227.0,1223.0,0.0,0.0,0.0,0.0,0.0,0.0,0.0,0.0,0.0,0.0
310732601,8,1225.0,1217.0,1232.0,1232.0,1226.0,1223.0,0.0,0.0,0.0,0.0,0.0,0.0,0.0,0.0,0.0,0.0
310838489,8,1232.0,1236.0,1226.0,1219.0,1228.0,1228.0,0.0,0.0,0.0,0.0,0.0,0.0,0.0,0.0,0.0,0.0
310925286,8,1237.0,1234.0,1233.0,1223.0,1228.0,1230.0,0.0,0.0,0.0,0.0,0.0,0.0,0.0,0.0,0.0,0.0
311036459,8,1235.0,1240.0,1230.0,1226.0,1233.0,1233.0,0.0,0.0,0.0,0.0,0.0,0.0,0.0,0.0,0.0,0.0
311316365,8,1228.0,1218.0,1239.0,1238.0,1231.0,1225.0,0.0,0.0,0.0,0.0,0.0,0.0,0.0,0.0,0.0,0.0
312028321,8,1216.0,1215.0,1219.0,1216.0,1217.0,1214.0,0.0,0.0,0.0,0.0,0.0,0.0,0.0,0.0,0.0,0.0
312131886,8,1223.0,1231.0,1220.0,1217.0,1225.0,1223.0,0.0,0.0,0.0,0.0,0.0,0.0,0.0,0.0,0.0,0.0
312220557,8,1235.0,1239.0,1226.0,1213.0,1226.0,1226.0,0.0,0.0,0.0,0.0,0.0,0.0,0.0,0.0,0.0,0.0
312325312,8,1234.0,1244.0,1221.0,1211.0,1227.0,1229.0,0.0,0.0,0.0,0.0,0.0,0.0,0.0,0.0,0.0,0.0
312436284,8,1242.0,1245.0,1229.0,1217.0,1228.0,1234.0,0.0,0.0,0.0,0.0,0.0,0.0,0.0,0.0,0.0,0.0
312524287,8,1242.0,1245.0,1228.0,1218.0,1228.0,1235.0,0.0,0.0,0.0,0.0,0.0,0.0,0.0,0.0,0.0,0.0
312634866,8,1233.0,1234.0,1223.0,1212.0,1221.0,1225.0,0.0,0.0,0.0,0.0,0.0,0.0,0.0,0.0,0.0,0.0
312722446,8,1239.0,1247.0,1232.0,1220.0,1235.0,1232.0,0.0,0.0,0.0,0.0,0.0,0.0,0.0,0.0,0.0,0.0
312833815,8,1240.0,1243.0,1235.0,1231.0,1236.0,1238.0,0.0,0.0,0.0,0.0,0.0,0.0,0.0,0.0,0.0,0.0
312920598,8,1232.0,1235.0,1232.0,1231.0,1234.0,1232.0,0.0,0.0,0.0,0.0,0.0,0.0,0.0,0.0,0.0,0.0
313032303,8,1230.0,1230.0,1235.0,1235.0,1235.0,1230.0,0.0,0.0,0.0,0.0,0.0,0.0,0.0,0.0,0.0,0.0
313139215,8,1229.0,1221.0,1242.0,1244.0,1236.0,1229.0,0.0,0.0,0.0,0.0,0.0,0.0,0.0,0.0,0.0,0.0
313225235,8,1223.0,1203.0,1248.0,1257.0,1236.0,1225.0,0.0,0.0,0.0,0.0,0.0,0.0,0.0,0.0,0.0,0.0
313335120,8,1208.0,1193.0,1241.0,1253.0,1232.0,1214.0,0.0,0.0,0.0,0.0,0.0,0.0,0.0,0.0,0.0,0.0
313419903,8,1207.0,1189.0,1241.0,1260.0,1232.0,1217.0,0.0,0.0,0.0,0.0,0.0,0.0,0.0,0.0,0.0,0.0
313528498,8,1211.0,1184.0,1247.0,1260.0,1229.0,1215.0,0.0,0.0,0.0,0.0,0.0,0.0,0.0,0.0,0.0,0.0
313638444,8,1208.0,1193.0,1240.0,1259.0,1233.0,1219.0,0.0,0.0,0.0,0.0,0.0,0.0,0.0,0.0,0.0,0.0
313727112,8,1215.0,1202.0,1244.0,1250.0,1235.0,1216.0,0.0,0.0,0.0,0.0,0.0,0.0,0.0,0.0,0.0,0.0
313832456,8,1223.0,1216.0,1244.0,1263.0,1243.0,1235.0,0.0,0.0,0.0,0.0,0.0,0.0,0.0,0.0,0.0,0.0
313921041,8,1233.0,1217.0,1251.0,1260.0,1241.0,1236.0,0.0,0.0,0.0,0.0,0.0,0.0,0.0,0.0,0.0,0.0
314029371,8,1231.0,1220.0,1247.0,1253.0,1240.0,1233.0,0.0,0.0,0.0,0.0,0.0,0.0,0.0,0.0,0.0,0.0
314118243,8,1224.0,1213.0,1238.0,1244.0,1231.0,1226.0,0.0,0.0,0.0,0.0,0.0,0.0,0.0,0.0,0.0,0.0
314223902,8,1232.0,1222.0,1242.0,1246.0,1235.0,1232.0,0.0,0.0,0.0,0.0,0.0,0.0,0.0,0.0,0.0,0.0
314331832,8,1235.0,1227.0,1241.0,1239.0,1235.0,1231.0,0.0,0.0,0.0,0.0,0.0,0.0,0.0,0.0,0.0,0.0
314417081,8,1231.0,1231.0,1236.0,1232.0,1235.0,1228.0,0.0,0.0,0.0,0.0,0.0,0.0,0.0,0.0,0.0,0.0
314526031,8,1231.0,1224.0,1233.0,1231.0,1227.0,1227.0,0.0,0.0,0.0,0.0,0.0,0.0,0.0,0.0,0.0,0.0
314635126,8,1231.0,1225.0,1234.0,1229.0,1229.0,1225.0,0.0,0.0,0.0,0.0,0.0,0.0,0.0,0.0,0.0,0.0
314730875,8,1232.0,1229.0,1236.0,1239.0,1234.0,1234.0,0.0,0.0,0.0,0.0,0.0,0.0,0.0,0.0,0.0,0.0
314830770,8,1229.0,1222.0,1233.0,1238.0,1229.0,1231.0,0.0,0.0,0.0,0.0,0.0,0.0,0.0,0.0,0.0,0.0
314916682,8,1232.0,1226.0,1236.0,1231.0,1230.0,1227.0,0.0,0.0,0.0,0.0,0.0,0.0,0.0,0.0,0.0,0.0
315026085,8,1229.0,1226.0,1234.0,1231.0,1230.0,1226.0,0.0,0.0,0.0,0.0,0.0,0.0,0.0,0.0,0.0,0.0
315130355,8,1229.0,1218.0,1233.0,1236.0,1226.0,1229.0,0.0,0.0,0.0,0.0,0.0,0.0,0.0,0.0,0.0,0.0
315217624,8,1218.0,1211.0,1223.0,1222.0,1217.0,1216.0,0.0,0.0,0.0,0.0,0.0,0.0,0.0,0.0,0.0,0.0
315327450,8,1228.0,1223.0,1231.0,1227.0,1226.0,1223.0,0.0,0.0,0.0,0.0,0.0,0.0,0.0,0.0,0.0,0.0
315437258,8,1233.0,1225.0,1233.0,1228.0,1226.0,1227.0,0.0,0.0,0.0,0.0,0.0,0.0,0.0,0.0,0.0,0.0
315525578,8,1234.0,1230.0,1233.0,1231.0,1230.0,1231.0,0.0,0.0,0.0,0.0,0.0,0.0,0.0,0.0,0.0,0.0
315635654,8,1232.0,1231.0,1236.0,1231.0,1234.0,1228.0,0.0,0.0,0.0,0.0,0.0,0.0,0.0,0.0,0.0,0.0
315720099,8,1220.0,1215.0,1227.0,1227.0,1223.0,1219.0,0.0,0.0,0.0,0.0,0.0,0.0,0.0,0.0,0.0,0.0
315830527,8,1213.0,1203.0,1223.0,1227.0,1216.0,1214.0,0.0,0.0,0.0,0.0,0.0,0.0,0.0,0.0,0.0,0.0
315916773,8,1215.0,1209.0,1229.0,1226.0,1223.0,1212.0,0.0,0.0,0.0,0.0,0.0,0.0,0.0,0.0,0.0,0.0
316026397,8,1226.0,1215.0,1237.0,1239.0,1229.0,1225.0,0.0,0.0,0.0,0.0,0.0,0.0,0.0,0.0,0.0,0.0
316136181,8,1229.0,1219.0,1237.0,1234.0,1229.0,1224.0,0.0,0.0,0.0,0.0,0.0,0.0,0.0,0.0,0.0,0.0
316221156,8,1232.0,1216.0,1239.0,1235.0,1225.0,1225.0,0.0,0.0,0.0,0.0,0.0,0.0,0.0,0.0,0.0,0.0
316329257,8,1232.0,1220.0,1238.0,1235.0,1228.0,1226.0,0.0,0.0,0.0,0.0,0.0,0.0,0.0,0.0,0.0,0.0
316417979,8,1235.0,1230.0,1244.0,1241.0,1240.0,1231.0,0.0,0.0,0.0,0.0,0.0,0.0,0.0,0.0,0.0,0.0
316523623,8,1235.0,1232.0,1247.0,1249.0,1246.0,1235.0,0.0,0.0,0.0,0.0,0.0,0.0,0.0,0.0,0.0,0.0
316633486,8,1233.0,1223.0,1249.0,1256.0,1243.0,1236.0,0.0,0.0,0.0,0.0,0.0,0.0,0.0,0.0,0.0,0.0
316721967,8,1237.0,1212.0,1253.0,1264.0,1236.0,1239.0,0.0,0.0,0.0,0.0,0.0,0.0,0.0,0.0,0.0,0.0
316828577,8,1222.0,1212.0,1242.0,1242.0,1234.0,1220.0,0.0,0.0,0.0,0.0,0.0,0.0,0.0,0.0,0.0,0.0
316914343,8,1223.0,1205.0,1245.0,1246.0,1231.0,1219.0,0.0,0.0,0.0,0.0,0.0,0.0,0.0,0.0,0.0,0.0
317023107,8,1208.0,1194.0,1232.0,1239.0,1223.0,1211.0,0.0,0.0,0.0,0.0,0.0,0.0,0.0,0.0,0.0,0.0
317133075,8,1217.0,1206.0,1242.0,1245.0,1234.0,1217.0,0.0,0.0,0.0,0.0,0.0,0.0,0.0,0.0,0.0,0.0
317216247,8,1219.0,1202.0,1243.0,1247.0,1231.0,1218.0,0.0,0.0,0.0,0.0,0.0,0.0,0.0,0.0,0.0,0.0
317324604,8,1205.0,1197.0,1232.0,1231.0,1225.0,1203.0,0.0,0.0,0.0,0.0,0.0,0.0,0.0,0.0,0.0,0.0
317431423,8,1211.0,1195.0,1233.0,1240.0,1222.0,1213.0,0.0,0.0,0.0,0.0,0.0,0.0,0.0,0.0,0.0,0.0
317519330,8,1223.0,1210.0,1244.0,1248.0,1234.0,1223.0,0.0,0.0,0.0,0.0,0.0,0.0,0.0,0.0,0.0,0.0
317630426,8,1222.0,1215.0,1242.0,1248.0,1238.0,1225.0,0.0,0.0,0.0,0.0,0.0,0.0,0.0,0.0,0.0,0.0
317737931,8,1229.0,1213.0,1247.0,1243.0,1233.0,1222.0,0.0,0.0,0.0,0.0,0.0,0.0,0.0,0.0,0.0,0.0
317824660,8,1222.0,1207.0,1238.0,1245.0,1229.0,1224.0,0.0,0.0,0.0,0.0,0.0,0.0,0.0,0.0,0.0,0.0
317933059,8,1222.0,1211.0,1238.0,1241.0,1231.0,1222.0,0.0,0.0,0.0,0.0,0.0,0.0,0.0,0.0,0.0,0.0
318038904,8,1232.0,1218.0,1246.0,1252.0,1236.0,1233.0,0.0,0.0,0.0,0.0,0.0,0.0,0.0,0.0,0.0,0.0
318126542,8,1234.0,1222.0,1247.0,1246.0,1238.0,1230.0,0.0,0.0,0.0,0.0,0.0,0.0,0.0,0.0,0.0,0.0
318232070,8,1230.0,1224.0,1240.0,1245.0,1236.0,1233.0,0.0,0.0,0.0,0.0,0.0,0.0,0.0,0.0,0.0,0.0
318317050,8,1231.0,1225.0,1238.0,1241.0,1234.0,1232.0,0.0,0.0,0.0,0.0,0.0,0.0,0.0,0.0,0.0,0.0
318428409,8,1224.0,1215.0,1229.0,1223.0,1220.0,1218.0,0.0,0.0,0.0,0.0,0.0,0.0,0.0,0.0,0.0,0.0
318536796,8,1226.0,1226.0,1228.0,1227.0,1228.0,1225.0,0.0,0.0,0.0,0.0,0.0,0.0,0.0,0.0,0.0,0.0
318624381,8,1229.0,1226.0,1229.0,1221.0,1225.0,1222.0,0.0,0.0,0.0,0.0,0.0,0.0,0.0,0.0,0.0,0.0
318731664,8,1218.0,1216.0,1217.0,1217.0,1216.0,1217.0,0.0,0.0,0.0,0.0,0.0,0.0,0.0,0.0,0.0,0.0
318817496,8,1220.0,1217.0,1220.0,1215.0,1217.0,1215.0,0.0,0.0,0.0,0.0,0.0,0.0,0.0,0.0,0.0,0.0
318928695,8,1220.0,1219.0,1221.0,1213.0,1219.0,1214.0,0.0,0.0,0.0,0.0,0.0,0.0,0.0,0.0,0.0,0.0
319036038,8,1223.0,1219.0,1225.0,1211.0,1219.0,1211.0,0.0,0.0,0.0,0.0,0.0,0.0,0.0,0.0,0.0,0.0
319125390,8,1228.0,1225.0,1229.0,1230.0,1227.0,1228.0,0.0,0.0,0.0,0.0,0.0,0.0,0.0,0.0,0.0,0.0
319230769,8,1226.0,1224.0,1228.0,1228.0,1227.0,1226.0,0.0,0.0,0.0,0.0,0.0,0.0,0.0,0.0,0.0,0.0
319337028,8,1229.0,1218.0,1231.0,1233.0,1223.0,1228.0,0.0,0.0,0.0,0.0,0.0,0.0,0.0,0.0,0.0,0.0
319424785,8,1228.0,1222.0,1230.0,1231.0,1225.0,1227.0,0.0,0.0,0.0,0.0,0.0,0.0,0.0,0.0,0.0,0.0
319532299,8,1225.0,1228.0,1229.0,1228.0,1230.0,1226.0,0.0,0.0,0.0,0.0,0.0,0.0,0.0,0.0,0.0,0.0
319622226,8,1226.0,1224.0,1228.0,1230.0,1227.0,1227.0,0.0,0.0,0.0,0.0,0.0,0.0,0.0,0.0,0.0,0.0
319725591,8,1227.0,1224.0,1230.0,1229.0,1228.0,1225.0,0.0,0.0,0.0,0.0,0.0,0.0,0.0,0.0,0.0,0.0
319831193,8,1229.0,1225.0,1233.0,1235.0,1231.0,1230.0,0.0,0.0,0.0,0.0,0.0,0.0,0.0,0.0,0.0,0.0
319919379,8,1229.0,1226.0,1234.0,1234.0,1232.0,1228.0,0.0,0.0,0.0,0.0,0.0,0.0,0.0,0.0,0.0,0.0
320023659,8,1229.0,1225.0,1237.0,1233.0,1234.0,1224.0,0.0,0.0,0.0,0.0,0.0,0.0,0.0,0.0,0.0,0.0
320129091,8,1228.0,1223.0,1239.0,1244.0,1237.0,1230.0,0.0,0.0,0.0,0.0,0.0,0.0,0.0,0.0,0.0,0.0
320234967,8,1224.0,1217.0,1235.0,1241.0,1232.0,1227.0,0.0,0.0,0.0,0.0,0.0,0.0,0.0,0.0,0.0,0.0
320323242,8,1224.0,1217.0,1237.0,1240.0,1232.0,1225.0,0.0,0.0,0.0,0.0,0.0,0.0,0.0,0.0,0.0,0.0
320430351,8,1213.0,1206.0,1228.0,1240.0,1226.0,1220.0,0.0,0.0,0.0,0.0,0.0,0.0,0.0,0.0,0.0,0.0
320537455,8,1218.0,1208.0,1230.0,1234.0,1224.0,1219.0,0.0,0.0,0.0,0.0,0.0,0.0,0.0,0.0,0.0,0.0
320623014,8,1215.0,1204.0,1232.0,1237.0,1225.0,1216.0,0.0,0.0,0.0,0.0,0.0,0.0,0.0,0.0,0.0,0.0
320728778,8,1210.0,1204.0,1226.0,1236.0,1224.0,1216.0,0.0,0.0,0.0,0.0,0.0,0.0,0.0,0.0,0.0,0.0
320824351,8,1208.0,1193.0,1234.0,1244.0,1225.0,1212.0,0.0,0.0,0.0,0.0,0.0,0.0,0.0,0.0,0.0,0.0
320926533,8,1217.0,1206.0,1242.0,1251.0,1236.0,1221.0,0.0,0.0,0.0,0.0,0.0,0.0,0.0,0.0,0.0,0.0
321034442,8,1222.0,1211.0,1239.0,1245.0,1232.0,1223.0,0.0,0.0,0.0,0.0,0.0,0.0,0.0,0.0,0.0,0.0
321120880,8,1219.0,1209.0,1239.0,1248.0,1234.0,1223.0,0.0,0.0,0.0,0.0,0.0,0.0,0.0,0.0,0.0,0.0
321232530,8,1235.0,1230.0,1246.0,1252.0,1244.0,1238.0,0.0,0.0,0.0,0.0,0.0,0.0,0.0,0.0,0.0,0.0
321339333,8,1230.0,1228.0,1239.0,1242.0,1238.0,1232.0,0.0,0.0,0.0,0.0,0.0,0.0,0.0,0.0,0.0,0.0
321426054,8,1235.0,1227.0,1242.0,1239.0,1235.0,1231.0,0.0,0.0,0.0,0.0,0.0,0.0,0.0,0.0,0.0,0.0
321530335,8,1230.0,1234.0,1224.0,1219.0,1225.0,1227.0,0.0,0.0,0.0,0.0,0.0,0.0,0.0,0.0,0.0,0.0
321617783,8,1230.0,1234.0,1226.0,1221.0,1227.0,1227.0,0.0,0.0,0.0,0.0,0.0,0.0,0.0,0.0,0.0,0.0
321725873,8,1235.0,1234.0,1226.0,1218.0,1224.0,1229.0,0.0,0.0,0.0,0.0,0.0,0.0,0.0,0.0,0.0,0.0
321812328,8,1234.0,1237.0,1227.0,1220.0,1228.0,1230.0,0.0,0.0,0.0,0.0,0.0,0.0,0.0,0.0,0.0,0.0
321920989,8,1235.0,1234.0,1229.0,1221.0,1227.0,1229.0,0.0,0.0,0.0,0.0,0.0,0.0,0.0,0.0,0.0,0.0
322029587,8,1223.0,1226.0,1218.0,1214.0,1219.0,1220.0,0.0,0.0,0.0,0.0,0.0,0.0,0.0,0.0,0.0,0.0
322117024,8,1224.0,1223.0,1222.0,1214.0,1219.0,1218.0,0.0,0.0,0.0,0.0,0.0,0.0,0.0,0.0,0.0,0.0
322227111,8,1227.0,1227.0,1226.0,1224.0,1226.0,1226.0,0.0,0.0,0.0,0.0,0.0,0.0,0.0,0.0,0.0,0.0
322332744,8,1226.0,1226.0,1227.0,1226.0,1227.0,1225.0,0.0,0.0,0.0,0.0,0.0,0.0,0.0,0.0,0.0,0.0
322417752,8,1226.0,1222.0,1229.0,1230.0,1226.0,1226.0,0.0,0.0,0.0,0.0,0.0,0.0,0.0,0.0,0.0,0.0
322529284,8,1226.0,1222.0,1232.0,1235.0,1229.0,1228.0,0.0,0.0,0.0,0.0,0.0,0.0,0.0,0.0,0.0,0.0
322635602,8,1231.0,1227.0,1236.0,1239.0,1234.0,1232.0,0.0,0.0,0.0,0.0,0.0,0.0,0.0,0.0,0.0,0.0
322720956,8,1229.0,1219.0,1234.0,1234.0,1227.0,1226.0,0.0,0.0,0.0,0.0,0.0,0.0,0.0,0.0,0.0,0.0
322831582,8,1226.0,1220.0,1234.0,1233.0,1229.0,1224.0,0.0,0.0,0.0,0.0,0.0,0.0,0.0,0.0,0.0,0.0
322938611,8,1220.0,1211.0,1232.0,1235.0,1226.0,1220.0,0.0,0.0,0.0,0.0,0.0,0.0,0.0,0.0,0.0,0.0
323025556,8,1205.0,1193.0,1226.0,1236.0,1219.0,1210.0,0.0,0.0,0.0,0.0,0.0,0.0,0.0,0.0,0.0,0.0
323134234,8,1213.0,1205.0,1224.0,1225.0,1218.0,1212.0,0.0,0.0,0.0,0.0,0.0,0.0,0.0,0.0,0.0,0.0
323239247,8,1218.0,1211.0,1228.0,1231.0,1224.0,1218.0,0.0,0.0,0.0,0.0,0.0,0.0,0.0,0.0,0.0,0.0
323327861,8,1217.0,1211.0,1234.0,1249.0,1233.0,1227.0,0.0,0.0,0.0,0.0,0.0,0.0,0.0,0.0,0.0,0.0
323434695,8,1226.0,1214.0,1237.0,1239.0,1228.0,1225.0,0.0,0.0,0.0,0.0,0.0,0.0,0.0,0.0,0.0,0.0
323519031,8,1223.0,1215.0,1233.0,1242.0,1229.0,1228.0,0.0,0.0,0.0,0.0,0.0,0.0,0.0,0.0,0.0,0.0
323628952,8,1235.0,1229.0,1236.0,1233.0,1231.0,1231.0,0.0,0.0,0.0,0.0,0.0,0.0,0.0,0.0,0.0,0.0
323734674,8,1228.0,1225.0,1232.0,1232.0,1229.0,1227.0,0.0,0.0,0.0,0.0,0.0,0.0,0.0,0.0,0.0,0.0
323823450,8,1228.0,1230.0,1230.0,1227.0,1231.0,1227.0,0.0,0.0,0.0,0.0,0.0,0.0,0.0,0.0,0.0,0.0
323931331,8,1230.0,1228.0,1231.0,1229.0,1229.0,1228.0,0.0,0.0,0.0,0.0,0.0,0.0,0.0,0.0,0.0,0.0
324017240,8,1234.0,1233.0,1235.0,1233.0,1234.0,1232.0,0.0,0.0,0.0,0.0,0.0,0.0,0.0,0.0,0.0,0.0
324126337,8,1236.0,1233.0,1238.0,1237.0,1235.0,1235.0,0.0,0.0,0.0,0.0,0.0,0.0,0.0,0.0,0.0,0.0
324234519,8,1228.0,1225.0,1230.0,1229.0,1228.0,1227.0,0.0,0.0,0.0,0.0,0.0,0.0,0.0,0.0,0.0,0.0
324323111,8,1227.0,1225.0,1230.0,1229.0,1228.0,1226.0,0.0,0.0,0.0,0.0,0.0,0.0,0.0,0.0,0.0,0.0
324431609,8,1227.0,1225.0,1231.0,1231.0,1230.0,1225.0,0.0,0.0,0.0,0.0,0.0,0.0,0.0,0.0,0.0,0.0
324518214,8,1225.0,1222.0,1230.0,1236.0,1230.0,1229.0,0.0,0.0,0.0,0.0,0.0,0.0,0.0,0.0,0.0,0.0
324626795,8,1228.0,1221.0,1235.0,1231.0,1229.0,1223.0,0.0,0.0,0.0,0.0,0.0,0.0,0.0,0.0,0.0,0.0
324733385,8,1218.0,1213.0,1225.0,1230.0,1222.0,1221.0,0.0,0.0,0.0,0.0,0.0,0.0,0.0,0.0,0.0,0.0
324822071,8,1220.0,1217.0,1227.0,1224.0,1224.0,1217.0,0.0,0.0,0.0,0.0,0.0,0.0,0.0,0.0,0.0,0.0
324930693,8,1218.0,1217.0,1224.0,1228.0,1224.0,1221.0,0.0,0.0,0.0,0.0,0.0,0.0,0.0,0.0,0.0,0.0
325019039,8,1227.0,1219.0,1231.0,1232.0,1226.0,1225.0,0.0,0.0,0.0,0.0,0.0,0.0,0.0,0.0,0.0,0.0
325126456,8,1223.0,1220.0,1228.0,1234.0,1226.0,1228.0,0.0,0.0,0.0,0.0,0.0,0.0,0.0,0.0,0.0,0.0
325235565,8,1227.0,1223.0,1232.0,1227.0,1228.0,1222.0,0.0,0.0,0.0,0.0,0.0,0.0,0.0,0.0,0.0,0.0
325323562,8,1228.0,1227.0,1231.0,1235.0,1231.0,1230.0,0.0,0.0,0.0,0.0,0.0,0.0,0.0,0.0,0.0,0.0
325432535,8,1230.0,1228.0,1233.0,1232.0,1231.0,1229.0,0.0,0.0,0.0,0.0,0.0,0.0,0.0,0.0,0.0,0.0
325537358,8,1228.0,1224.0,1230.0,1238.0,1230.0,1232.0,0.0,0.0,0.0,0.0,0.0,0.0,0.0,0.0,0.0,0.0
325622151,8,1232.0,1227.0,1237.0,1230.0,1231.0,1226.0,0.0,0.0,0.0,0.0,0.0,0.0,0.0,0.0,0.0,0.0
325731416,8,1230.0,1224.0,1233.0,1236.0,1229.0,1231.0,0.0,0.0,0.0,0.0,0.0,0.0,0.0,0.0,0.0,0.0
325815203,8,1225.0,1222.0,1229.0,1230.0,1228.0,1225.0,0.0,0.0,0.0,0.0,0.0,0.0,0.0,0.0,0.0,0.0
325921656,8,1227.0,1222.0,1233.0,1230.0,1228.0,1223.0,0.0,0.0,0.0,0.0,0.0,0.0,0.0,0.0,0.0,0.0
326026588,8,1221.0,1220.0,1228.0,1235.0,1229.0,1226.0,0.0,0.0,0.0,0.0,0.0,0.0,0.0,0.0,0.0,0.0
326136700,8,1223.0,1219.0,1233.0,1228.0,1228.0,1219.0,0.0,0.0,0.0,0.0,0.0,0.0,0.0,0.0,0.0,0.0
326224847,8,1224.0,1222.0,1232.0,1238.0,1231.0,1228.0,0.0,0.0,0.0,0.0,0.0,0.0,0.0,0.0,0.0,0.0
326334072,8,1226.0,1218.0,1233.0,1235.0,1228.0,1226.0,0.0,0.0,0.0,0.0,0.0,0.0,0.0,0.0,0.0,0.0
326420411,8,1210.0,1210.0,1218.0,1221.0,1219.0,1212.0,0.0,0.0,0.0,0.0,0.0,0.0,0.0,0.0,0.0,0.0
326529086,8,1216.0,1206.0,1223.0,1223.0,1215.0,1214.0,0.0,0.0,0.0,0.0,0.0,0.0,0.0,0.0,0.0,0.0
326635761,8,1224.0,1217.0,1230.0,1234.0,1226.0,1225.0,0.0,0.0,0.0,0.0,0.0,0.0,0.0,0.0,0.0,0.0
326720650,8,1225.0,1222.0,1233.0,1229.0,1230.0,1221.0,0.0,0.0,0.0,0.0,0.0,0.0,0.0,0.0,0.0,0.0
326830901,8,1221.0,1219.0,1230.0,1234.0,1229.0,1224.0,0.0,0.0,0.0,0.0,0.0,0.0,0.0,0.0,0.0,0.0
326925843,8,1224.0,1218.0,1233.0,1236.0,1230.0,1224.0,0.0,0.0,0.0,0.0,0.0,0.0,0.0,0.0,0.0,0.0
327028453,8,1228.0,1224.0,1237.0,1241.0,1235.0,1230.0,0.0,0.0,0.0,0.0,0.0,0.0,0.0,0.0,0.0,0.0
327135021,8,1233.0,1225.0,1241.0,1241.0,1235.0,1231.0,0.0,0.0,0.0,0.0,0.0,0.0,0.0,0.0,0.0,0.0
327222731,8,1232.0,1227.0,1242.0,1238.0,1237.0,1228.0,0.0,0.0,0.0,0.0,0.0,0.0,0.0,0.0,0.0,0.0
327330300,8,1226.0,1222.0,1236.0,1243.0,1234.0,1231.0,0.0,0.0,0.0,0.0,0.0,0.0,0.0,0.0,0.0,0.0
327435768,8,1223.0,1217.0,1234.0,1238.0,1230.0,1224.0,0.0,0.0,0.0,0.0,0.0,0.0,0.0,0.0,0.0,0.0
327522091,8,1220.0,1212.0,1230.0,1241.0,1227.0,1226.0,0.0,0.0,0.0,0.0,0.0,0.0,0.0,0.0,0.0,0.0
327631891,8,1222.0,1214.0,1233.0,1234.0,1226.0,1221.0,0.0,0.0,0.0,0.0,0.0,0.0,0.0,0.0,0.0,0.0
327717472,8,1223.0,1217.0,1231.0,1239.0,1228.0,1228.0,0.0,0.0,0.0,0.0,0.0,0.0,0.0,0.0,0.0,0.0
327823939,8,1221.0,1214.0,1229.0,1230.0,1224.0,1220.0,0.0,0.0,0.0,0.0,0.0,0.0,0.0,0.0,0.0,0.0
327936959,8,1218.0,1220.0,1227.0,1233.0,1230.0,1224.0,0.0,0.0,0.0,0.0,0.0,0.0,0.0,0.0,0.0,0.0
328017047,8,1222.0,1218.0,1231.0,1236.0,1229.0,1226.0,0.0,0.0,0.0,0.0,0.0,0.0,0.0,0.0,0.0,0.0
328128069,8,1231.0,1214.0,1237.0,1233.0,1223.0,1224.0,0.0,0.0,0.0,0.0,0.0,0.0,0.0,0.0,0.0,0.0
328231165,8,1224.0,1221.0,1230.0,1235.0,1229.0,1227.0,0.0,0.0,0.0,0.0,0.0,0.0,0.0,0.0,0.0,0.0
328339536,8,1230.0,1227.0,1236.0,1238.0,1234.0,1231.0,0.0,0.0,0.0,0.0,0.0,0.0,0.0,0.0,0.0,0.0
328426461,8,1226.0,1228.0,1232.0,1228.0,1232.0,1223.0,0.0,0.0,0.0,0.0,0.0,0.0,0.0,0.0,0.0,0.0
328534446,8,1232.0,1229.0,1235.0,1237.0,1233.0,1233.0,0.0,0.0,0.0,0.0,0.0,0.0,0.0,0.0,0.0,0.0
328622956,8,1229.0,1223.0,1230.0,1233.0,1227.0,1230.0,0.0,0.0,0.0,0.0,0.0,0.0,0.0,0.0,0.0,0.0
328730665,8,1228.0,1228.0,1231.0,1230.0,1231.0,1227.0,0.0,0.0,0.0,0.0,0.0,0.0,0.0,0.0,0.0,0.0
328837596,8,1229.0,1223.0,1231.0,1232.0,1227.0,1228.0,0.0,0.0,0.0,0.0,0.0,0.0,0.0,0.0,0.0,0.0
328926293,8,1228.0,1225.0,1230.0,1230.0,1228.0,1227.0,0.0,0.0,0.0,0.0,0.0,0.0,0.0,0.0,0.0,0.0
329037168,8,1230.0,1223.0,1231.0,1231.0,1226.0,1228.0,0.0,0.0,0.0,0.0,0.0,0.0,0.0,0.0,0.0,0.0
329122187,8,1224.0,1231.0,1229.0,1225.0,1233.0,1224.0,0.0,0.0,0.0,0.0,0.0,0.0,0.0,0.0,0.0,0.0
329228451,8,1214.0,1217.0,1218.0,1216.0,1219.0,1213.0,0.0,0.0,0.0,0.0,0.0,0.0,0.0,0.0,0.0,0.0
329318138,8,1213.0,1214.0,1216.0,1215.0,1217.0,1213.0,0.0,0.0,0.0,0.0,0.0,0.0,0.0,0.0,0.0,0.0
329426819,8,1211.0,1217.0,1214.0,1214.0,1219.0,1212.0,0.0,0.0,0.0,0.0,0.0,0.0,0.0,0.0,0.0,0.0
329531134,8,1229.0,1220.0,1229.0,1229.0,1222.0,1227.0,0.0,0.0,0.0,0.0,0.0,0.0,0.0,0.0,0.0,0.0
329638395,8,1228.0,1226.0,1229.0,1232.0,1228.0,1230.0,0.0,0.0,0.0,0.0,0.0,0.0,0.0,0.0,0.0,0.0
329722680,8,1229.0,1224.0,1230.0,1231.0,1226.0,1229.0,0.0,0.0,0.0,0.0,0.0,0.0,0.0,0.0,0.0,0.0
329830630,8,1240.0,1236.0,1244.0,1242.0,1240.0,1238.0,0.0,0.0,0.0,0.0,0.0,0.0,0.0,0.0,0.0,0.0
329936154,8,1239.0,1236.0,1243.0,1246.0,1241.0,1241.0,0.0,0.0,0.0,0.0,0.0,0.0,0.0,0.0,0.0,0.0
330025891,8,1238.0,1236.0,1242.0,1243.0,1241.0,1238.0,0.0,0.0,0.0,0.0,0.0,0.0,0.0,0.0,0.0,0.0
330135364,8,1238.0,1233.0,1242.0,1245.0,1239.0,1240.0,0.0,0.0,0.0,0.0,0.0,0.0,0.0,0.0,0.0,0.0
330220187,8,1240.0,1231.0,1244.0,1244.0,1238.0,1237.0,0.0,0.0,0.0,0.0,0.0,0.0,0.0,0.0,0.0,0.0
330326885,8,1223.0,1223.0,1230.0,1230.0,1230.0,1223.0,0.0,0.0,0.0,0.0,0.0,0.0,0.0,0.0,0.0,0.0
330436579,8,1227.0,1220.0,1234.0,1234.0,1228.0,1226.0,0.0,0.0,0.0,0.0,0.0,0.0,0.0,0.0,0.0,0.0
330525486,8,1228.0,1222.0,1233.0,1237.0,1229.0,1229.0,0.0,0.0,0.0,0.0,0.0,0.0,0.0,0.0,0.0,0.0
330635667,8,1223.0,1220.0,1229.0,1230.0,1227.0,1223.0,0.0,0.0,0.0,0.0,0.0,0.0,0.0,0.0,0.0,0.0
330721306,8,1215.0,1209.0,1219.0,1221.0,1215.0,1215.0,0.0,0.0,0.0,0.0,0.0,0.0,0.0,0.0,0.0,0.0
330829179,8,1214.0,1209.0,1219.0,1220.0,1216.0,1214.0,0.0,0.0,0.0,0.0,0.0,0.0,0.0,0.0,0.0,0.0
330935949,8,1211.0,1211.0,1218.0,1220.0,1218.0,1212.0,0.0,0.0,0.0,0.0,0.0,0.0,0.0,0.0,0.0,0.0
331023329,8,1214.0,1210.0,1222.0,1222.0,1219.0,1213.0,0.0,0.0,0.0,0.0,0.0,0.0,0.0,0.0,0.0,0.0
331132526,8,1219.0,1219.0,1229.0,1226.0,1228.0,1218.0,0.0,0.0,0.0,0.0,0.0,0.0,0.0,0.0,0.0,0.0
331220703,8,1223.0,1220.0,1231.0,1231.0,1229.0,1222.0,0.0,0.0,0.0,0.0,0.0,0.0,0.0,0.0,0.0,0.0
331329194,8,1229.0,1223.0,1235.0,1241.0,1232.0,1232.0,0.0,0.0,0.0,0.0,0.0,0.0,0.0,0.0,0.0,0.0
331434030,8,1229.0,1224.0,1235.0,1239.0,1232.0,1231.0,0.0,0.0,0.0,0.0,0.0,0.0,0.0,0.0,0.0,0.0
331520103,8,1231.0,1223.0,1239.0,1235.0,1231.0,1227.0,0.0,0.0,0.0,0.0,0.0,0.0,0.0,0.0,0.0,0.0
331626774,8,1225.0,1219.0,1230.0,1236.0,1228.0,1228.0,0.0,0.0,0.0,0.0,0.0,0.0,0.0,0.0,0.0,0.0
331738135,8,1223.0,1220.0,1229.0,1232.0,1228.0,1225.0,0.0,0.0,0.0,0.0,0.0,0.0,0.0,0.0,0.0,0.0
331824968,8,1229.0,1226.0,1235.0,1229.0,1231.0,1224.0,0.0,0.0,0.0,0.0,0.0,0.0,0.0,0.0,0.0,0.0
331936867,8,1227.0,1225.0,1230.0,1234.0,1230.0,1229.0,0.0,0.0,0.0,0.0,0.0,0.0,0.0,0.0,0.0,0.0
332021186,8,1238.0,1231.0,1240.0,1242.0,1235.0,1238.0,0.0,0.0,0.0,0.0,0.0,0.0,0.0,0.0,0.0,0.0
332128273,8,1236.0,1235.0,1239.0,1237.0,1238.0,1235.0,0.0,0.0,0.0,0.0,0.0,0.0,0.0,0.0,0.0,0.0
332238421,8,1233.0,1234.0,1236.0,1234.0,1237.0,1231.0,0.0,0.0,0.0,0.0,0.0,0.0,0.0,0.0,0.0,0.0
332325817,8,1230.0,1226.0,1232.0,1237.0,1231.0,1233.0,0.0,0.0,0.0,0.0,0.0,0.0,0.0,0.0,0.0,0.0
332436189,8,1225.0,1218.0,1230.0,1229.0,1224.0,1223.0,0.0,0.0,0.0,0.0,0.0,0.0,0.0,0.0,0.0,0.0
332523774,8,1227.0,1220.0,1232.0,1233.0,1227.0,1226.0,0.0,0.0,0.0,0.0,0.0,0.0,0.0,0.0,0.0,0.0
332630305,8,1228.0,1221.0,1233.0,1236.0,1228.0,1229.0,0.0,0.0,0.0,0.0,0.0,0.0,0.0,0.0,0.0,0.0
332735339,8,1218.0,1215.0,1225.0,1225.0,1223.0,1217.0,0.0,0.0,0.0,0.0,0.0,0.0,0.0,0.0,0.0,0.0
332821424,8,1226.0,1221.0,1233.0,1235.0,1230.0,1226.0,0.0,0.0,0.0,0.0,0.0,0.0,0.0,0.0,0.0,0.0
332931125,8,1226.0,1220.0,1233.0,1237.0,1229.0,1227.0,0.0,0.0,0.0,0.0,0.0,0.0,0.0,0.0,0.0,0.0
333036983,8,1228.0,1222.0,1235.0,1236.0,1231.0,1227.0,0.0,0.0,0.0,0.0,0.0,0.0,0.0,0.0,0.0,0.0
333122912,8,1227.0,1222.0,1234.0,1241.0,1232.0,1231.0,0.0,0.0,0.0,0.0,0.0,0.0,0.0,0.0,0.0,0.0
333230545,8,1227.0,1223.0,1237.0,1240.0,1234.0,1229.0,0.0,0.0,0.0,0.0,0.0,0.0,0.0,0.0,0.0,0.0
333316322,8,1227.0,1218.0,1236.0,1241.0,1231.0,1229.0,0.0,0.0,0.0,0.0,0.0,0.0,0.0,0.0,0.0,0.0
333424631,8,1223.0,1217.0,1233.0,1237.0,1230.0,1225.0,0.0,0.0,0.0,0.0,0.0,0.0,0.0,0.0,0.0,0.0
333530095,8,1222.0,1212.0,1230.0,1237.0,1224.0,1225.0,0.0,0.0,0.0,0.0,0.0,0.0,0.0,0.0,0.0,0.0
333617551,8,1219.0,1215.0,1228.0,1233.0,1226.0,1222.0,0.0,0.0,0.0,0.0,0.0,0.0,0.0,0.0,0.0,0.0
333727022,8,1219.0,1210.0,1231.0,1237.0,1225.0,1221.0,0.0,0.0,0.0,0.0,0.0,0.0,0.0,0.0,0.0,0.0
333836885,8,1222.0,1211.0,1238.0,1240.0,1230.0,1221.0,0.0,0.0,0.0,0.0,0.0,0.0,0.0,0.0,0.0,0.0
333923922,8,1210.0,1193.0,1242.0,1259.0,1233.0,1219.0,0.0,0.0,0.0,0.0,0.0,0.0,0.0,0.0,0.0,0.0
334010568,8,1213.0,1196.0,1242.0,1253.0,1231.0,1217.0,0.0,0.0,0.0,0.0,0.0,0.0,0.0,0.0,0.0,0.0
334119603,8,1217.0,1207.0,1237.0,1244.0,1231.0,1220.0,0.0,0.0,0.0,0.0,0.0,0.0,0.0,0.0,0.0,0.0
334227879,8,1213.0,1198.0,1237.0,1249.0,1228.0,1218.0,0.0,0.0,0.0,0.0,0.0,0.0,0.0,0.0,0.0,0.0
334338050,8,1226.0,1220.0,1242.0,1252.0,1240.0,1232.0,0.0,0.0,0.0,0.0,0.0,0.0,0.0,0.0,0.0,0.0
334425522,8,1228.0,1217.0,1240.0,1243.0,1233.0,1227.0,0.0,0.0,0.0,0.0,0.0,0.0,0.0,0.0,0.0,0.0
334533953,8,1232.0,1230.0,1238.0,1240.0,1236.0,1233.0,0.0,0.0,0.0,0.0,0.0,0.0,0.0,0.0,0.0,0.0
334638761,8,1235.0,1235.0,1236.0,1229.0,1234.0,1230.0,0.0,0.0,0.0,0.0,0.0,0.0,0.0,0.0,0.0,0.0
334725810,8,1231.0,1228.0,1224.0,1223.0,1221.0,1229.0,0.0,0.0,0.0,0.0,0.0,0.0,0.0,0.0,0.0,0.0
334829370,8,1228.0,1229.0,1219.0,1214.0,1219.0,1224.0,0.0,0.0,0.0,0.0,0.0,0.0,0.0,0.0,0.0,0.0
334916200,8,1228.0,1233.0,1221.0,1215.0,1223.0,1225.0,0.0,0.0,0.0,0.0,0.0,0.0,0.0,0.0,0.0,0.0
335026831,8,1225.0,1226.0,1219.0,1213.0,1218.0,1221.0,0.0,0.0,0.0,0.0,0.0,0.0,0.0,0.0,0.0,0.0
335133817,8,1220.0,1223.0,1216.0,1209.0,1217.0,1216.0,0.0,0.0,0.0,0.0,0.0,0.0,0.0,0.0,0.0,0.0
335218846,8,1230.0,1231.0,1227.0,1220.0,1226.0,1225.0,0.0,0.0,0.0,0.0,0.0,0.0,0.0,0.0,0.0,0.0
335328189,8,1233.0,1229.0,1231.0,1228.0,1227.0,1230.0,0.0,0.0,0.0,0.0,0.0,0.0,0.0,0.0,0.0,0.0
335433610,8,1234.0,1233.0,1234.0,1236.0,1234.0,1235.0,0.0,0.0,0.0,0.0,0.0,0.0,0.0,0.0,0.0,0.0
335519848,8,1247.0,1237.0,1248.0,1247.0,1240.0,1244.0,0.0,0.0,0.0,0.0,0.0,0.0,0.0,0.0,0.0,0.0
335629405,8,1244.0,1241.0,1248.0,1248.0,1246.0,1244.0,0.0,0.0,0.0,0.0,0.0,0.0,0.0,0.0,0.0,0.0
335738141,8,1236.0,1233.0,1240.0,1240.0,1238.0,1235.0,0.0,0.0,0.0,0.0,0.0,0.0,0.0,0.0,0.0,0.0
335826751,8,1234.0,1236.0,1228.0,1223.0,1228.0,1230.0,0.0,0.0,0.0,0.0,0.0,0.0,0.0,0.0,0.0,0.0
335933991,8,1225.0,1223.0,1232.0,1233.0,1230.0,1226.0,0.0,0.0,0.0,0.0,0.0,0.0,0.0,0.0,0.0,0.0
336021980,8,1215.0,1212.0,1222.0,1227.0,1221.0,1218.0,0.0,0.0,0.0,0.0,0.0,0.0,0.0,0.0,0.0,0.0
336132152,8,1211.0,1204.0,1219.0,1223.0,1214.0,1213.0,0.0,0.0,0.0,0.0,0.0,0.0,0.0,0.0,0.0,0.0
336238658,8,1211.0,1206.0,1220.0,1221.0,1216.0,1210.0,0.0,0.0,0.0,0.0,0.0,0.0,0.0,0.0,0.0,0.0
336327497,8,1220.0,1216.0,1229.0,1231.0,1226.0,1221.0,0.0,0.0,0.0,0.0,0.0,0.0,0.0,0.0,0.0,0.0
336431427,8,1215.0,1213.0,1223.0,1227.0,1222.0,1218.0,0.0,0.0,0.0,0.0,0.0,0.0,0.0,0.0,0.0,0.0
336519719,8,1222.0,1212.0,1228.0,1231.0,1221.0,1222.0,0.0,0.0,0.0,0.0,0.0,0.0,0.0,0.0,0.0,0.0
336626820,8,1218.0,1214.0,1224.0,1227.0,1222.0,1219.0,0.0,0.0,0.0,0.0,0.0,0.0,0.0,0.0,0.0,0.0
336732963,8,1226.0,1218.0,1231.0,1232.0,1225.0,1225.0,0.0,0.0,0.0,0.0,0.0,0.0,0.0,0.0,0.0,0.0
336818583,8,1224.0,1218.0,1229.0,1227.0,1224.0,1221.0,0.0,0.0,0.0,0.0,0.0,0.0,0.0,0.0,0.0,0.0
336926861,8,1219.0,1222.0,1225.0,1227.0,1228.0,1221.0,0.0,0.0,0.0,0.0,0.0,0.0,0.0,0.0,0.0,0.0
337036732,8,1224.0,1227.0,1229.0,1231.0,1232.0,1226.0,0.0,0.0,0.0,0.0,0.0,0.0,0.0,0.0,0.0,0.0
337125745,8,1230.0,1226.0,1235.0,1235.0,1232.0,1230.0,0.0,0.0,0.0,0.0,0.0,0.0,0.0,0.0,0.0,0.0
337231034,8,1228.0,1230.0,1234.0,1240.0,1237.0,1232.0,0.0,0.0,0.0,0.0,0.0,0.0,0.0,0.0,0.0,0.0
337317193,8,1235.0,1228.0,1242.0,1242.0,1236.0,1233.0,0.0,0.0,0.0,0.0,0.0,0.0,0.0,0.0,0.0,0.0
337425988,8,1235.0,1236.0,1242.0,1254.0,1246.0,1244.0,0.0,0.0,0.0,0.0,0.0,0.0,0.0,0.0,0.0,0.0
337536027,8,1242.0,1231.0,1251.0,1251.0,1242.0,1239.0,0.0,0.0,0.0,0.0,0.0,0.0,0.0,0.0,0.0,0.0
337625444,8,1237.0,1224.0,1245.0,1250.0,1237.0,1237.0,0.0,0.0,0.0,0.0,0.0,0.0,0.0,0.0,0.0,0.0
337734079,8,1236.0,1227.0,1246.0,1247.0,1239.0,1235.0,0.0,0.0,0.0,0.0,0.0,0.0,0.0,0.0,0.0,0.0
337819750,8,1228.0,1225.0,1239.0,1240.0,1236.0,1228.0,0.0,0.0,0.0,0.0,0.0,0.0,0.0,0.0,0.0,0.0
337927072,8,1229.0,1216.0,1237.0,1242.0,1229.0,1230.0,0.0,0.0,0.0,0.0,0.0,0.0,0.0,0.0,0.0,0.0
338036129,8,1227.0,1221.0,1236.0,1239.0,1232.0,1227.0,0.0,0.0,0.0,0.0,0.0,0.0,0.0,0.0,0.0,0.0
338124764,8,1220.0,1215.0,1230.0,1230.0,1227.0,1218.0,0.0,0.0,0.0,0.0,0.0,0.0,0.0,0.0,0.0,0.0
338234746,8,1220.0,1210.0,1229.0,1233.0,1223.0,1220.0,0.0,0.0,0.0,0.0,0.0,0.0,0.0,0.0,0.0,0.0
338320081,8,1222.0,1216.0,1232.0,1237.0,1229.0,1224.0,0.0,0.0,0.0,0.0,0.0,0.0,0.0,0.0,0.0,0.0
338428684,8,1226.0,1219.0,1236.0,1239.0,1231.0,1227.0,0.0,0.0,0.0,0.0,0.0,0.0,0.0,0.0,0.0,0.0
338538234,8,1224.0,1218.0,1233.0,1236.0,1229.0,1225.0,0.0,0.0,0.0,0.0,0.0,0.0,0.0,0.0,0.0,0.0
338625443,8,1228.0,1220.0,1236.0,1237.0,1231.0,1226.0,0.0,0.0,0.0,0.0,0.0,0.0,0.0,0.0,0.0,0.0
338734096,8,1232.0,1225.0,1240.0,1240.0,1235.0,1230.0,0.0,0.0,0.0,0.0,0.0,0.0,0.0,0.0,0.0,0.0
338820943,8,1231.0,1224.0,1239.0,1240.0,1233.0,1230.0,0.0,0.0,0.0,0.0,0.0,0.0,0.0,0.0,0.0,0.0
338928604,8,1223.0,1220.0,1231.0,1234.0,1229.0,1225.0,0.0,0.0,0.0,0.0,0.0,0.0,0.0,0.0,0.0,0.0
339036975,8,1225.0,1223.0,1232.0,1235.0,1232.0,1226.0,0.0,0.0,0.0,0.0,0.0,0.0,0.0,0.0,0.0,0.0
339129595,8,1229.0,1221.0,1235.0,1238.0,1230.0,1229.0,0.0,0.0,0.0,0.0,0.0,0.0,0.0,0.0,0.0,0.0
339233415,8,1240.0,1234.0,1245.0,1245.0,1241.0,1238.0,0.0,0.0,0.0,0.0,0.0,0.0,0.0,0.0,0.0,0.0
339319615,8,1237.0,1240.0,1245.0,1243.0,1247.0,1235.0,0.0,0.0,0.0,0.0,0.0,0.0,0.0,0.0,0.0,0.0
339428029,8,1237.0,1229.0,1245.0,1245.0,1239.0,1236.0,0.0,0.0,0.0,0.0,0.0,0.0,0.0,0.0,0.0,0.0
339537410,8,1232.0,1227.0,1241.0,1244.0,1237.0,1233.0,0.0,0.0,0.0,0.0,0.0,0.0,0.0,0.0,0.0,0.0
339622988,8,1228.0,1223.0,1235.0,1240.0,1233.0,1230.0,0.0,0.0,0.0,0.0,0.0,0.0,0.0,0.0,0.0,0.0
339729536,8,1213.0,1208.0,1220.0,1221.0,1216.0,1213.0,0.0,0.0,0.0,0.0,0.0,0.0,0.0,0.0,0.0,0.0
339815867,8,1220.0,1210.0,1226.0,1225.0,1218.0,1217.0,0.0,0.0,0.0,0.0,0.0,0.0,0.0,0.0,0.0,0.0
339921629,8,1216.0,1212.0,1221.0,1224.0,1219.0,1217.0,0.0,0.0,0.0,0.0,0.0,0.0,0.0,0.0,0.0,0.0
340031348,8,1217.0,1216.0,1222.0,1219.0,1221.0,1214.0,0.0,0.0,0.0,0.0,0.0,0.0,0.0,0.0,0.0,0.0
340117334,8,1220.0,1222.0,1228.0,1221.0,1227.0,1215.0,0.0,0.0,0.0,0.0,0.0,0.0,0.0,0.0,0.0,0.0
340226441,8,1223.0,1227.0,1232.0,1230.0,1235.0,1222.0,0.0,0.0,0.0,0.0,0.0,0.0,0.0,0.0,0.0,0.0
340336776,8,1240.0,1229.0,1245.0,1240.0,1236.0,1234.0,0.0,0.0,0.0,0.0,0.0,0.0,0.0,0.0,0.0,0.0
340421009,8,1237.0,1235.0,1242.0,1244.0,1241.0,1238.0,0.0,0.0,0.0,0.0,0.0,0.0,0.0,0.0,0.0,0.0
340532022,8,1245.0,1242.0,1252.0,1257.0,1250.0,1249.0,0.0,0.0,0.0,0.0,0.0,0.0,0.0,0.0,0.0,0.0
340617594,8,1246.0,1241.0,1254.0,1257.0,1251.0,1247.0,0.0,0.0,0.0,0.0,0.0,0.0,0.0,0.0,0.0,0.0
340727404,8,1238.0,1230.0,1247.0,1255.0,1243.0,1242.0,0.0,0.0,0.0,0.0,0.0,0.0,0.0,0.0,0.0,0.0
340835859,8,1232.0,1225.0,1244.0,1244.0,1239.0,1230.0,0.0,0.0,0.0,0.0,0.0,0.0,0.0,0.0,0.0,0.0
340922229,8,1228.0,1220.0,1240.0,1241.0,1234.0,1226.0,0.0,0.0,0.0,0.0,0.0,0.0,0.0,0.0,0.0,0.0
341032032,8,1223.0,1211.0,1234.0,1235.0,1226.0,1221.0,0.0,0.0,0.0,0.0,0.0,0.0,0.0,0.0,0.0,0.0
341119686,8,1221.0,1215.0,1233.0,1239.0,1230.0,1224.0,0.0,0.0,0.0,0.0,0.0,0.0,0.0,0.0,0.0,0.0
341225771,8,1218.0,1204.0,1228.0,1230.0,1218.0,1216.0,0.0,0.0,0.0,0.0,0.0,0.0,0.0,0.0,0.0,0.0
341336692,8,1213.0,1210.0,1223.0,1229.0,1222.0,1217.0,0.0,0.0,0.0,0.0,0.0,0.0,0.0,0.0,0.0,0.0
341425728,8,1216.0,1214.0,1226.0,1228.0,1225.0,1217.0,0.0,0.0,0.0,0.0,0.0,0.0,0.0,0.0,0.0,0.0
341529456,8,1209.0,1204.0,1217.0,1221.0,1214.0,1211.0,0.0,0.0,0.0,0.0,0.0,0.0,0.0,0.0,0.0,0.0
341637753,8,1212.0,1208.0,1218.0,1223.0,1216.0,1214.0,0.0,0.0,0.0,0.0,0.0,0.0,0.0,0.0,0.0,0.0
341724408,8,1227.0,1221.0,1233.0,1235.0,1229.0,1227.0,0.0,0.0,0.0,0.0,0.0,0.0,0.0,0.0,0.0,0.0
341832290,8,1224.0,1224.0,1230.0,1233.0,1231.0,1227.0,0.0,0.0,0.0,0.0,0.0,0.0,0.0,0.0,0.0,0.0
341920025,8,1229.0,1223.0,1233.0,1231.0,1228.0,1225.0,0.0,0.0,0.0,0.0,0.0,0.0,0.0,0.0,0.0,0.0
342025684,8,1225.0,1222.0,1229.0,1231.0,1228.0,1226.0,0.0,0.0,0.0,0.0,0.0,0.0,0.0,0.0,0.0,0.0
342134421,8,1233.0,1228.0,1237.0,1239.0,1234.0,1234.0,0.0,0.0,0.0,0.0,0.0,0.0,0.0,0.0,0.0,0.0
342219194,8,1233.0,1229.0,1237.0,1240.0,1234.0,1234.0,0.0,0.0,0.0,0.0,0.0,0.0,0.0,0.0,0.0,0.0
342325323,8,1233.0,1229.0,1238.0,1238.0,1235.0,1233.0,0.0,0.0,0.0,0.0,0.0,0.0,0.0,0.0,0.0,0.0
342435159,8,1226.0,1224.0,1230.0,1234.0,1230.0,1228.0,0.0,0.0,0.0,0.0,0.0,0.0,0.0,0.0,0.0,0.0
342523935,8,1227.0,1223.0,1233.0,1232.0,1229.0,1225.0,0.0,0.0,0.0,0.0,0.0,0.0,0.0,0.0,0.0,0.0
342633833,8,1232.0,1231.0,1238.0,1238.0,1238.0,1232.0,0.0,0.0,0.0,0.0,0.0,0.0,0.0,0.0,0.0,0.0
342723232,8,1225.0,1224.0,1231.0,1233.0,1230.0,1226.0,0.0,0.0,0.0,0.0,0.0,0.0,0.0,0.0,0.0,0.0
342831060,8,1230.0,1224.0,1236.0,1234.0,1231.0,1227.0,0.0,0.0,0.0,0.0,0.0,0.0,0.0,0.0,0.0,0.0
342936548,8,1226.0,1220.0,1231.0,1233.0,1227.0,1226.0,0.0,0.0,0.0,0.0,0.0,0.0,0.0,0.0,0.0,0.0
343022260,8,1226.0,1222.0,1232.0,1228.0,1228.0,1222.0,0.0,0.0,0.0,0.0,0.0,0.0,0.0,0.0,0.0,0.0
343129947,8,1222.0,1221.0,1226.0,1227.0,1225.0,1222.0,0.0,0.0,0.0,0.0,0.0,0.0,0.0,0.0,0.0,0.0
343217845,8,1230.0,1226.0,1232.0,1233.0,1230.0,1229.0,0.0,0.0,0.0,0.0,0.0,0.0,0.0,0.0,0.0,0.0
343327829,8,1230.0,1228.0,1233.0,1230.0,1231.0,1227.0,0.0,0.0,0.0,0.0,0.0,0.0,0.0,0.0,0.0,0.0
343437023,8,1228.0,1227.0,1231.0,1234.0,1231.0,1230.0,0.0,0.0,0.0,0.0,0.0,0.0,0.0,0.0,0.0,0.0
343520335,8,1232.0,1227.0,1235.0,1236.0,1231.0,1231.0,0.0,0.0,0.0,0.0,0.0,0.0,0.0,0.0,0.0,0.0
343631275,8,1233.0,1228.0,1237.0,1232.0,1233.0,1228.0,0.0,0.0,0.0,0.0,0.0,0.0,0.0,0.0,0.0,0.0
343719159,8,1232.0,1235.0,1238.0,1234.0,1239.0,1230.0,0.0,0.0,0.0,0.0,0.0,0.0,0.0,0.0,0.0,0.0
343825141,8,1236.0,1229.0,1240.0,1240.0,1235.0,1235.0,0.0,0.0,0.0,0.0,0.0,0.0,0.0,0.0,0.0,0.0
343933075,8,1233.0,1232.0,1238.0,1240.0,1238.0,1234.0,0.0,0.0,0.0,0.0,0.0,0.0,0.0,0.0,0.0,0.0
344020998,8,1221.0,1215.0,1223.0,1234.0,1222.0,1228.0,0.0,0.0,0.0,0.0,0.0,0.0,0.0,0.0,0.0,0.0
344131524,8,1216.0,1209.0,1222.0,1217.0,1215.0,1211.0,0.0,0.0,0.0,0.0,0.0,0.0,0.0,0.0,0.0,0.0
344227843,8,1223.0,1219.0,1228.0,1230.0,1226.0,1224.0,0.0,0.0,0.0,0.0,0.0,0.0,0.0,0.0,0.0,0.0
344328291,8,1225.0,1218.0,1229.0,1229.0,1224.0,1224.0,0.0,0.0,0.0,0.0,0.0,0.0,0.0,0.0,0.0,0.0
344436306,8,1232.0,1221.0,1234.0,1226.0,1224.0,1223.0,0.0,0.0,0.0,0.0,0.0,0.0,0.0,0.0,0.0,0.0
344521451,8,1231.0,1219.0,1232.0,1230.0,1223.0,1227.0,0.0,0.0,0.0,0.0,0.0,0.0,0.0,0.0,0.0,0.0
344632070,8,1240.0,1230.0,1244.0,1230.0,1233.0,1227.0,0.0,0.0,0.0,0.0,0.0,0.0,0.0,0.0,0.0,0.0
344720035,8,1235.0,1239.0,1238.0,1245.0,1243.0,1241.0,0.0,0.0,0.0,0.0,0.0,0.0,0.0,0.0,0.0,0.0
344828318,8,1237.0,1232.0,1241.0,1239.0,1236.0,1235.0,0.0,0.0,0.0,0.0,0.0,0.0,0.0,0.0,0.0,0.0
344935948,8,1235.0,1237.0,1238.0,1242.0,1240.0,1238.0,0.0,0.0,0.0,0.0,0.0,0.0,0.0,0.0,0.0,0.0
345022576,8,1231.0,1227.0,1231.0,1236.0,1229.0,1234.0,0.0,0.0,0.0,0.0,0.0,0.0,0.0,0.0,0.0,0.0
345130620,8,1224.0,1225.0,1225.0,1222.0,1225.0,1222.0,0.0,0.0,0.0,0.0,0.0,0.0,0.0,0.0,0.0,0.0
345217812,8,1225.0,1224.0,1226.0,1222.0,1224.0,1222.0,0.0,0.0,0.0,0.0,0.0,0.0,0.0,0.0,0.0,0.0
345329189,8,1225.0,1227.0,1226.0,1219.0,1226.0,1220.0,0.0,0.0,0.0,0.0,0.0,0.0,0.0,0.0,0.0,0.0
345436247,8,1230.0,1229.0,1229.0,1224.0,1228.0,1226.0,0.0,0.0,0.0,0.0,0.0,0.0,0.0,0.0,0.0,0.0
345524664,8,1230.0,1230.0,1229.0,1224.0,1228.0,1226.0,0.0,0.0,0.0,0.0,0.0,0.0,0.0,0.0,0.0,0.0
345632160,8,1224.0,1221.0,1223.0,1223.0,1221.0,1222.0,0.0,0.0,0.0,0.0,0.0,0.0,0.0,0.0,0.0,0.0
345737406,8,1220.0,1217.0,1219.0,1217.0,1216.0,1218.0,0.0,0.0,0.0,0.0,0.0,0.0,0.0,0.0,0.0,0.0
345825423,8,1224.0,1226.0,1223.0,1214.0,1222.0,1218.0,0.0,0.0,0.0,0.0,0.0,0.0,0.0,0.0,0.0,0.0
345933815,8,1230.0,1238.0,1228.0,1219.0,1232.0,1225.0,0.0,0.0,0.0,0.0,0.0,0.0,0.0,0.0,0.0,0.0
346020174,8,1231.0,1233.0,1229.0,1223.0,1228.0,1228.0,0.0,0.0,0.0,0.0,0.0,0.0,0.0,0.0,0.0,0.0
346132125,8,1233.0,1233.0,1230.0,1226.0,1229.0,1231.0,0.0,0.0,0.0,0.0,0.0,0.0,0.0,0.0,0.0,0.0
346233726,8,1229.0,1228.0,1226.0,1216.0,1223.0,1221.0,0.0,0.0,0.0,0.0,0.0,0.0,0.0,0.0,0.0,0.0
346320531,8,1230.0,1233.0,1228.0,1229.0,1230.0,1232.0,0.0,0.0,0.0,0.0,0.0,0.0,0.0,0.0,0.0,0.0
346427923,8,1243.0,1242.0,1243.0,1234.0,1240.0,1236.0,0.0,0.0,0.0,0.0,0.0,0.0,0.0,0.0,0.0,0.0
346536359,8,1243.0,1242.0,1242.0,1245.0,1243.0,1245.0,0.0,0.0,0.0,0.0,0.0,0.0,0.0,0.0,0.0,0.0
346623139,8,1243.0,1243.0,1244.0,1246.0,1245.0,1244.0,0.0,0.0,0.0,0.0,0.0,0.0,0.0,0.0,0.0,0.0
346733600,8,1234.0,1231.0,1239.0,1228.0,1235.0,1225.0,0.0,0.0,0.0,0.0,0.0,0.0,0.0,0.0,0.0,0.0
346817899,8,1227.0,1224.0,1231.0,1233.0,1229.0,1228.0,0.0,0.0,0.0,0.0,0.0,0.0,0.0,0.0,0.0,0.0
346927741,8,1228.0,1221.0,1232.0,1232.0,1227.0,1226.0,0.0,0.0,0.0,0.0,0.0,0.0,0.0,0.0,0.0,0.0
347032325,8,1228.0,1224.0,1232.0,1232.0,1229.0,1227.0,0.0,0.0,0.0,0.0,0.0,0.0,0.0,0.0,0.0,0.0
347118721,8,1226.0,1223.0,1231.0,1232.0,1229.0,1226.0,0.0,0.0,0.0,0.0,0.0,0.0,0.0,0.0,0.0,0.0
347226119,8,1218.0,1212.0,1223.0,1221.0,1218.0,1215.0,0.0,0.0,0.0,0.0,0.0,0.0,0.0,0.0,0.0,0.0
347332127,8,1227.0,1226.0,1233.0,1234.0,1232.0,1228.0,0.0,0.0,0.0,0.0,0.0,0.0,0.0,0.0,0.0,0.0
347421193,8,1230.0,1225.0,1238.0,1235.0,1233.0,1227.0,0.0,0.0,0.0,0.0,0.0,0.0,0.0,0.0,0.0,0.0
347530926,8,1230.0,1225.0,1238.0,1248.0,1236.0,1237.0,0.0,0.0,0.0,0.0,0.0,0.0,0.0,0.0,0.0,0.0
347637247,8,1231.0,1223.0,1241.0,1246.0,1237.0,1233.0,0.0,0.0,0.0,0.0,0.0,0.0,0.0,0.0,0.0,0.0
347722839,8,1229.0,1221.0,1240.0,1245.0,1235.0,1231.0,0.0,0.0,0.0,0.0,0.0,0.0,0.0,0.0,0.0,0.0
347829418,8,1223.0,1218.0,1237.0,1240.0,1234.0,1224.0,0.0,0.0,0.0,0.0,0.0,0.0,0.0,0.0,0.0,0.0
347935883,8,1230.0,1222.0,1244.0,1249.0,1238.0,1232.0,0.0,0.0,0.0,0.0,0.0,0.0,0.0,0.0,0.0,0.0
348020194,8,1231.0,1224.0,1245.0,1250.0,1241.0,1234.0,0.0,0.0,0.0,0.0,0.0,0.0,0.0,0.0,0.0,0.0
348127379,8,1217.0,1207.0,1230.0,1234.0,1224.0,1218.0,0.0,0.0,0.0,0.0,0.0,0.0,0.0,0.0,0.0,0.0
348236099,8,1210.0,1197.0,1222.0,1228.0,1214.0,1211.0,0.0,0.0,0.0,0.0,0.0,0.0,0.0,0.0,0.0,0.0
348323154,8,1208.0,1203.0,1221.0,1225.0,1219.0,1209.0,0.0,0.0,0.0,0.0,0.0,0.0,0.0,0.0,0.0,0.0
348431813,8,1218.0,1214.0,1231.0,1232.0,1227.0,1218.0,0.0,0.0,0.0,0.0,0.0,0.0,0.0,0.0,0.0,0.0
348518468,8,1222.0,1217.0,1232.0,1237.0,1229.0,1225.0,0.0,0.0,0.0,0.0,0.0,0.0,0.0,0.0,0.0,0.0
348624932,8,1227.0,1222.0,1235.0,1239.0,1233.0,1229.0,0.0,0.0,0.0,0.0,0.0,0.0,0.0,0.0,0.0,0.0
348735634,8,1228.0,1223.0,1235.0,1237.0,1232.0,1229.0,0.0,0.0,0.0,0.0,0.0,0.0,0.0,0.0,0.0,0.0
348819384,8,1233.0,1228.0,1239.0,1240.0,1235.0,1233.0,0.0,0.0,0.0,0.0,0.0,0.0,0.0,0.0,0.0,0.0
348929304,8,1231.0,1228.0,1235.0,1238.0,1233.0,1233.0,0.0,0.0,0.0,0.0,0.0,0.0,0.0,0.0,0.0,0.0
349034901,8,1218.0,1215.0,1221.0,1220.0,1218.0,1216.0,0.0,0.0,0.0,0.0,0.0,0.0,0.0,0.0,0.0,0.0
349120520,8,1224.0,1223.0,1227.0,1226.0,1226.0,1223.0,0.0,0.0,0.0,0.0,0.0,0.0,0.0,0.0,0.0,0.0
349230969,8,1221.0,1215.0,1227.0,1231.0,1224.0,1222.0,0.0,0.0,0.0,0.0,0.0,0.0,0.0,0.0,0.0,0.0
349335673,8,1224.0,1220.0,1228.0,1228.0,1225.0,1223.0,0.0,0.0,0.0,0.0,0.0,0.0,0.0,0.0,0.0,0.0
349422021,8,1227.0,1233.0,1229.0,1229.0,1233.0,1229.0,0.0,0.0,0.0,0.0,0.0,0.0,0.0,0.0,0.0,0.0
349525506,8,1236.0,1234.0,1238.0,1234.0,1235.0,1233.0,0.0,0.0,0.0,0.0,0.0,0.0,0.0,0.0,0.0,0.0
349615371,8,1240.0,1238.0,1241.0,1242.0,1240.0,1240.0,0.0,0.0,0.0,0.0,0.0,0.0,0.0,0.0,0.0,0.0
349727164,8,1236.0,1233.0,1238.0,1236.0,1235.0,1234.0,0.0,0.0,0.0,0.0,0.0,0.0,0.0,0.0,0.0,0.0
349833698,8,1233.0,1230.0,1234.0,1234.0,1233.0,1231.0,0.0,0.0,0.0,0.0,0.0,0.0,0.0,0.0,0.0,0.0
349919899,8,1232.0,1226.0,1234.0,1232.0,1229.0,1229.0,0.0,0.0,0.0,0.0,0.0,0.0,0.0,0.0,0.0,0.0
350028614,8,1235.0,1234.0,1237.0,1239.0,1237.0,1236.0,0.0,0.0,0.0,0.0,0.0,0.0,0.0,0.0,0.0,0.0
350115703,8,1240.0,1235.0,1243.0,1242.0,1239.0,1238.0,0.0,0.0,0.0,0.0,0.0,0.0,0.0,0.0,0.0,0.0
350219709,8,1233.0,1228.0,1235.0,1237.0,1232.0,1233.0,0.0,0.0,0.0,0.0,0.0,0.0,0.0,0.0,0.0,0.0
350329262,8,1216.0,1210.0,1219.0,1218.0,1215.0,1214.0,0.0,0.0,0.0,0.0,0.0,0.0,0.0,0.0,0.0,0.0
350417885,8,1217.0,1215.0,1222.0,1220.0,1220.0,1216.0,0.0,0.0,0.0,0.0,0.0,0.0,0.0,0.0,0.0,0.0
350527788,8,1226.0,1221.0,1231.0,1227.0,1226.0,1222.0,0.0,0.0,0.0,0.0,0.0,0.0,0.0,0.0,0.0,0.0
350633858,8,1225.0,1221.0,1227.0,1238.0,1226.0,1233.0,0.0,0.0,0.0,0.0,0.0,0.0,0.0,0.0,0.0,0.0
350720934,8,1229.0,1226.0,1230.0,1236.0,1229.0,1233.0,0.0,0.0,0.0,0.0,0.0,0.0,0.0,0.0,0.0,0.0
350827303,8,1229.0,1227.0,1230.0,1228.0,1228.0,1227.0,0.0,0.0,0.0,0.0,0.0,0.0,0.0,0.0,0.0,0.0
350935927,8,1217.0,1214.0,1218.0,1215.0,1215.0,1214.0,0.0,0.0,0.0,0.0,0.0,0.0,0.0,0.0,0.0,0.0
351023320,8,1232.0,1232.0,1233.0,1233.0,1233.0,1232.0,0.0,0.0,0.0,0.0,0.0,0.0,0.0,0.0,0.0,0.0
351133159,8,1235.0,1233.0,1235.0,1231.0,1233.0,1232.0,0.0,0.0,0.0,0.0,0.0,0.0,0.0,0.0,0.0,0.0
351220974,8,1240.0,1241.0,1240.0,1237.0,1240.0,1239.0,0.0,0.0,0.0,0.0,0.0,0.0,0.0,0.0,0.0,0.0
351334982,8,1240.0,1240.0,1240.0,1239.0,1240.0,1239.0,0.0,0.0,0.0,0.0,0.0,0.0,0.0,0.0,0.0,0.0
351437037,8,1240.0,1236.0,1241.0,1242.0,1239.0,1239.0,0.0,0.0,0.0,0.0,0.0,0.0,0.0,0.0,0.0,0.0
351522610,8,1242.0,1237.0,1244.0,1244.0,1240.0,1240.0,0.0,0.0,0.0,0.0,0.0,0.0,0.0,0.0,0.0,0.0
351629183,8,1239.0,1239.0,1241.0,1240.0,1240.0,1238.0,0.0,0.0,0.0,0.0,0.0,0.0,0.0,0.0,0.0,0.0
351715299,8,1243.0,1243.0,1238.0,1233.0,1236.0,1239.0,0.0,0.0,0.0,0.0,0.0,0.0,0.0,0.0,0.0,0.0
351823730,8,1235.0,1241.0,1225.0,1218.0,1228.0,1231.0,0.0,0.0,0.0,0.0,0.0,0.0,0.0,0.0,0.0,0.0
351932099,8,1221.0,1219.0,1217.0,1208.0,1213.0,1213.0,0.0,0.0,0.0,0.0,0.0,0.0,0.0,0.0,0.0,0.0
352019085,8,1226.0,1229.0,1220.0,1219.0,1223.0,1226.0,0.0,0.0,0.0,0.0,0.0,0.0,0.0,0.0,0.0,0.0
352130517,8,1219.0,1217.0,1230.0,1231.0,1229.0,1219.0,0.0,0.0,0.0,0.0,0.0,0.0,0.0,0.0,0.0,0.0
352234922,8,1213.0,1208.0,1230.0,1233.0,1227.0,1214.0,0.0,0.0,0.0,0.0,0.0,0.0,0.0,0.0,0.0,0.0
352320318,8,1213.0,1203.0,1228.0,1234.0,1222.0,1215.0,0.0,0.0,0.0,0.0,0.0,0.0,0.0,0.0,0.0,0.0
352425204,8,1214.0,1206.0,1228.0,1236.0,1224.0,1218.0,0.0,0.0,0.0,0.0,0.0,0.0,0.0,0.0,0.0,0.0
352531305,8,1217.0,1206.0,1230.0,1234.0,1222.0,1218.0,0.0,0.0,0.0,0.0,0.0,0.0,0.0,0.0,0.0,0.0
352618845,8,1214.0,1209.0,1225.0,1235.0,1224.0,1220.0,0.0,0.0,0.0,0.0,0.0,0.0,0.0,0.0,0.0,0.0
352728345,8,1221.0,1218.0,1230.0,1240.0,1230.0,1228.0,0.0,0.0,0.0,0.0,0.0,0.0,0.0,0.0,0.0,0.0
352838026,8,1224.0,1216.0,1229.0,1242.0,1226.0,1232.0,0.0,0.0,0.0,0.0,0.0,0.0,0.0,0.0,0.0,0.0
352924433,8,1227.0,1223.0,1233.0,1234.0,1231.0,1227.0,0.0,0.0,0.0,0.0,0.0,0.0,0.0,0.0,0.0,0.0
353030605,8,1229.0,1223.0,1236.0,1236.0,1231.0,1227.0,0.0,0.0,0.0,0.0,0.0,0.0,0.0,0.0,0.0,0.0
353118741,8,1235.0,1229.0,1241.0,1243.0,1237.0,1235.0,0.0,0.0,0.0,0.0,0.0,0.0,0.0,0.0,0.0,0.0
353222030,8,1242.0,1228.0,1247.0,1250.0,1237.0,1240.0,0.0,0.0,0.0,0.0,0.0,0.0,0.0,0.0,0.0,0.0
353332931,8,1246.0,1243.0,1254.0,1255.0,1252.0,1246.0,0.0,0.0,0.0,0.0,0.0,0.0,0.0,0.0,0.0,0.0
353420042,8,1235.0,1230.0,1242.0,1244.0,1239.0,1235.0,0.0,0.0,0.0,0.0,0.0,0.0,0.0,0.0,0.0,0.0
353529863,8,1226.0,1222.0,1233.0,1233.0,1229.0,1225.0,0.0,0.0,0.0,0.0,0.0,0.0,0.0,0.0,0.0,0.0
353618671,8,1225.0,1221.0,1231.0,1232.0,1228.0,1225.0,0.0,0.0,0.0,0.0,0.0,0.0,0.0,0.0,0.0,0.0
353727167,8,1224.0,1218.0,1227.0,1225.0,1222.0,1220.0,0.0,0.0,0.0,0.0,0.0,0.0,0.0,0.0,0.0,0.0
353832170,8,1224.0,1220.0,1226.0,1225.0,1223.0,1222.0,0.0,0.0,0.0,0.0,0.0,0.0,0.0,0.0,0.0,0.0
353920875,8,1231.0,1232.0,1229.0,1224.0,1228.0,1227.0,0.0,0.0,0.0,0.0,0.0,0.0,0.0,0.0,0.0,0.0
354027981,8,1233.0,1234.0,1227.0,1222.0,1226.0,1230.0,0.0,0.0,0.0,0.0,0.0,0.0,0.0,0.0,0.0,0.0
354137309,8,1232.0,1236.0,1216.0,1205.0,1217.0,1224.0,0.0,0.0,0.0,0.0,0.0,0.0,0.0,0.0,0.0,0.0
354222711,8,1231.0,1235.0,1219.0,1210.0,1220.0,1225.0,0.0,0.0,0.0,0.0,0.0,0.0,0.0,0.0,0.0,0.0
354331541,8,1246.0,1248.0,1240.0,1231.0,1239.0,1240.0,0.0,0.0,0.0,0.0,0.0,0.0,0.0,0.0,0.0,0.0
354417495,8,1236.0,1231.0,1240.0,1243.0,1237.0,1238.0,0.0,0.0,0.0,0.0,0.0,0.0,0.0,0.0,0.0,0.0
354528672,8,1240.0,1242.0,1236.0,1227.0,1235.0,1234.0,0.0,0.0,0.0,0.0,0.0,0.0,0.0,0.0,0.0,0.0
354638314,8,1243.0,1244.0,1232.0,1223.0,1230.0,1236.0,0.0,0.0,0.0,0.0,0.0,0.0,0.0,0.0,0.0,0.0
354727745,8,1239.0,1244.0,1227.0,1219.0,1229.0,1234.0,0.0,0.0,0.0,0.0,0.0,0.0,0.0,0.0,0.0,0.0
354836389,8,1234.0,1241.0,1219.0,1207.0,1221.0,1226.0,0.0,0.0,0.0,0.0,0.0,0.0,0.0,0.0,0.0,0.0
354919656,8,1231.0,1232.0,1223.0,1214.0,1221.0,1225.0,0.0,0.0,0.0,0.0,0.0,0.0,0.0,0.0,0.0,0.0
355026124,8,1230.0,1230.0,1226.0,1220.0,1224.0,1226.0,0.0,0.0,0.0,0.0,0.0,0.0,0.0,0.0,0.0,0.0
355131497,8,1222.0,1211.0,1238.0,1237.0,1229.0,1219.0,0.0,0.0,0.0,0.0,0.0,0.0,0.0,0.0,0.0,0.0
355218991,8,1217.0,1200.0,1242.0,1248.0,1231.0,1218.0,0.0,0.0,0.0,0.0,0.0,0.0,0.0,0.0,0.0,0.0
355325924,8,1214.0,1200.0,1236.0,1252.0,1230.0,1223.0,0.0,0.0,0.0,0.0,0.0,0.0,0.0,0.0,0.0,0.0
355436005,8,1220.0,1208.0,1239.0,1260.0,1235.0,1233.0,0.0,0.0,0.0,0.0,0.0,0.0,0.0,0.0,0.0,0.0
355524392,8,1225.0,1210.0,1243.0,1254.0,1234.0,1230.0,0.0,0.0,0.0,0.0,0.0,0.0,0.0,0.0,0.0,0.0
355633839,8,1226.0,1214.0,1244.0,1249.0,1236.0,1227.0,0.0,0.0,0.0,0.0,0.0,0.0,0.0,0.0,0.0,0.0
355722949,8,1223.0,1214.0,1238.0,1243.0,1232.0,1225.0,0.0,0.0,0.0,0.0,0.0,0.0,0.0,0.0,0.0,0.0
355834008,8,1226.0,1215.0,1239.0,1243.0,1232.0,1227.0,0.0,0.0,0.0,0.0,0.0,0.0,0.0,0.0,0.0,0.0
355920601,8,1235.0,1226.0,1246.0,1247.0,1239.0,1234.0,0.0,0.0,0.0,0.0,0.0,0.0,0.0,0.0,0.0,0.0
356030186,8,1230.0,1221.0,1240.0,1236.0,1232.0,1225.0,0.0,0.0,0.0,0.0,0.0,0.0,0.0,0.0,0.0,0.0
356119051,8,1223.0,1220.0,1232.0,1233.0,1230.0,1224.0,0.0,0.0,0.0,0.0,0.0,0.0,0.0,0.0,0.0,0.0
356224948,8,1230.0,1225.0,1236.0,1238.0,1233.0,1230.0,0.0,0.0,0.0,0.0,0.0,0.0,0.0,0.0,0.0,0.0
356333071,8,1237.0,1233.0,1243.0,1240.0,1239.0,1233.0,0.0,0.0,0.0,0.0,0.0,0.0,0.0,0.0,0.0,0.0
356437299,8,1224.0,1222.0,1230.0,1232.0,1229.0,1225.0,0.0,0.0,0.0,0.0,0.0,0.0,0.0,0.0,0.0,0.0
356524068,8,1223.0,1217.0,1229.0,1228.0,1225.0,1220.0,0.0,0.0,0.0,0.0,0.0,0.0,0.0,0.0,0.0,0.0
356629522,8,1223.0,1218.0,1230.0,1230.0,1225.0,1223.0,0.0,0.0,0.0,0.0,0.0,0.0,0.0,0.0,0.0,0.0
356718388,8,1226.0,1219.0,1231.0,1232.0,1226.0,1225.0,0.0,0.0,0.0,0.0,0.0,0.0,0.0,0.0,0.0,0.0
356828085,8,1227.0,1222.0,1232.0,1227.0,1228.0,1222.0,0.0,0.0,0.0,0.0,0.0,0.0,0.0,0.0,0.0,0.0
356937882,8,1222.0,1220.0,1227.0,1227.0,1225.0,1222.0,0.0,0.0,0.0,0.0,0.0,0.0,0.0,0.0,0.0,0.0
357022133,8,1219.0,1215.0,1223.0,1222.0,1220.0,1217.0,0.0,0.0,0.0,0.0,0.0,0.0,0.0,0.0,0.0,0.0
357131875,8,1226.0,1223.0,1230.0,1228.0,1228.0,1224.0,0.0,0.0,0.0,0.0,0.0,0.0,0.0,0.0,0.0,0.0
357222009,8,1232.0,1228.0,1236.0,1236.0,1233.0,1231.0,0.0,0.0,0.0,0.0,0.0,0.0,0.0,0.0,0.0,0.0
357331705,8,1236.0,1233.0,1242.0,1240.0,1239.0,1234.0,0.0,0.0,0.0,0.0,0.0,0.0,0.0,0.0,0.0,0.0
357414093,8,1235.0,1233.0,1241.0,1241.0,1239.0,1235.0,0.0,0.0,0.0,0.0,0.0,0.0,0.0,0.0,0.0,0.0
357520874,8,1234.0,1231.0,1240.0,1243.0,1238.0,1235.0,0.0,0.0,0.0,0.0,0.0,0.0,0.0,0.0,0.0,0.0
357626354,8,1239.0,1233.0,1246.0,1246.0,1241.0,1238.0,0.0,0.0,0.0,0.0,0.0,0.0,0.0,0.0,0.0,0.0
357737800,8,1245.0,1237.0,1251.0,1247.0,1244.0,1240.0,0.0,0.0,0.0,0.0,0.0,0.0,0.0,0.0,0.0,0.0
