timestamp,timestamp_sample,ref_timestamp,ref_lat,ref_lon,x,y,z,delta_xy[0],delta_xy[1],delta_z,vx,vy,vz,z_deriv,delta_vxy[0],delta_vxy[1],delta_vz,ax,ay,az,heading,delta_heading,ref_alt,dist_bottom,eph,epv,evh,evv,vxy_max,vz_max,hagl_min,hagl_max,xy_valid,z_valid,v_xy_valid,v_z_valid,xy_reset_counter,z_reset_counter,vxy_reset_counter,vz_reset_counter,heading_reset_counter,xy_global,z_global,dist_bottom_valid,dist_bottom_sensor_bitfield
293533430,293532518,0,nan,nan,0.054966483,0.005068267,-8.401586,0.0,0.0,0.0,0.049013063,0.0046279705,0.16168971,0.10796502,0.0011172326,0.008942618,0.0,0.2863867,-0.21532987,0.34194517,-1.1735022,-0.009521439,nan,0.1,0.3107901,0.503542,0.17652334,0.1255253,inf,inf,inf,inf,0,1,0,1,1,0,1,0,3,0,0,1,0
294032620,294031828,0,nan,nan,0.056335337,0.0054161423,-8.372187,0.0,0.0,0.0,0.04853635,0.0052415035,0.17476828,0.10127245,0.0011172326,0.008942618,0.0,-0.6543591,0.22678739,0.422548,-1.1721423,-0.009521439,nan,0.1,0.322338,0.5051378,0.18067227,0.12565841,inf,inf,inf,inf,0,1,0,1,1,0,1,0,3,0,0,1,0
294532060,294531133,0,nan,nan,0.055951245,0.0050902325,-8.375713,0.0,0.0,0.0,0.04700553,0.004971985,0.18290666,0.06717675,0.0011172326,0.008942618,0.0,-0.13774684,-0.110828705,0.0005966954,-1.1714212,-0.009521439,nan,0.1,0.3037127,0.5014903,0.1738413,0.12499292,inf,inf,inf,inf,0,1,0,1,1,0,1,0,3,0,0,1,0
295031372,295030442,0,nan,nan,0.071004346,0.008902517,-8.375452,0.0,0.0,0.0,0.058434706,0.014369858,0.19470762,0.05678436,0.0011172326,0.008942618,0.0,0.02750094,-0.9713461,-1.1549721,-1.1755137,-0.009521439,nan,0.1,0.38092715,0.50302297,0.20077673,0.12509795,inf,inf,inf,inf,0,1,0,1,1,0,1,0,3,0,0,1,0
295535724,295534746,0,nan,nan,0.10587692,0.015981227,-8.341584,0.0,0.0,0.0,0.072797865,0.02427962,0.19021918,0.058923483,0.0011172326,0.008942618,0.0,0.41605803,-0.10636892,-0.7482292,-1.1767237,-0.009521439,nan,0.1,0.4738506,0.5045837,0.23048529,0.12520812,inf,inf,inf,inf,0,1,0,1,1,0,1,0,3,0,0,1,0
296034847,296034057,0,nan,nan,0.14504847,0.050932664,-8.287073,0.0,0.0,0.0,0.057309188,0.13026044,0.17299671,0.063434966,0.0011172326,0.008942618,0.0,-0.36665395,-0.27422446,-0.9338843,-1.1571543,-0.009521439,nan,0.1,0.58306634,0.5009857,0.2626428,0.124550566,inf,inf,inf,inf,0,1,0,1,1,0,1,0,3,0,0,1,0
296534061,296533370,0,nan,nan,0.16363691,0.111951746,-8.237621,0.0,0.0,0.0,0.037179805,0.04793058,0.18877795,0.08307857,0.0011172326,0.008942618,0.0,0.5848261,-0.5990094,0.5792397,-1.1522039,-0.009521439,nan,0.1,0.7087649,0.5025336,0.2962859,0.12461773,inf,inf,inf,inf,0,1,0,1,1,0,1,0,3,0,0,1,0
297033492,297032680,0,nan,nan,0.19771272,0.1009117,-8.224882,0.0,0.0,0.0,0.07497738,-0.04805263,0.1754229,0.06281858,0.0011172326,0.008942618,0.0,0.1337022,0.24140394,0.26124468,-1.1529533,-0.009521439,nan,0.1,0.84985995,0.5040745,0.33152142,0.12468424,inf,inf,inf,inf,0,1,0,1,1,0,1,0,3,0,0,1,0
297532778,297531990,0,nan,nan,0.22298497,0.118155174,-8.184313,0.0,0.0,0.0,0.011707195,0.11722899,0.24385037,0.1129269,0.0011172326,0.008942618,0.0,-0.40387794,0.14282438,-0.5894777,-1.164089,-0.009521439,nan,0.1,1.0083116,0.5003803,0.3670915,0.12390753,inf,inf,inf,inf,0,1,0,1,1,0,1,0,3,0,0,1,0
298032330,298031301,0,nan,nan,0.21242453,0.18531933,-8.2484255,0.0,0.0,0.0,-0.050697662,0.16652459,-0.09348222,-0.24556188,0.0011172326,0.008942618,0.0,-0.41106695,-0.032022905,-0.03684548,-1.1510444,-0.009521439,nan,0.13045979,1.1791483,0.50180024,0.4052865,0.1240261,inf,inf,inf,inf,0,1,0,1,1,0,1,0,3,0,0,1,0
299035806,299034921,0,nan,nan,0.16462615,0.3891013,-8.592389,0.0,0.0,0.0,0.025012223,0.2062061,-0.04187604,-0.24898209,0.0011172326,0.008942618,0.0,0.034185864,-0.40695357,0.75656414,-1.131729,-0.009521439,nan,0.4744234,1.571445,0.49956706,0.48026395,0.123387806,inf,inf,inf,inf,0,1,0,1,1,0,1,0,3,0,0,1,0
299534925,299534229,0,nan,nan,0.18639904,0.4323074,-8.686654,0.0,0.0,0.0,0.09279267,0.027503183,0.24695547,0.010328977,0.0011172326,0.008942618,0.0,0.03921672,-0.4539441,0.41738474,-1.1447291,-0.009521439,nan,0.5686884,1.7722709,0.5010762,0.5119656,0.12345395,inf,inf,inf,inf,0,1,0,1,1,0,1,0,3,0,0,1,0
300034443,300033541,0,nan,nan,0.28137103,0.37703207,-8.7050705,0.0,0.0,0.0,0.34674767,-0.14232345,0.21427378,-0.04471466,0.0011172326,0.008942618,0.0,0.3799797,-0.20601113,-0.18144168,-1.1493406,-0.009521439,nan,0.5871048,1.9905981,0.5025507,0.5466258,0.1236481,inf,inf,inf,inf,0,1,0,1,1,0,1,0,3,0,0,0,0
300533574,300532895,0,nan,nan,0.46957788,0.25133684,-8.772783,0.0,0.0,0.0,0.4087998,-0.21278821,0.1660513,-0.109945975,0.0011172326,0.008942618,0.0,0.042810585,-0.25997245,0.11830788,-1.1504259,-0.009521439,nan,0.6548176,2.214605,0.49894422,0.58071244,0.12319435,inf,inf,inf,inf,0,1,0,1,1,0,1,0,3,0,0,0,0
301032929,301032169,0,nan,nan,0.6745863,0.10632814,-8.8644905,0.0,0.0,0.0,0.5122604,-0.29150224,0.08642798,-0.1979727,0.0011172326,0.008942618,0.0,0.08674431,-0.004523779,0.22805889,-1.1507782,-0.009521439,nan,0.7465248,2.4064758,0.50049084,0.6052465,0.12357428,inf,inf,inf,inf,0,1,0,1,1,0,1,0,3,0,0,0,0
301532405,301531477,0,nan,nan,0.9015156,-0.050384343,-8.970713,0.0,0.0,0.0,0.55273694,-0.29876232,0.13896476,-0.1571303,0.0011172326,0.008942618,0.0,0.13538384,0.09593356,0.05667298,-1.1563224,-0.009521439,nan,0.85274696,2.622774,0.5020922,0.63264763,0.12396308,inf,inf,inf,inf,0,1,0,1,1,0,1,0,3,0,0,0,0
302031509,302030790,0,nan,nan,1.1140555,-0.14812253,-9.066589,0.0,0.0,0.0,0.543788,-0.14030409,0.17184812,-0.13573147,0.0011172326,0.008942618,0.0,0.09140109,0.20098764,0.24996382,-1.1550205,-0.009521439,nan,0.94862366,2.778367,0.49864134,0.64573926,0.123660214,inf,inf,inf,inf,0,1,0,1,1,0,1,0,3,0,0,0,0
302530963,302530101,0,nan,nan,1.2643118,-0.1543563,-9.145911,0.0,0.0,0.0,0.4294365,-0.04299362,0.18510924,-0.12694103,0.0011172326,0.008942618,0.0,-0.37702444,-0.04160137,0.0049502132,-1.1518221,-0.009521439,nan,1.0279455,2.9696417,0.5003062,0.6659029,0.124189295,inf,inf,inf,inf,0,1,0,1,1,0,1,0,3,0,0,0,0
303035131,303034408,0,nan,nan,1.3185248,-0.11860701,-9.219339,0.0,0.0,0.0,0.31964895,0.045595206,0.249315,-0.06659616,0.0011172326,0.008942618,0.0,-0.103010826,0.07920681,0.5365022,-1.1492475,-0.009521439,nan,1.1013737,3.1497054,0.50214565,0.68349266,0.12487275,inf,inf,inf,inf,0,1,0,1,1,0,1,0,3,0,0,0,0
303534541,303533723,0,nan,nan,1.3096683,-0.030894266,-9.2659645,0.0,0.0,0.0,0.26250306,0.1536872,0.16797592,-0.1463134,0.0011172326,0.008942618,0.0,-0.19241044,0.0015833703,0.024482716,-1.1461337,-0.009521439,nan,1.1479988,3.231217,0.49894142,0.68217003,0.12491248,inf,inf,inf,inf,0,1,0,1,1,0,1,0,3,0,0,0,0
304033843,304033033,0,nan,nan,1.2667654,0.07935441,-9.360457,0.0,0.0,0.0,0.22562265,0.17398205,0.14096928,-0.16374071,0.0011172326,0.008942618,0.0,-0.032599755,0.14017875,0.5844849,-1.1462739,-0.009521439,nan,1.2424917,3.3755407,0.50102043,0.6941373,0.12588449,inf,inf,inf,inf,0,1,0,1,1,0,1,0,3,0,0,0,0
305032419,305031658,0,nan,nan,1.1438912,0.22685008,-9.37914,0.0,0.0,0.0,0.21433936,0.13704494,0.28638166,0.0024871146,0.0011172326,0.008942618,0.0,0.07727353,0.097033255,-0.2541605,-1.1334475,-0.009521439,nan,1.2611742,3.5133424,0.5002388,0.69076616,0.12706038,inf,inf,inf,inf,0,1,0,1,1,0,1,0,3,0,0,0,0
305531725,305530971,0,nan,nan,1.0848835,0.2737982,-9.388849,0.0,0.0,0.0,0.20235084,0.14152683,0.2778779,0.0082002785,0.0011172326,0.008942618,0.0,0.08248628,0.017671492,0.34094805,-1.0336256,-0.009521439,nan,1.2708836,3.6120493,0.50260574,0.69760865,0.12829307,inf,inf,inf,inf,0,1,0,1,1,0,1,0,3,0,0,0,0
306031144,306030283,0,nan,nan,1.0204954,0.30998245,-9.3547945,0.0,0.0,0.0,0.1978996,0.14965726,0.2925581,0.028366111,0.0011172326,0.008942618,0.0,0.46036687,0.5046152,-1.1428546,-1.0058898,-0.009521439,nan,1.2368288,3.58135,0.50508475,0.6829437,0.12939075,inf,inf,inf,inf,0,1,0,1,1,0,1,0,3,0,0,0,0
306535323,306534591,0,nan,nan,0.95524853,0.34538195,-9.378341,0.0,0.0,0.0,0.1782832,0.15731144,0.15761445,-0.101766214,0.0011172326,0.008942618,0.0,0.10457517,0.052409157,-0.7567992,-1.0181425,-0.009521439,nan,1.260375,3.657307,0.50254893,0.6898985,0.13001221,inf,inf,inf,inf,0,1,0,1,1,0,1,0,3,0,0,0,0
307034886,307033903,0,nan,nan,0.89631414,0.3738408,-9.442306,0.0,0.0,0.0,0.17191145,0.1450997,0.1425211,-0.1191867,0.0011172326,0.008942618,0.0,0.028100427,0.09279317,0.010022789,-1.029145,-0.009521439,nan,1.3243399,3.6033928,0.50532985,0.6766149,0.13125867,inf,inf,inf,inf,0,1,0,1,1,0,1,0,3,0,0,0,0
307533943,307533216,0,nan,nan,0.8307141,0.39296028,-9.4700365,0.0,0.0,0.0,0.1563007,0.14837134,0.35493144,0.09061007,0.0011172326,0.008942618,0.0,0.094826125,0.05527711,0.38601637,-0.9915081,-0.009521439,nan,1.3520708,3.6634886,0.5082119,0.6810953,0.13233395,inf,inf,inf,inf,0,1,0,1,1,0,1,0,3,0,0,0,0
308033449,308032530,0,nan,nan,0.7864443,0.3985794,-9.457341,0.0,0.0,0.0,0.20682022,0.08465249,0.14807637,-0.12008957,0.0011172326,0.008942618,0.0,-0.1139588,-0.58534664,0.1511281,-0.9398796,-0.009521439,nan,1.3393755,3.7187598,0.50573736,0.68776983,0.132713,inf,inf,inf,inf,0,1,0,1,1,0,1,0,3,0,0,0,0
308532652,308531843,0,nan,nan,0.79038316,0.34560356,-9.563715,0.0,0.0,0.0,0.30780527,-0.05145171,0.18646644,-0.095695674,0.0011172326,0.008942618,0.0,0.16206805,-0.2919445,1.2583797,-0.9325234,-0.009521439,nan,1.4457493,3.6451728,0.5087379,0.6776541,0.13397032,inf,inf,inf,inf,0,1,0,1,1,0,1,0,3,0,0,0,0
309032036,309031156,0,nan,nan,0.8373639,0.24488257,-9.568405,0.0,0.0,0.0,0.39606974,-0.13487057,0.40923655,0.11193968,0.0011172326,0.008942618,0.0,0.11593877,-0.3755447,0.47712147,-0.94635755,-0.009521439,nan,1.4504395,3.693129,0.5116666,0.6831598,0.13471396,inf,inf,inf,inf,0,1,0,1,1,0,1,0,3,0,0,0,0
309531345,309530472,0,nan,nan,0.9372371,0.11972482,-9.539753,0.0,0.0,0.0,0.49023852,-0.2333504,0.3528021,0.036929425,0.0011172326,0.008942618,0.0,0.32475314,0.045110535,-0.49317235,-0.95345634,-0.009521439,nan,1.4217873,3.7393308,0.50912565,0.6915534,0.13480738,inf,inf,inf,inf,0,1,0,1,1,0,1,0,3,0,0,0,0
310035753,310034777,0,nan,nan,1.0660847,-0.039048832,-9.603032,0.0,0.0,0.0,0.6128579,-0.33117908,0.22309165,-0.11667281,0.0011172326,0.008942618,0.0,0.22817308,-0.14601922,0.25022024,-0.94919777,-0.009521439,nan,1.4850664,3.6597252,0.51208985,0.6857211,0.13597675,inf,inf,inf,inf,0,1,0,1,1,0,1,0,3,0,0,0,0
310534946,310534091,0,nan,nan,1.2308701,-0.2006988,-9.683208,0.0,0.0,0.0,0.66021043,-0.35223374,0.33183613,-0.030347843,0.0011172326,0.008942618,0.0,0.14259826,-0.0026593436,0.5992964,-0.92089224,-0.009521439,nan,1.5652428,3.70531,0.51508445,0.695649,0.13678682,inf,inf,inf,inf,0,1,0,1,1,0,1,0,3,0,0,0,0
311034158,311033407,0,nan,nan,1.386747,-0.33328003,-9.711343,0.0,0.0,0.0,0.6760788,-0.35366082,0.40453815,0.014414257,0.0011172326,0.008942618,0.0,0.009255807,-0.12665112,-0.06664747,-0.89186174,-0.009521439,nan,1.5933771,3.6264167,0.51247054,0.68846303,0.13651136,inf,inf,inf,inf,0,1,0,1,1,0,1,0,3,0,0,0,0
312032757,312032032,0,nan,nan,1.7029028,-0.5478119,-9.858736,0.0,0.0,0.0,0.80048865,-0.34379017,0.5719406,0.15674825,0.0011172326,0.008942618,0.0,0.032967295,0.32980707,1.5004504,-0.19325621,0.6221772,nan,1.7407703,3.7178676,0.5182572,0.6978755,0.13655199,inf,inf,inf,inf,0,1,0,1,1,0,1,0,4,0,0,0,0
312537158,312536339,0,nan,nan,1.8258575,-0.62817216,-9.573921,0.0,0.0,0.0,0.7872838,-0.35451373,0.7732386,0.46868372,0.0011172326,0.008942618,0.0,0.08775709,-0.087279014,0.22242218,-0.2470328,0.6221772,nan,1.4559555,3.631546,0.5147862,0.65525144,0.13603155,inf,inf,inf,inf,0,1,0,1,1,0,1,0,4,0,0,0,0
313036402,313035658,0,nan,nan,1.9355273,-0.6934942,-9.245839,0.0,0.0,0.0,0.8001388,-0.31561852,0.7281732,0.4971983,0.0011172326,0.008942618,0.0,0.047790047,0.07276845,-0.15645117,-0.2051021,0.6221772,nan,1.1278734,3.6591082,0.5163218,0.6369368,0.1429856,inf,inf,inf,inf,0,1,0,1,1,0,1,0,4,0,0,0,0
314035060,314034312,0,nan,nan,2.05572,-0.73923856,-8.710141,0.0,0.0,0.0,0.6589857,-0.22259553,0.8257214,0.564451,0.0011172326,0.008942618,0.0,-0.17701584,-0.024105065,0.016611865,-0.09845892,0.6221772,nan,0.5921755,3.5781693,0.51768166,0.61077327,0.16849463,inf,inf,inf,inf,0,1,0,1,1,0,1,0,4,0,0,0,0
315033764,315032909,0,nan,nan,2.003989,-0.6761522,-8.407582,0.0,0.0,0.0,0.50609326,-0.14103892,0.7115504,0.33234298,0.0011172326,0.008942618,0.0,-0.049737737,0.07342905,0.08229292,-0.1544409,0.6221772,nan,0.28961658,3.4978473,0.53774834,0.61862534,0.20176679,inf,inf,inf,inf,0,1,0,1,1,0,1,0,4,0,0,0,0
315532951,315532260,0,nan,nan,1.9361397,-0.6364025,-8.327537,0.0,0.0,0.0,0.4519848,-0.1422314,0.8447012,0.3793034,0.0011172326,0.008942618,0.0,-0.061464548,-0.15556715,0.2044301,-0.16483074,0.6221772,nan,0.20957088,3.517001,0.5468587,0.63627297,0.21493812,inf,inf,inf,inf,0,1,0,1,1,0,1,0,4,0,0,0,0
316032346,316031537,0,nan,nan,1.8569279,-0.64285296,-8.231227,0.0,0.0,0.0,0.33168292,-0.26609254,1.0041906,0.45880073,0.0011172326,0.008942618,0.0,-0.10530412,-0.28056642,0.4836089,-0.15642147,0.6221772,nan,0.11326122,3.5407617,0.5647897,0.65817773,0.22695339,inf,inf,inf,inf,0,1,0,1,1,0,1,0,4,0,0,0,0
316536677,316535845,0,nan,nan,1.7222122,-0.6996651,-8.113038,0.0,0.0,0.0,0.30116564,-0.3361685,0.9377833,0.30897123,0.0011172326,0.008942618,0.0,0.17688553,-0.009397523,-1.2400919,-0.15791295,0.6221772,nan,0.1,3.4645019,0.57583034,0.67370313,0.23461695,inf,inf,inf,inf,0,1,0,1,1,0,1,0,4,0,0,0,0
317035965,317035159,0,nan,nan,1.618,-0.78124946,-8.175082,0.0,0.0,0.0,0.28597403,-0.37764904,0.60410464,-0.09411914,0.0011172326,0.008942618,0.0,0.055970322,-0.053539447,0.44546434,-0.13929974,0.6221772,nan,0.1,3.502843,0.5942444,0.70645344,0.24251606,inf,inf,inf,inf,0,1,0,1,1,0,1,0,4,0,0,0,0
317530229,317529481,0,nan,nan,1.5157834,-0.8669218,-8.274837,0.0,0.0,0.0,0.24897704,-0.39668936,0.8166005,0.056991924,0.0011172326,0.008942618,0.0,0.106970675,0.036184676,0.5558304,-0.13468525,0.6221772,nan,0.15687084,3.4398482,0.6091701,0.7235972,0.24468632,inf,inf,inf,inf,0,1,0,1,1,0,1,0,4,0,0,0,0
318039745,318038784,0,nan,nan,1.4138155,-0.9207272,-8.333133,0.0,0.0,0.0,0.2752771,-0.28798434,0.75299835,-0.038719356,0.0011172326,0.008942618,0.0,0.18954125,0.14540601,0.42051184,-0.15014867,0.6221772,nan,0.21516705,3.5002043,0.61557716,0.7553598,0.2427687,inf,inf,inf,inf,0,1,0,1,1,0,1,0,4,0,0,0,0
318538864,318538095,0,nan,nan,1.3446035,-0.8989217,-8.46533,0.0,0.0,0.0,0.3005525,-0.15065826,0.55799466,-0.25445417,0.0011172326,0.008942618,0.0,0.068568,0.31475478,0.45956868,-0.17689553,0.6221772,nan,0.34736443,3.5650325,0.6262029,0.78836656,0.24122918,inf,inf,inf,inf,0,1,0,1,1,0,1,0,4,0,0,0,0
319038263,319037410,0,nan,nan,1.274312,-0.8178092,-8.594945,0.0,0.0,0.0,0.30858693,-0.098427415,0.7772072,-0.0484504,0.0011172326,0.008942618,0.0,0.013827733,-0.1718316,1.0864305,-0.19625972,0.6221772,nan,0.47697926,3.5270424,0.63388646,0.8028535,0.23661764,inf,inf,inf,inf,0,1,0,1,1,0,1,0,4,0,0,0,0
319537488,319536724,0,nan,nan,1.2411624,-0.744375,-8.605678,0.0,0.0,0.0,0.33855295,-0.07390207,0.8285528,0.011516356,0.0011172326,0.008942618,0.0,0.14309019,0.13269755,0.09216161,-0.192714,0.6221772,nan,0.4877119,3.6050417,0.6280876,0.82947844,0.22833695,inf,inf,inf,inf,0,1,0,1,1,0,1,0,4,0,0,0,0
320036976,320036038,0,nan,nan,1.217549,-0.66479063,-8.61554,0.0,0.0,0.0,0.33809692,-0.05958686,0.70388365,-0.09073703,0.0011172326,0.008942618,0.0,0.051953435,-0.08553444,-0.2374858,-0.18270859,0.6221772,nan,0.49757385,3.5715172,0.63030505,0.8408573,0.22275679,inf,inf,inf,inf,0,1,0,1,1,0,1,0,4,0,0,0,0
320536149,320535354,0,nan,nan,1.1961346,-0.600499,-8.709483,0.0,0.0,0.0,0.33676487,-0.07296535,0.5196335,-0.24943675,0.0011172326,0.008942618,0.0,0.14945273,-0.010470569,0.4876416,-0.16309589,0.6221772,nan,0.59151745,3.658153,0.63085556,0.8670091,0.21722524,inf,inf,inf,inf,0,1,0,1,1,0,1,0,4,0,0,0,0
321035437,321034668,0,nan,nan,1.1785005,-0.54824823,-8.765214,0.0,0.0,0.0,0.32729158,-0.07130062,0.6346006,-0.094116464,0.0011172326,0.008942618,0.0,0.1975585,-0.22220998,0.31608045,-0.186822,0.6221772,nan,0.64724827,3.7493653,0.6201796,0.8869573,0.20828804,inf,inf,inf,inf,0,1,0,1,1,0,1,0,4,0,0,0,0
322034099,322033299,0,nan,nan,1.0937247,-0.4577148,-8.953857,0.0,0.0,0.0,0.26546323,-0.052886855,0.34946275,-0.29815853,0.0011172326,0.008942618,0.0,0.010305563,0.06017099,0.24626647,-0.29362604,0.6221772,nan,0.8358917,3.802061,0.6161372,0.90506625,0.19711891,inf,inf,inf,inf,0,1,0,1,1,0,1,0,4,0,0,0,0
323032611,323031925,0,nan,nan,0.9218259,-0.33753362,-9.036874,0.0,0.0,0.0,0.13971667,0.00715001,0.45066297,-0.103046805,0.0011172326,0.008942618,0.0,-0.07702426,-0.052094303,0.66398114,-0.26300183,0.6221772,nan,0.9189081,3.837868,0.6010387,0.90639794,0.18432713,inf,inf,inf,inf,0,1,0,1,1,0,1,0,4,0,0,0,0
324036330,324035547,0,nan,nan,0.7006284,-0.210165,-8.856667,0.0,0.0,0.0,0.047565185,0.02587829,0.6003957,0.11348604,0.0011172326,0.008942618,0.0,-0.09140773,-0.013919631,-0.15605554,-0.29314733,0.6221772,nan,0.73870087,3.852631,0.5859829,0.8970088,0.17311339,inf,inf,inf,inf,0,1,0,1,1,0,1,0,4,0,0,0,0
325034863,325034177,0,nan,nan,0.44521612,-0.118874714,-8.816872,0.0,0.0,0.0,-0.07760089,0.03516938,0.6358674,0.14602442,0.0011172326,0.008942618,0.0,0.0047537624,-0.010760317,0.5299356,-0.2880262,0.6221772,nan,0.69890594,4.0006433,0.5800177,0.90660167,0.165226,inf,inf,inf,inf,0,1,0,1,1,0,1,0,4,0,0,0,0
326033714,326032806,0,nan,nan,0.1909953,-0.0010139158,-8.668931,0.0,0.0,0.0,-0.13928579,0.121617936,0.6325629,0.13526204,0.0011172326,0.008942618,0.0,-0.05482475,-0.05832345,0.32400852,-0.28928763,0.6221772,nan,0.5509653,3.9790561,0.56656474,0.88751966,0.15676376,inf,inf,inf,inf,0,1,0,1,1,0,1,0,4,0,0,0,0
327037414,327036427,0,nan,nan,-0.028293382,0.098155215,-8.484951,0.0,0.0,0.0,-0.18189089,0.099778876,0.8432375,0.30847037,0.0011172326,0.008942618,0.0,-0.009036638,0.10419942,0.1419371,-0.28375673,0.6221772,nan,0.36698532,3.9433928,0.5541222,0.8657945,0.14929222,inf,inf,inf,inf,0,1,0,1,1,0,1,0,4,0,0,0,0
328035997,328035056,0,nan,nan,-0.17006657,0.19414528,-8.408116,0.0,0.0,0.0,-0.1437681,0.21554174,0.71171075,0.12963304,0.0011172326,0.008942618,0.0,0.122907214,0.06765956,0.09893123,-0.28532344,0.6221772,nan,0.29015064,3.9008157,0.5497948,0.8486937,0.14450608,inf,inf,inf,inf,0,1,0,1,1,0,1,0,4,0,0,0,0
329034516,329033695,0,nan,nan,-0.22035001,0.37792233,-8.329273,0.0,0.0,0.0,-0.12964743,0.26747018,0.67214257,0.07445081,0.0011172326,0.008942618,0.0,-0.12359127,-0.12811391,-0.13242184,-0.30074,0.6221772,nan,0.21130753,3.8532383,0.539372,0.8332014,0.13922916,inf,inf,inf,inf,0,1,0,1,1,0,1,0,4,0,0,0,0
330033296,330032314,0,nan,nan,-0.38844243,0.40723872,-8.158142,0.0,0.0,0.0,-0.35910636,0.13825262,0.7377913,0.1319389,0.0011172326,0.008942618,0.0,-0.008335855,-0.29483628,-0.7786514,-0.29926172,0.6221772,nan,0.1,3.9517486,0.52989817,0.8414067,0.13458505,inf,inf,inf,inf,0,1,0,1,1,0,1,0,4,0,0,0,0
331031628,331030942,0,nan,nan,-0.6043625,0.42341706,-8.286593,0.0,0.0,0.0,-0.41438922,0.17031883,0.73773766,0.0997766,0.0011172326,0.008942618,0.0,-0.115631744,0.1114467,1.3057437,-0.2931197,0.6221772,nan,0.16862774,3.9025455,0.5274398,0.8347257,0.13191126,inf,inf,inf,inf,0,1,0,1,1,0,1,0,4,0,0,0,0
332035394,332034565,0,nan,nan,-0.79276687,0.44873047,-8.199082,0.0,0.0,0.0,-0.46238795,0.16766766,0.73669726,0.059653763,0.0011172326,0.008942618,0.0,-0.20425934,0.07839083,-0.11166794,-0.30065095,0.6221772,nan,0.1,3.8571827,0.519682,0.82909954,0.1287482,inf,inf,inf,inf,0,1,0,1,1,0,1,0,4,0,0,0,0
333034027,333033193,0,nan,nan,-0.94163036,0.49967542,-8.2940855,0.0,0.0,0.0,-0.43054253,0.2024598,0.6147981,-0.048479863,0.0011172326,0.008942618,0.0,0.02295249,0.08833857,0.011555495,-0.29502696,0.6221772,nan,0.1761198,3.8175771,0.5129777,0.8290487,0.12647542,inf,inf,inf,inf,0,1,0,1,1,0,1,0,4,0,0,0,0
334032613,334031821,0,nan,nan,-1.0064889,0.5371808,-8.262386,0.0,0.0,0.0,-0.39695725,0.18904549,0.66452616,0.07679535,0.0011172326,0.008942618,0.0,0.0786516,-0.21944097,0.21333167,-0.29266432,0.6221772,nan,0.14442062,3.9264555,0.51244015,0.85095465,0.12534414,inf,inf,inf,inf,0,1,0,1,1,0,1,0,4,0,0,0,0
335031258,335030448,0,nan,nan,-1.0331969,0.51818997,-8.166318,0.0,0.0,0.0,-0.40879825,0.19264537,0.6751585,0.10947204,0.0011172326,0.008942618,0.0,-0.0937075,0.16182762,0.65448797,-0.41435492,0.6221772,nan,0.1,3.8943276,0.50701755,0.85438746,0.12368186,inf,inf,inf,inf,0,1,0,1,1,0,1,0,4,0,0,0,0
336034851,336034072,0,nan,nan,-1.0538002,0.59005594,-8.081254,0.0,0.0,0.0,-0.42848387,0.30160713,0.48003057,-0.10364258,0.0011172326,0.008942618,0.0,-0.19155528,0.069513805,0.4894169,-0.39748082,0.6221772,nan,0.1,3.8683589,0.5022408,0.8610978,0.12232164,inf,inf,inf,inf,0,1,0,1,1,0,1,0,4,0,0,0,0
337033613,337032698,0,nan,nan,-1.093904,0.692243,-7.8857155,0.0,0.0,0.0,-0.4286578,0.3211274,1.0924065,0.47220063,0.0011172326,0.008942618,0.0,-0.10735586,0.06275049,0.5050078,-0.38783124,0.6221772,nan,0.1,3.8447566,0.5030738,0.85792375,0.12128312,inf,inf,inf,inf,0,1,0,1,1,0,1,0,4,0,0,0,0
338032402,338031326,0,nan,nan,-1.1063486,0.7426489,-7.7167835,0.0,0.0,0.0,-0.38086712,0.27918676,0.54395765,-0.103605665,0.0011172326,0.008942618,0.0,-0.15891224,0.16292565,0.119166054,-0.3787486,0.6221772,nan,0.1,3.8220499,0.49895027,0.86648595,0.120300755,inf,inf,inf,inf,0,1,0,1,1,0,1,0,4,0,0,0,0
339036025,339034950,0,nan,nan,-1.0656768,0.74966425,-7.743279,0.0,0.0,0.0,-0.3914308,0.27656913,0.69964486,0.046151593,0.0011172326,0.008942618,0.0,-0.17652568,0.052824996,0.47963575,-0.38200307,0.6221772,nan,0.1,3.9499347,0.4952531,0.8896204,0.1190153,inf,inf,inf,inf,0,1,0,1,1,0,1,0,4,0,0,0,0
340034496,340033574,0,nan,nan,-1.0455087,0.694591,-7.808387,0.0,0.0,0.0,-0.36665475,0.1748347,0.73503685,0.08392264,0.0011172326,0.008942618,0.0,0.1659474,-0.10760393,0.84960645,-0.38771313,0.6221772,nan,0.15371418,3.9308808,0.49686038,0.88980645,0.11852963,inf,inf,inf,inf,0,1,0,1,1,0,1,0,4,0,0,0,0
341032938,341032201,0,nan,nan,-0.8983157,0.4992662,-7.790442,0.0,0.0,0.0,-0.11649658,-0.03088652,0.37638935,-0.28178388,0.0011172326,0.008942618,0.0,0.1950525,-0.1289365,0.20338054,-0.37910718,0.6221772,nan,0.13576937,3.907997,0.49340117,0.89007205,0.11738143,inf,inf,inf,inf,0,1,0,1,1,0,1,0,4,0,0,0,0
342031726,342030829,0,nan,nan,-0.6340513,0.27899414,-7.8156095,0.0,0.0,0.0,-0.057888664,-0.048689246,0.9325577,0.25832617,0.0011172326,0.008942618,0.0,0.03850967,-0.13438667,0.09766908,-0.38912305,0.6221772,nan,0.16093683,3.8824892,0.4900387,0.8785647,0.11580029,inf,inf,inf,inf,0,1,0,1,1,0,1,0,4,0,0,0,0
343035179,343034448,0,nan,nan,-0.4258575,0.11211617,-7.693286,0.0,0.0,0.0,-0.00021186427,-0.108341515,0.76367205,0.080308296,0.0011172326,0.008942618,0.0,0.17476815,0.06606026,0.38331312,-0.3891824,0.6221772,nan,0.1,4.007497,0.49156687,0.8987419,0.1153718,inf,inf,inf,inf,0,1,0,1,1,0,1,0,4,0,0,0,0
343534828,343533763,0,nan,nan,-0.32683882,0.027075825,-7.641095,0.0,0.0,0.0,0.035044096,-0.13684666,0.81812996,0.13232134,0.0011172326,0.008942618,0.0,-0.071484976,0.015827117,0.033885606,-0.3911767,0.6221772,nan,0.1,3.9154954,0.48752004,0.88235104,0.11436615,inf,inf,inf,inf,0,1,0,1,1,0,1,0,4,0,0,0,0
344033845,344033077,0,nan,nan,-0.23361348,-0.053551015,-7.6245522,0.0,0.0,0.0,0.07159042,-0.16790877,0.6568075,-0.03490774,0.0011172326,0.008942618,0.0,0.17606437,-0.2226325,-0.14517893,-0.38837594,0.6221772,nan,0.1,3.9767025,0.48831442,0.89167374,0.114127636,inf,inf,inf,inf,0,1,0,1,1,0,1,0,4,0,0,0,0
345032630,345031703,0,nan,nan,-0.043708604,-0.21031174,-7.529625,0.0,0.0,0.0,0.13447376,-0.23076354,0.70725054,0.002509694,0.0011172326,0.008942618,0.0,-0.16953845,-0.08465047,-0.61607313,-0.3890517,0.6221772,nan,0.1,3.9423425,0.4850411,0.8815382,0.11277313,inf,inf,inf,inf,0,1,0,1,1,0,1,0,4,0,0,0,0
345531748,345531015,0,nan,nan,0.019532219,-0.29190382,-7.542271,0.0,0.0,0.0,0.08598652,-0.2715048,0.7969801,0.076606035,0.0011172326,0.008942618,0.0,-0.07582389,-0.24395254,0.3754053,-0.39505702,0.6221772,nan,0.1,4.001892,0.48574615,0.88847715,0.11243575,inf,inf,inf,inf,0,1,0,1,1,0,1,0,4,0,0,0,0
346031189,346030329,0,nan,nan,0.06136382,-0.3786956,-7.46191,0.0,0.0,0.0,0.10023683,-0.31324267,1.0371536,0.31071624,0.0011172326,0.008942618,0.0,-0.047548406,-0.26672724,0.328224,-0.39973947,0.6221772,nan,0.1,3.9054515,0.48640275,0.8686329,0.111999,inf,inf,inf,inf,0,1,0,1,1,0,1,0,4,0,0,0,0
347034996,347033948,0,nan,nan,0.15173835,-0.55420005,-7.3704286,0.0,0.0,0.0,0.16082543,-0.3330685,0.6979116,-0.067091644,0.0011172326,0.008942618,0.0,0.11714334,0.0018292897,0.14437972,-0.38606638,0.6221772,nan,0.1,3.8680112,0.48315078,0.8623578,0.110971525,inf,inf,inf,inf,0,1,0,1,1,0,1,0,4,0,0,0,0
347534080,347533266,0,nan,nan,0.20560332,-0.59227043,-7.3845406,0.0,0.0,0.0,0.17537001,-0.2681353,0.798657,0.03130529,0.0011172326,0.008942618,0.0,0.05617449,-0.06351594,-0.10132466,-0.37731776,0.6221772,nan,0.1,3.9249544,0.48387793,0.86718833,0.11064424,inf,inf,inf,inf,0,1,0,1,1,0,1,0,4,0,0,0,0
348033539,348032596,0,nan,nan,0.2550346,-0.5812644,-7.4124527,0.0,0.0,0.0,0.1792244,-0.1453123,0.62646365,-0.13289551,0.0011172326,0.008942618,0.0,-0.058755096,0.14402387,-0.14071405,-0.3631191,0.6221772,nan,0.10008955,3.9819589,0.47998092,0.8750706,0.1098289,inf,inf,inf,inf,0,1,0,1,1,0,1,0,4,0,0,0,0
349032142,349031248,0,nan,nan,0.35203108,-0.462457,-7.3892336,0.0,0.0,0.0,0.21911083,-0.10889853,0.82616067,0.08065371,0.0011172326,0.008942618,0.0,0.15574221,0.04247561,0.5495768,-0.37638524,0.6221772,nan,0.1,3.9404774,0.48138022,0.86201304,0.1092598,inf,inf,inf,inf,0,1,0,1,1,0,1,0,4,0,0,0,0
350035817,350034819,0,nan,nan,0.47309032,-0.41137892,-7.228096,0.0,0.0,0.0,0.33243304,-0.16170298,0.7946266,0.05878711,0.0011172326,0.008942618,0.0,0.117578186,0.039972916,-0.5087457,-0.3946187,0.6221772,nan,0.1,3.8990152,0.47825703,0.85220563,0.10820928,inf,inf,inf,inf,0,1,0,1,1,0,1,0,4,0,0,0,0
350534904,350534179,0,nan,nan,0.56850904,-0.414481,-7.2220984,0.0,0.0,0.0,0.39024413,-0.18139423,0.8251379,0.09805838,0.0011172326,0.008942618,0.0,0.08452426,-0.13316597,0.7519769,-0.39026183,0.6221772,nan,0.1,3.9544683,0.47897846,0.8594048,0.10799583,inf,inf,inf,inf,0,1,0,1,1,0,1,0,4,0,0,0,0
351034275,351033447,0,nan,nan,0.65901583,-0.42411304,-7.1504416,0.0,0.0,0.0,0.39131594,-0.18923293,0.9716363,0.23709197,0.0011172326,0.008942618,0.0,0.03306877,-0.03236145,0.58516276,-0.39135134,0.6221772,nan,0.1,3.8587124,0.47524187,0.8410009,0.10709456,inf,inf,inf,inf,0,1,0,1,1,0,1,0,4,0,0,0,0
351533696,351532756,0,nan,nan,0.73239225,-0.44139716,-7.075886,0.0,0.0,0.0,0.4150639,-0.23346013,0.7562582,0.016193327,0.0011172326,0.008942618,0.0,0.25506768,-0.21959844,-0.4962881,-0.39108998,0.6221772,nan,0.1,3.912196,0.47592872,0.8482174,0.106861405,inf,inf,inf,inf,0,1,0,1,1,0,1,0,4,0,0,0,0
352037866,352037062,0,nan,nan,0.8088519,-0.47875422,-7.1557803,0.0,0.0,0.0,0.42626882,-0.26311988,0.5975395,-0.14652696,0.0011172326,0.008942618,0.0,-0.21041366,0.0031359398,0.9724374,-0.36180785,0.6221772,nan,0.12522268,3.967736,0.47663897,0.8584494,0.106722675,inf,inf,inf,inf,0,1,0,1,1,0,1,0,4,0,0,0,0
353036437,353035688,0,nan,nan,0.7816919,-0.524366,-7.0999026,0.0,0.0,0.0,0.13131863,-0.16125803,1.0452917,0.25546288,0.0011172326,0.008942618,0.0,-0.3283127,0.18435247,-0.03722526,-0.32828143,0.6221772,nan,0.1,3.9270597,0.47365993,0.84322333,0.10547897,inf,inf,inf,inf,0,1,0,1,1,0,1,0,4,0,0,0,0
353535872,353535000,0,nan,nan,0.676551,-0.4985992,-7.0741587,0.0,0.0,0.0,0.06636181,-0.13544612,0.68089634,-0.12573761,0.0011172326,0.008942618,0.0,-0.023361282,-0.0858088,-0.31835052,-0.33401218,0.6221772,nan,0.1,3.832664,0.47431108,0.8305992,0.10537012,inf,inf,inf,inf,0,1,0,1,1,0,1,0,4,0,0,0,0
354035175,354034312,0,nan,nan,0.5440078,-0.46340427,-7.1257653,0.0,0.0,0.0,-0.04970267,-0.11046092,0.79139125,-0.012667643,0.0011172326,0.008942618,0.0,-0.20098679,0.022211118,0.23639326,-0.3358031,0.6221772,nan,0.1,3.8862643,0.47070137,0.8371121,0.104658745,inf,inf,inf,inf,0,1,0,1,1,0,1,0,4,0,0,0,0
354534597,354533630,0,nan,nan,0.37892535,-0.41476312,-7.106462,0.0,0.0,0.0,-0.18955836,-0.037908062,0.77654827,-0.018006671,0.0011172326,0.008942618,0.0,-0.19282359,0.17372684,-0.3901079,-0.2947524,0.6221772,nan,0.1,3.9398627,0.47139496,0.84300417,0.10449948,inf,inf,inf,inf,0,1,0,1,1,0,1,0,4,0,0,0,0
355033616,355032936,0,nan,nan,0.18788667,-0.33709896,-7.142501,0.0,0.0,0.0,-0.24394092,0.01681858,0.74149054,-0.045033194,0.0011172326,0.008942618,0.0,0.033454232,-0.06797641,0.84884536,-0.20742615,0.6221772,nan,0.111943245,3.8459609,0.47210184,0.82917506,0.10441932,inf,inf,inf,inf,0,1,0,1,1,0,1,0,4,0,0,0,0
356032503,356031561,0,nan,nan,-0.14042492,-0.072580576,-7.105173,0.0,0.0,0.0,-0.3026887,0.29901868,0.8241511,0.0360105,0.0011172326,0.008942618,0.0,0.34686688,-0.06314162,-0.14381464,-0.13733028,0.6221772,nan,0.1,3.952265,0.4693092,0.84128493,0.10366468,inf,inf,inf,inf,0,1,0,1,1,0,1,0,4,0,0,0,0
356531559,356530872,0,nan,nan,-0.24082094,0.10544722,-7.1130667,0.0,0.0,0.0,-0.2276378,0.33722183,0.7557951,-0.035156075,0.0011172326,0.008942618,0.0,0.11357063,0.07360135,0.55522203,-0.15376976,0.6221772,nan,0.1,3.8582726,0.4700676,0.8273593,0.10359279,inf,inf,inf,inf,0,1,0,1,1,0,1,0,4,0,0,0,0
357031195,357030184,0,nan,nan,-0.29170084,0.26159343,-7.0953207,0.0,0.0,0.0,-0.17391478,0.34507236,0.91942656,0.13104777,0.0011172326,0.008942618,0.0,0.059740074,-0.051140495,0.6978149,-0.16290693,0.6221772,nan,0.1,3.9113102,0.46661887,0.833301,0.10296362,inf,inf,inf,inf,0,1,0,1,1,0,1,0,4,0,0,0,0
357535183,357534489,0,nan,nan,-0.30397567,0.37567466,-7.0187244,0.0,0.0,0.0,-0.13656054,0.3007589,0.91469973,0.11664029,0.0011172326,0.008942618,0.0,0.079772234,-0.1564602,-0.42622375,-0.16566865,0.6221772,nan,0.1,3.8193185,0.46742916,0.8186323,0.102892324,inf,inf,inf,inf,0,1,0,1,1,0,1,0,4,0,0,0,0
358034619,358033802,0,nan,nan,-0.2888587,0.44185027,-7.0577674,0.0,0.0,0.0,-0.07525996,0.26102862,0.5758925,-0.22358808,0.0011172326,0.008942618,0.0,0.13575153,-0.09913498,-0.5488293,-0.16554016,0.6221772,nan,0.1,3.8729866,0.4682898,0.82934314,0.10294159,inf,inf,inf,inf,0,1,0,1,1,0,1,0,4,0,0,0,0
358533922,358533113,0,nan,nan,-0.24976574,0.48067415,-7.1557336,0.0,0.0,0.0,-0.018372864,0.22805169,0.6581587,-0.13106647,0.0011172326,0.008942618,0.0,0.21242656,-0.03683784,0.46850774,-0.17541584,0.6221772,nan,0.17823648,3.9280343,0.46505392,0.8368267,0.102415875,inf,inf,inf,inf,0,1,0,1,1,0,1,0,4,0,0,0,0
359033441,359032425,0,nan,nan,-0.17865488,0.48396516,-7.1716833,0.0,0.0,0.0,0.06447652,0.17312865,0.8139952,0.032616094,0.0011172326,0.008942618,0.0,0.15811087,0.034764234,0.13239469,-0.19451085,0.6221772,nan,0.19418621,3.8369935,0.46593967,0.8209649,0.102356836,inf,inf,inf,inf,0,1,0,1,1,0,1,0,4,0,0,0,0
360031864,360031047,0,nan,nan,0.052715097,0.4134095,-7.1209183,0.0,0.0,0.0,0.27049592,0.066351034,0.59750265,-0.1775673,0.0011172326,0.008942618,0.0,0.07324175,0.008756491,-1.0821413,-0.21135552,0.6221772,nan,0.14342117,3.8000188,0.46362373,0.8160037,0.10194025,inf,inf,inf,inf,0,1,0,1,1,0,1,0,4,0,0,0,0
360531182,360530361,0,nan,nan,0.2010854,0.34967753,-7.205558,0.0,0.0,0.0,0.31403443,0.0055263597,0.77253205,-0.0071783112,0.0011172326,0.008942618,0.0,-0.041536916,-0.1961494,0.9008557,-0.20610496,0.6221772,nan,0.22806072,3.853748,0.46458507,0.8230806,0.10198364,inf,inf,inf,inf,0,1,0,1,1,0,1,0,4,0,0,0,0
361035591,361034663,0,nan,nan,0.3158842,0.24366108,-7.1806664,0.0,0.0,0.0,0.24281435,-0.1500288,0.843565,0.060552265,0.0011172326,0.008942618,0.0,-0.087980054,-0.29677895,-0.09417257,-0.2378109,0.6221772,nan,0.20316935,3.9079897,0.46556348,0.82939386,0.102008395,inf,inf,inf,inf,0,1,0,1,1,0,1,0,4,0,0,0,0
362034025,362033286,0,nan,nan,0.46448562,-0.055566695,-7.1096644,0.0,0.0,0.0,0.28225785,-0.2797393,1.088024,0.31371477,0.0011172326,0.008942618,0.0,-0.07916079,-0.04378274,-0.30290493,-0.30943152,0.6221772,nan,0.13216734,3.8730114,0.4635398,0.8215009,0.10167421,inf,inf,inf,inf,0,1,0,1,1,0,1,0,4,0,0,0,0
362533654,362532599,0,nan,nan,0.52247876,-0.21433543,-7.105228,0.0,0.0,0.0,0.31138402,-0.38908714,0.49106324,-0.28767726,0.0011172326,0.008942618,0.0,0.21015152,-0.55406994,-0.18256615,-0.33683002,0.6221772,nan,0.12773085,3.7843373,0.46458542,0.8131151,0.10193758,inf,inf,inf,inf,0,1,0,1,1,0,1,0,4,0,0,0,0
363037601,363036905,0,nan,nan,0.57568216,-0.40756693,-7.3128676,0.0,0.0,0.0,0.261689,-0.5621002,0.3689678,-0.40762585,0.0011172326,0.008942618,0.0,-0.34716687,-0.6440944,0.99965006,-0.4159587,0.6221772,nan,0.33537054,3.8402627,0.46169308,0.8241283,0.10172589,inf,inf,inf,inf,0,1,0,1,1,0,1,0,4,0,0,0,0
363538624,363536213,0,nan,nan,0.46901977,-0.6134628,-7.4743943,0.0,0.0,0.0,0.004942038,-0.64249545,0.5725555,-0.19597648,0.0011172326,0.008942618,0.0,-0.15228523,0.007134904,0.88581854,-0.5723361,0.6221772,nan,0.49689722,3.895507,0.46289945,0.82980645,0.10188953,inf,inf,inf,inf,0,1,0,1,1,0,1,0,4,0,0,0,0
364036326,364035570,0,nan,nan,0.33312005,-0.759957,-7.4835334,0.0,0.0,0.0,-0.06290912,-0.55529916,0.83585334,0.08148469,0.0011172326,0.008942618,0.0,0.078310646,0.12203275,0.2989167,-0.72181445,0.6221772,nan,0.5060363,3.8075242,0.4641098,0.81341094,0.10197241,inf,inf,inf,inf,0,1,0,1,1,0,1,0,4,0,0,0,0
364537132,364534834,0,nan,nan,0.24886504,-0.8030432,-7.439,0.0,0.0,0.0,-0.03320445,-0.58597136,0.81549335,0.059844155,0.0011172326,0.008942618,0.0,0.01049193,-0.15223457,-0.19586031,-0.8007425,0.6221772,nan,0.46150303,3.8611674,0.461274,0.8203867,0.10168446,inf,inf,inf,inf,0,1,0,1,1,0,1,0,4,0,0,0,0
365034914,365034146,0,nan,nan,0.18900186,-0.81892186,-7.421558,0.0,0.0,0.0,-0.20013219,-0.6022098,0.82357323,0.060800526,0.0011172326,0.008942618,0.0,-0.87085795,-0.1928639,0.108566225,-0.8623905,0.6221772,nan,0.4440608,3.915589,0.46249372,0.82817984,0.101927005,inf,inf,inf,inf,0,1,0,1,1,0,1,0,4,0,0,0,0
365534246,365533457,0,nan,nan,-0.08930912,-0.79881734,-7.3934164,0.0,0.0,0.0,-0.52977914,-0.57474667,0.81176174,0.0506561,0.0011172326,0.008942618,0.0,-0.20846789,-0.23600489,0.38294095,-0.96016914,0.6221772,nan,0.4159193,3.8260558,0.46377087,0.8146455,0.10224229,inf,inf,inf,inf,0,1,0,1,1,0,1,0,4,0,0,0,0
366035196,366032767,0,nan,nan,-0.44558844,-0.67412865,-7.375167,0.0,0.0,0.0,-0.5403439,-0.47170505,0.85251504,0.09540247,0.0011172326,0.008942618,0.0,0.050781935,0.1209577,0.5165985,-1.1270847,0.6221772,nan,0.3976698,3.8794758,0.46102202,0.82229257,0.102011584,inf,inf,inf,inf,0,1,0,1,1,0,1,0,4,0,0,0,0
366532845,366532078,0,nan,nan,-0.706223,-0.4094217,-7.339898,0.0,0.0,0.0,-0.60779965,-0.24980566,0.7644525,0.0005505581,0.0011172326,0.008942618,0.0,-0.21198544,0.2426108,-0.64236623,-1.2207159,0.6221772,nan,0.362401,3.7902303,0.4623106,0.8083466,0.102258265,inf,inf,inf,inf,0,1,0,1,1,0,1,0,4,0,0,0,0
367038745,367036382,0,nan,nan,-0.9407089,-0.014298125,-7.3910527,0.0,0.0,0.0,-0.6428485,-0.05084547,0.6860329,-0.07923633,0.0011172326,0.008942618,0.0,0.04621648,0.16946845,0.16560796,-1.2906095,0.6221772,nan,0.41355562,3.8429887,0.46365294,0.8173465,0.102630906,inf,inf,inf,inf,0,1,0,1,1,0,1,0,4,0,0,0,0
368535024,368534328,0,nan,nan,-1.5610722,1.0170921,-7.549043,0.0,0.0,0.0,-0.7702625,0.33642215,0.53041375,-0.21140288,0.0011172326,0.008942618,0.0,-0.13682301,0.2423497,0.23064706,-1.7688286,0.6221772,nan,0.5715461,3.8621278,0.46404403,0.82037723,0.103554815,inf,inf,inf,inf,0,1,0,1,1,0,1,0,4,0,0,0,0
369036113,369033625,0,nan,nan,-1.672021,1.2098193,-7.601636,0.0,0.0,0.0,-0.7167933,0.42874515,0.70078194,-0.021109203,0.0011172326,0.008942618,0.0,-0.06975406,0.016211582,0.6600577,-1.8437821,0.6221772,nan,0.62413883,3.7742326,0.46155298,0.80590457,0.1034936,inf,inf,inf,inf,0,1,0,1,1,0,1,0,4,0,0,0,0
369533680,369532936,0,nan,nan,-1.7218467,1.3838401,-7.661912,0.0,0.0,0.0,-0.7066761,0.4724629,0.36176777,-0.34166765,0.0011172326,0.008942618,0.0,0.1938921,0.07659331,-0.6246411,-1.9306104,0.6221772,nan,0.68441486,3.8264544,0.46315894,0.8149211,0.104085624,inf,inf,inf,inf,0,1,0,1,1,0,1,0,4,0,0,0,0
370032989,370032249,0,nan,nan,-1.7676324,1.5696014,-7.7804255,0.0,0.0,0.0,-0.7570815,0.6169642,0.55116403,-0.12974788,0.0011172326,0.008942618,0.0,-0.20852327,0.2110463,0.8879627,-2.039782,0.6221772,nan,0.80292845,3.879773,0.46487054,0.8215108,0.104638726,inf,inf,inf,inf,0,1,0,1,1,0,1,0,4,0,0,0,0
370537298,370536548,0,nan,nan,-1.7655342,1.6377841,-7.7087693,0.0,0.0,0.0,-0.70852464,0.6463717,0.7862809,0.14876753,0.0011172326,0.008942618,0.0,0.15298255,-0.039910574,0.059753124,-2.1210985,0.6221772,nan,0.7312722,3.7913492,0.4625325,0.8059953,0.1045159,inf,inf,inf,inf,0,1,0,1,1,0,1,0,4,0,0,0,0
371036803,371035858,0,nan,nan,-1.7108684,1.605128,-7.5710344,0.0,0.0,0.0,-0.5906452,0.6328256,1.0318947,0.4106083,0.0011172326,0.008942618,0.0,0.005002376,0.10793855,0.54928553,-2.1315641,0.6221772,nan,0.59353733,3.8439486,0.46429253,0.8115645,0.10472547,inf,inf,inf,inf,0,1,0,1,1,0,1,0,4,0,0,0,0
371536115,371535169,0,nan,nan,-1.6529227,1.6515875,-7.37435,0.0,0.0,0.0,-0.47627613,0.65363973,0.7937324,0.17466539,0.0011172326,0.008942618,0.0,0.33556736,0.18407436,-1.1825134,-2.0721726,0.6221772,nan,0.39685297,3.756815,0.46593103,0.7990932,0.104859196,inf,inf,inf,inf,0,1,0,1,1,0,1,0,4,0,0,0,0
372035263,372034479,0,nan,nan,-1.551196,1.7205967,-7.3448687,0.0,0.0,0.0,-0.3784289,0.69845587,0.62802845,0.012715379,0.0011172326,0.008942618,0.0,0.13448402,0.22583497,-0.14543039,-2.033217,0.6221772,nan,0.36737156,3.809167,0.46345606,0.8082356,0.104495846,inf,inf,inf,inf,0,1,0,1,1,0,1,0,4,0,0,0,0
372534670,372533791,0,nan,nan,-1.4334619,1.8288097,-7.3323717,0.0,0.0,0.0,-0.25180414,0.7001205,0.6232266,0.015799668,0.0011172326,0.008942618,0.0,0.21106228,-0.044487488,0.33759484,-2.0263484,0.6221772,nan,0.3548746,3.8621325,0.46498975,0.81533307,0.104451954,inf,inf,inf,inf,0,1,0,1,1,0,1,0,4,0,0,0,0
373033834,373033099,0,nan,nan,-1.2703149,1.9105318,-7.2813144,0.0,0.0,0.0,-0.11104213,0.69879895,0.8500452,0.2508522,0.0011172326,0.008942618,0.0,0.05156154,0.102774374,0.703956,-2.0233927,0.6221772,nan,0.30381727,3.7748437,0.46643978,0.8003701,0.10424271,inf,inf,inf,inf,0,1,0,1,1,0,1,0,4,0,0,0,0
374032422,374031719,0,nan,nan,-0.81598103,2.011754,-7.2668147,0.0,0.0,0.0,0.1903494,0.655158,0.76326835,0.12948705,0.0011172326,0.008942618,0.0,-0.16012791,0.42402443,1.590313,-2.0305362,0.6221772,nan,0.2893176,3.8786912,0.46485645,0.8142949,0.103234075,inf,inf,inf,inf,0,1,0,1,1,0,1,0,4,0,0,0,0
375036035,375035333,0,nan,nan,-0.30216935,2.1021297,-7.0086412,0.0,0.0,0.0,0.3830164,0.82535845,1.0065458,0.32187623,0.0011172326,0.008942618,0.0,-0.065581635,0.40970123,-0.2786905,-2.0222344,0.6221772,nan,0.1,3.8408449,0.46284258,0.8046191,0.10207546,inf,inf,inf,inf,0,1,0,1,1,0,1,0,4,0,0,0,0
375535656,375534706,0,nan,nan,-0.05493849,2.2004488,-6.9268866,0.0,0.0,0.0,0.41916776,0.9791503,0.97012365,0.24875529,0.0011172326,0.008942618,0.0,0.010800696,0.30321035,0.18405174,-1.9381357,0.6221772,nan,0.1,3.7542617,0.4638156,0.791831,0.1018466,inf,inf,inf,inf,0,1,0,1,1,0,1,0,4,0,0,0,0
376034750,376033950,0,nan,nan,0.1768971,2.310716,-6.920851,0.0,0.0,0.0,0.47486663,1.0422436,0.6053028,-0.14708687,0.0011172326,0.008942618,0.0,-0.16738379,0.1997357,0.20804629,-1.90128,0.6221772,nan,0.1,3.8052518,0.4647197,0.8001757,0.101692386,inf,inf,inf,inf,0,1,0,1,1,0,1,0,4,0,0,0,0
376534068,376533260,0,nan,nan,0.40206012,2.4254007,-7.005153,0.0,0.0,0.0,0.57588243,1.0750372,0.75700545,-0.012336213,0.0011172326,0.008942618,0.0,0.33147705,0.25821483,0.38277426,-1.9167416,0.6221772,nan,0.11891985,3.8573895,0.46153787,0.80639845,0.10103685,inf,inf,inf,inf,0,1,0,1,1,0,1,0,4,0,0,0,0
377033383,377032569,0,nan,nan,0.64810354,2.5263367,-7.0369277,0.0,0.0,0.0,0.7325923,1.1149215,0.79038256,0.0048606736,0.0011172326,0.008942618,0.0,0.28805894,0.034736145,0.30905804,-1.931435,0.6221772,nan,0.15069437,3.7705996,0.4623889,0.7932748,0.10094919,inf,inf,inf,inf,0,1,0,1,1,0,1,0,4,0,0,0,0
378032257,378031186,0,nan,nan,1.1717244,2.6550527,-7.105567,0.0,0.0,0.0,0.8805973,0.9817365,0.8881109,0.102333,0.0011172326,0.008942618,0.0,-0.027993806,0.17085263,1.2073382,-1.929843,0.6221772,nan,0.21933365,3.7360623,0.46003196,0.7882081,0.1002674,inf,inf,inf,inf,0,1,0,1,1,0,1,0,4,0,0,0,0
379035725,379034844,0,nan,nan,1.507351,2.5641162,-6.935858,0.0,0.0,0.0,0.8737787,0.73518384,0.74272656,-0.050649468,0.0011172326,0.008942618,0.0,0.3526486,0.017562078,-0.36208835,-1.929654,0.6221772,nan,0.1,3.838096,0.46167937,0.80391407,0.10008418,inf,inf,inf,inf,0,1,0,1,1,0,1,0,4,0,0,0,0
380034357,380033417,0,nan,nan,1.7216239,2.2954814,-7.07554,0.0,0.0,0.0,0.7570868,0.630269,0.51608914,-0.2754399,0.0011172326,0.008942618,0.0,-0.2900003,-0.0258243,0.020924136,-1.9253688,0.6221772,nan,0.18930674,3.8075955,0.4595057,0.8041685,0.09964896,inf,inf,inf,inf,0,1,0,1,1,0,1,0,4,0,0,0,0
381032726,381032035,0,nan,nan,1.7528908,2.065488,-7.1784563,0.0,0.0,0.0,0.71874046,0.58958113,0.8542278,0.06423996,0.0011172326,0.008942618,0.0,0.2084984,0.043075744,-0.3094721,-1.9262629,0.6221772,nan,0.29222298,3.778322,0.4573922,0.80052286,0.09922868,inf,inf,inf,inf,0,1,0,1,1,0,1,0,4,0,0,0,0
382031378,382030657,0,nan,nan,1.8085299,1.8565835,-7.2806435,0.0,0.0,0.0,0.7529946,0.5258738,0.75628,-0.026313493,0.0011172326,0.008942618,0.0,0.13371034,0.13582213,0.42666534,-1.9244769,0.6221772,nan,0.39441013,3.750326,0.45935863,0.80196863,0.099471524,inf,inf,inf,inf,0,1,0,1,1,0,1,0,4,0,0,0,0
383035042,383034263,0,nan,nan,1.8455616,1.7090383,-7.1511407,0.0,0.0,0.0,0.7336382,0.5124188,0.7522587,-0.023057634,0.0011172326,0.008942618,0.0,-0.120804176,-0.0679373,-0.107488945,-1.9249023,0.6221772,nan,0.26490736,3.8623645,0.45759624,0.8224538,0.09933562,inf,inf,inf,inf,0,1,0,1,1,0,1,0,4,0,0,0,0
383534380,383533571,0,nan,nan,1.7968951,1.6304301,-7.2276654,0.0,0.0,0.0,0.5782662,0.46776068,0.5527502,-0.22090654,0.0011172326,0.008942618,0.0,0.028157977,0.13942304,0.63741493,-1.9191959,0.6221772,nan,0.3414321,3.7814336,0.45872086,0.81611794,0.09950538,inf,inf,inf,inf,0,1,0,1,1,0,1,0,4,0,0,0,0
384033664,384032880,0,nan,nan,1.6984631,1.5848532,-7.24965,0.0,0.0,0.0,0.425868,0.5618599,0.8598435,0.091883324,0.0011172326,0.008942618,0.0,-0.2992194,0.43925846,0.33760476,-1.9169253,0.6221772,nan,0.36341667,3.8391988,0.45597172,0.8239234,0.09918218,inf,inf,inf,inf,0,1,0,1,1,0,1,0,4,0,0,0,0
385032300,385031496,0,nan,nan,1.4031476,1.583252,-7.23737,0.0,0.0,0.0,0.31932256,0.58435124,0.80446476,0.049682986,0.0011172326,0.008942618,0.0,0.45359558,0.42698312,0.30808493,-1.9339947,0.6221772,nan,0.35113668,3.8159258,0.4583496,0.82564265,0.09966092,inf,inf,inf,inf,0,1,0,1,1,0,1,0,4,0,0,0,0
386035793,386035106,0,nan,nan,1.2693563,1.5236249,-7.1858377,0.0,0.0,0.0,0.43455112,0.5097356,0.95131063,0.21277513,0.0011172326,0.008942618,0.0,0.013494053,-0.11126817,-0.20277694,-1.7808188,0.6221772,nan,0.29960442,3.7934735,0.45694333,0.82612556,0.09968726,inf,inf,inf,inf,0,1,0,1,1,0,1,0,4,0,0,0,0
386535222,386534414,0,nan,nan,1.224406,1.4587271,-7.1298137,0.0,0.0,0.0,0.37444234,0.46853587,0.7114601,-0.020596769,0.0011172326,0.008942618,0.0,-0.18473744,-0.06458093,-0.013289284,-1.787518,0.6221772,nan,0.24358034,3.8530767,0.45826703,0.83856755,0.0999197,inf,inf,inf,inf,0,1,0,1,1,0,1,0,4,0,0,0,0
387034787,387033722,0,nan,nan,1.1536497,1.3828977,-7.114636,0.0,0.0,0.0,0.27879512,0.35926485,0.8842327,0.15398452,0.0011172326,0.008942618,0.0,-0.03557583,-0.21437235,0.33389887,-1.8143557,0.6221772,nan,0.22840261,3.7724845,0.45571363,0.8280503,0.0996054,inf,inf,inf,inf,0,1,0,1,1,0,1,0,4,0,0,0,0
387533722,387533030,0,nan,nan,1.0534507,1.2325056,-7.093421,0.0,0.0,0.0,0.28750232,0.1942745,0.60650426,-0.12962477,0.0011172326,0.008942618,0.0,0.17876253,-0.4243273,-1.1047705,-1.8425024,0.6221772,nan,0.20718765,3.8318744,0.45702755,0.8400565,0.09977882,inf,inf,inf,inf,0,1,0,1,1,0,1,0,4,0,0,0,0
388033325,388032338,0,nan,nan,0.9873873,1.0382534,-7.1466765,0.0,0.0,0.0,0.26962802,0.046676423,0.7742011,0.037199657,0.0011172326,0.008942618,0.0,-0.0064299167,-0.19033062,0.5914938,-1.8152235,0.6221772,nan,0.2604432,3.8930228,0.45833358,0.85021746,0.0999246,inf,inf,inf,inf,0,1,0,1,1,0,1,0,4,0,0,0,0
388532436,388531651,0,nan,nan,0.89864165,0.8089934,-7.181687,0.0,0.0,0.0,0.17877014,-0.095280625,0.6102461,-0.1369834,0.0011172326,0.008942618,0.0,-0.13734676,-0.2784696,0.3650076,-1.794805,0.6221772,nan,0.29545355,3.8101025,0.4557543,0.84033126,0.099662796,inf,inf,inf,inf,0,1,0,1,1,0,1,0,4,0,0,0,0
389031793,389030955,0,nan,nan,0.7945689,0.5472275,-7.24003,0.0,0.0,0.0,0.14302836,-0.24028705,0.76391995,0.012451914,0.0011172326,0.008942618,0.0,0.05471329,-0.11247526,1.0757278,-1.7907902,0.6221772,nan,0.35379648,3.8704562,0.45707366,0.8497598,0.099849604,inf,inf,inf,inf,0,1,0,1,1,0,1,0,4,0,0,0,0
389531083,389530267,0,nan,nan,0.70549744,0.2943329,-7.2067065,0.0,0.0,0.0,0.123811305,-0.28859568,0.8119226,0.057996582,0.0011172326,0.008942618,0.0,0.050795227,-0.15582445,-0.53778476,-1.8018292,0.6221772,nan,0.3204732,3.9310367,0.45838916,0.8577867,0.10004911,inf,inf,inf,inf,0,1,0,1,1,0,1,0,4,0,0,0,0
390035380,390034562,0,nan,nan,0.6079589,0.051882993,-7.255127,0.0,0.0,0.0,0.083304286,-0.36846307,0.5861976,-0.16883388,0.0011172326,0.008942618,0.0,0.009324861,0.03252436,-0.17584665,-1.8142718,0.6221772,nan,0.36889362,3.8461883,0.45583323,0.84907186,0.09992959,inf,inf,inf,inf,0,1,0,1,1,0,1,0,4,0,0,0,0
390534563,390533871,0,nan,nan,0.5084058,-0.17677934,-7.3478694,0.0,0.0,0.0,0.027348408,-0.4131248,0.53348297,-0.20105317,0.0011172326,0.008942618,0.0,-0.03173067,0.17014314,0.6369202,-1.8193026,0.6221772,nan,0.46163607,3.9078207,0.45726812,0.85967374,0.1002303,inf,inf,inf,inf,0,1,0,1,1,0,1,0,4,0,0,0,0
391033986,391033177,0,nan,nan,0.4171648,-0.34898078,-7.3670354,0.0,0.0,0.0,0.0392876,-0.35897455,0.6790674,-0.033023395,0.0011172326,0.008942618,0.0,0.074542485,0.0630683,-0.6716893,-1.8152033,0.6221772,nan,0.48080206,3.823131,0.4587054,0.84517425,0.10044552,inf,inf,inf,inf,0,1,0,1,1,0,1,0,4,0,0,0,0
391533310,391532498,0,nan,nan,0.34266567,-0.4652542,-7.4215302,0.0,0.0,0.0,0.021530561,-0.30303845,0.4947978,-0.20155665,0.0011172326,0.008942618,0.0,-0.1023249,0.20154318,0.14037035,-1.812996,0.6221772,nan,0.5352969,3.8831313,0.4562439,0.8563198,0.100283735,inf,inf,inf,inf,0,1,0,1,1,0,1,0,4,0,0,0,0
392032481,392031791,0,nan,nan,0.27772832,-0.50769603,-7.5023746,0.0,0.0,0.0,0.029863214,-0.1706913,0.5535559,-0.1298948,0.0011172326,0.008942618,0.0,-0.03163626,0.1392723,0.6128802,-1.8147622,0.6221772,nan,0.6161413,3.9440596,0.4576938,0.8651657,0.10051095,inf,inf,inf,inf,0,1,0,1,1,0,1,0,4,0,0,0,0
392532022,392531098,0,nan,nan,0.21915457,-0.4857793,-7.5201135,0.0,0.0,0.0,0.0031992826,-0.103421435,0.68142444,0.004114816,0.0011172326,0.008942618,0.0,0.006215891,0.043684673,-0.12441666,-1.8153497,0.6221772,nan,0.63388014,3.8561258,0.45910758,0.8497911,0.10066733,inf,inf,inf,inf,0,1,0,1,1,0,1,0,4,0,0,0,0
393036083,393035400,0,nan,nan,0.1595851,-0.439872,-7.4904947,0.0,0.0,0.0,-0.014061571,-0.064917125,0.7480011,0.07947404,0.0011172326,0.008942618,0.0,-0.07512965,-0.061390325,0.14845544,-1.8151042,0.6221772,nan,0.6042614,3.9159925,0.45663384,0.8580314,0.10037838,inf,inf,inf,inf,0,1,0,1,1,0,1,0,4,0,0,0,0
393535639,393534706,0,nan,nan,0.0963636,-0.3933173,-7.4833865,0.0,0.0,0.0,-0.057454474,-0.044465043,0.5808095,-0.077940576,0.0011172326,0.008942618,0.0,-0.16636363,0.12788932,-0.009149419,-1.7970351,0.6221772,nan,0.5971532,3.828445,0.45806733,0.84574896,0.10055019,inf,inf,inf,inf,0,1,0,1,1,0,1,0,4,0,0,0,0
394034754,394034013,0,nan,nan,0.0017904264,-0.33997786,-7.498768,0.0,0.0,0.0,-0.16416197,-0.0010566094,0.6064005,-0.03900881,0.0011172326,0.008942618,0.0,-0.16054356,0.0106851095,0.59968966,-1.7406512,0.6221772,nan,0.6125345,3.8871539,0.45951757,0.8541321,0.100658424,inf,inf,inf,inf,0,1,0,1,1,0,1,0,4,0,0,0,0
395033419,395032633,0,nan,nan,-0.27014488,-0.25095615,-7.464896,0.0,0.0,0.0,-0.36896056,0.06647442,0.4824163,-0.14925863,0.0011172326,0.008942618,0.0,-0.17651457,0.33458713,-0.43155196,-1.7408111,0.6221772,nan,0.5786629,3.855865,0.45826465,0.84858423,0.100213334,inf,inf,inf,inf,0,1,0,1,1,0,1,0,4,0,0,0,0
395532669,395531933,0,nan,nan,-0.4319925,-0.1618592,-7.5176497,0.0,0.0,0.0,-0.4116079,0.12204289,0.6245543,0.0014734179,0.0011172326,0.008942618,0.0,0.027600937,0.059115615,0.74207157,-1.7514923,0.6221772,nan,0.6314163,3.913975,0.4595377,0.8565892,0.100149676,inf,inf,inf,inf,0,1,0,1,1,0,1,0,4,0,0,0,0
396032114,396031244,0,nan,nan,-0.5744223,-0.076616004,-7.4742208,0.0,0.0,0.0,-0.41055286,0.13287674,0.79530627,0.1700204,0.0011172326,0.008942618,0.0,-0.03425269,0.12432765,0.1632194,-1.7561916,0.6221772,nan,0.5879874,3.9718509,0.4567858,0.8619374,0.09949527,inf,inf,inf,inf,0,1,0,1,1,0,1,0,4,0,0,0,0
396536265,396535539,0,nan,nan,-0.68123287,-0.007988786,-7.367276,0.0,0.0,0.0,-0.39151713,0.09183955,1.0223706,0.38147753,0.0011172326,0.008942618,0.0,-0.116837926,-0.27794412,0.5411924,-1.7448162,0.6221772,nan,0.48104286,3.879061,0.45788252,0.8451642,0.09928559,inf,inf,inf,inf,0,1,0,1,1,0,1,0,4,0,0,0,0
397035782,397034847,0,nan,nan,-0.75359076,0.007341325,-7.217809,0.0,0.0,0.0,-0.37645262,-0.031779673,0.9241118,0.26086032,0.0011172326,0.008942618,0.0,-0.06305352,-0.2732114,-1.0557187,-1.743696,0.6221772,nan,0.33157587,3.9357986,0.4550358,0.8531708,0.09863545,inf,inf,inf,inf,0,1,0,1,1,0,1,0,4,0,0,0,0
397534960,397534153,0,nan,nan,-0.8100764,-0.054612428,-7.2007775,0.0,0.0,0.0,-0.38320562,-0.18812208,0.7102235,0.03057368,0.0011172326,0.008942618,0.0,-0.08958789,-0.3194553,0.39320457,-1.7433707,0.6221772,nan,0.3145442,3.8450375,0.45602533,0.84171164,0.09849991,inf,inf,inf,inf,0,1,0,1,1,0,1,0,4,0,0,0,0
398034330,398033465,0,nan,nan,-0.85537136,-0.18939699,-7.231334,0.0,0.0,0.0,-0.39185837,-0.340739,0.7127152,0.0005814944,0.0011172326,0.008942618,0.0,-0.024496773,-0.17534412,-0.141152,-1.7544361,0.6221772,nan,0.34510088,3.9016078,0.45694354,0.84877735,0.09835456,inf,inf,inf,inf,0,1,0,1,1,0,1,0,4,0,0,0,0
398533510,398532769,0,nan,nan,-0.8974644,-0.37488756,-7.2101884,0.0,0.0,0.0,-0.38464385,-0.488217,0.9954186,0.2562929,0.0011172326,0.008942618,0.0,-0.12195715,-0.29181436,0.64576364,-1.7680373,0.6221772,nan,0.32395506,3.958276,0.45784408,0.8538796,0.09824417,inf,inf,inf,inf,0,1,0,1,1,0,1,0,4,0,0,0,0
399033057,399032071,0,nan,nan,-0.91331285,-0.5966254,-7.1465015,0.0,0.0,0.0,-0.37254003,-0.63843554,0.8161255,0.040793993,0.0011172326,0.008942618,0.0,0.06527733,-0.08324592,-0.891912,-1.7779868,0.6221772,nan,0.2602682,3.8651104,0.45481104,0.8389181,0.09777787,inf,inf,inf,inf,0,1,0,1,1,0,1,0,4,0,0,0,0
399532107,399531377,0,nan,nan,-0.9253117,-0.8376071,-7.2042847,0.0,0.0,0.0,-0.36519265,-0.7302784,0.77032053,-0.027904635,0.0011172326,0.008942618,0.0,-0.038638122,-0.24664898,0.5274595,-1.782046,0.6221772,nan,0.31805134,3.9207187,0.45565367,0.84798676,0.097821146,inf,inf,inf,inf,0,1,0,1,1,0,1,0,4,0,0,0,0
400031431,400030684,0,nan,nan,-0.92405736,-1.0744449,-7.1833153,0.0,0.0,0.0,-0.34979066,-0.7855113,0.97971004,0.16395111,0.0011172326,0.008942618,0.0,-0.04554494,-0.1291429,-0.13704334,-1.7848291,0.6221772,nan,0.29708195,3.8284724,0.45652807,0.8302219,0.09783736,inf,inf,inf,inf,0,1,0,1,1,0,1,0,4,0,0,0,0
400535858,400535037,0,nan,nan,-0.9116608,-1.2573751,-7.1764665,0.0,0.0,0.0,-0.36885846,-0.7452684,0.75405645,-0.078789346,0.0011172326,0.008942618,0.0,0.06449454,0.117799185,-0.83036304,-1.7722832,0.6221772,nan,0.29023314,3.8835018,0.45360202,0.83934313,0.09747963,inf,inf,inf,inf,0,1,0,1,1,0,1,0,4,0,0,0,0
401034994,401034291,0,nan,nan,-0.93550456,-1.38205,-7.2646995,0.0,0.0,0.0,-0.4971586,-0.67824006,0.7232362,-0.11309793,0.0011172326,0.008942618,0.0,-0.82861376,0.24902,0.58189744,-1.7669078,0.6221772,nan,0.37846613,3.9397814,0.45460793,0.8481291,0.09758993,inf,inf,inf,inf,0,1,0,1,1,0,1,0,4,0,0,0,0
401534524,401533602,0,nan,nan,-1.063076,-1.4039768,-7.262162,0.0,0.0,0.0,-0.73395485,-0.5192791,0.9282654,0.109668836,0.0011172326,0.008942618,0.0,-0.2984544,0.24490446,0.33933428,-1.7726642,0.6221772,nan,0.37592888,3.848149,0.45563307,0.83117694,0.097683415,inf,inf,inf,inf,0,1,0,1,1,0,1,0,4,0,0,0,0
402033695,402032900,0,nan,nan,-1.2398148,-1.3724978,-7.147405,0.0,0.0,0.0,-0.7553101,-0.49094462,1.0346394,0.23221351,0.0011172326,0.008942618,0.0,0.026128884,-0.17568196,-0.07159299,-1.7819036,0.6221772,nan,0.26117182,3.9022374,0.4528369,0.83656716,0.097343825,inf,inf,inf,inf,0,1,0,1,1,0,1,0,4,0,0,0,0
403032240,403031516,0,nan,nan,-1.4391248,-1.3342239,-7.1236987,0.0,0.0,0.0,-0.61049914,-0.56331444,0.6312891,-0.13890311,0.0011172326,0.008942618,0.0,0.17439637,-0.20485745,0.5784216,-1.7906032,0.6221772,nan,0.23746538,3.864905,0.45501435,0.83406395,0.097609155,inf,inf,inf,inf,0,1,0,1,1,0,1,0,4,0,0,0,0
403531816,403530820,0,nan,nan,-1.4469386,-1.3425367,-7.1310163,0.0,0.0,0.0,-0.52216154,-0.5809327,0.86617243,0.10211917,0.0011172326,0.008942618,0.0,-0.100575946,-0.13546985,0.027324054,-1.7844825,0.6221772,nan,0.24478292,3.9196372,0.45231375,0.8385404,0.09724902,inf,inf,inf,inf,0,1,0,1,1,0,1,0,4,0,0,0,0
404035851,404035115,0,nan,nan,-1.4108589,-1.3413525,-7.0686865,0.0,0.0,0.0,-0.46850464,-0.55128855,0.9468164,0.18809466,0.0011172326,0.008942618,0.0,0.02262758,-0.15469593,0.319705,-1.7820619,0.6221772,nan,0.18245316,3.828635,0.4534392,0.823791,0.09736407,inf,inf,inf,inf,0,1,0,1,1,0,1,0,4,0,0,0,0
404535330,404534421,0,nan,nan,-1.3520228,-1.3238878,-7.0340924,0.0,0.0,0.0,-0.39460385,-0.47156808,0.62367916,-0.12935047,0.0011172326,0.008942618,0.0,0.24269354,0.16097444,-0.86711675,-1.7799656,0.6221772,nan,0.1478591,3.883029,0.45460868,0.8330593,0.09751986,inf,inf,inf,inf,0,1,0,1,1,0,1,0,4,0,0,0,0
405034415,405033726,0,nan,nan,-1.2767661,-1.2818918,-7.1554356,0.0,0.0,0.0,-0.34728932,-0.4288954,0.55631596,-0.19360249,0.0011172326,0.008942618,0.0,-0.16891755,-0.24110335,0.50839466,-1.7750905,0.6221772,nan,0.26920223,3.9390953,0.4519876,0.84281474,0.09725634,inf,inf,inf,inf,0,1,0,1,1,0,1,0,4,0,0,0,0
406033276,406032336,0,nan,nan,-1.0867698,-1.1832244,-7.171597,0.0,0.0,0.0,-0.28816968,-0.349738,0.737061,0.0018631162,0.0011172326,0.008942618,0.0,0.12885554,0.014354993,-0.6764703,-1.7966386,0.6221772,nan,0.28536367,3.9026554,0.45439488,0.83308536,0.09752151,inf,inf,inf,inf,0,1,0,1,1,0,1,0,4,0,0,0,0
406532329,406531641,0,nan,nan,-1.0203556,-1.0916904,-7.2429576,0.0,0.0,0.0,-0.31401846,-0.22700408,0.57781655,-0.15341803,0.0011172326,0.008942618,0.0,-0.03175938,0.05031457,0.67520595,-1.8663127,0.6221772,nan,0.35672426,3.8125217,0.45179668,0.8216715,0.097274505,inf,inf,inf,inf,0,1,0,1,1,0,1,0,4,0,0,0,0
407033317,407030949,0,nan,nan,-0.96900064,-0.9635527,-7.280673,0.0,0.0,0.0,-0.29202986,-0.16333961,0.64562,-0.07962495,0.0011172326,0.008942618,0.0,0.23365946,0.21720786,-0.38289675,-1.9783204,0.6221772,nan,0.3944397,3.865329,0.4530094,0.8267349,0.09740623,inf,inf,inf,inf,0,1,0,1,1,0,1,0,4,0,0,0,0
407531069,407530260,0,nan,nan,-1.0697984,-0.36377364,-7.393438,0.0,0.0,0.0,-0.432947,0.19694476,0.40566802,-0.32137263,0.0011172326,0.008942618,0.0,-0.28285,0.5518528,-0.01490948,-2.1132674,0.6221772,nan,0.50720453,3.9110491,0.45421684,0.8322042,0.09761741,inf,inf,inf,inf,0,1,0,1,1,0,1,0,4,0,0,0,0
408036912,408034550,0,nan,nan,-1.2260134,0.22703917,-7.514759,0.0,0.0,0.0,-0.48891523,0.39593676,0.68880546,-0.030486554,0.0011172326,0.008942618,0.0,-0.049285673,0.048140895,0.78646284,-2.2314222,0.6221772,nan,0.62852573,3.8174117,0.45165268,0.814946,0.09739064,inf,inf,inf,inf,0,1,0,1,1,0,1,0,4,0,0,0,0
408534613,408533853,0,nan,nan,-1.3545033,0.51046777,-7.448881,0.0,0.0,0.0,-0.5656211,0.50740904,0.89626944,0.19390303,0.0011172326,0.008942618,0.0,-0.12727885,0.34295455,-0.10164936,-2.3223014,0.6221772,nan,0.5626478,3.868588,0.4529363,0.8182092,0.09758605,inf,inf,inf,inf,0,1,0,1,1,0,1,0,4,0,0,0,0
409035695,409033158,0,nan,nan,-1.5171684,0.71196645,-7.3353615,0.0,0.0,0.0,-0.61566114,0.5165455,0.94446933,0.25330743,0.0011172326,0.008942618,0.0,-0.3620156,0.016059345,-0.17731549,-2.44547,0.6221772,nan,0.44912815,3.7783217,0.45046538,0.8036298,0.09739801,inf,inf,inf,inf,0,1,0,1,1,0,1,0,4,0,0,0,0
410032546,410031767,0,nan,nan,-1.8564624,0.76846117,-7.1878724,0.0,0.0,0.0,-0.68065345,0.8722005,0.73839235,0.06462342,0.0011172326,0.008942618,0.0,-0.016751656,0.61039275,0.60602534,-2.7824392,0.6221772,nan,0.30163908,3.881265,0.4531678,0.8195211,0.09804753,inf,inf,inf,inf,0,1,0,1,1,0,1,0,4,0,0,0,0
410533440,410531074,0,nan,nan,-1.9664234,0.71768785,-7.1223116,0.0,0.0,0.0,-0.5913319,1.0615709,0.74830467,0.08986604,0.0011172326,0.008942618,0.0,0.31030688,0.48773715,-0.5749954,-2.9662776,0.6221772,nan,0.23607826,3.792289,0.4545521,0.80528235,0.09837827,inf,inf,inf,inf,0,1,0,1,1,0,1,0,4,0,0,0,0
411031109,411030375,0,nan,nan,-2.0041173,0.6474826,-7.0694413,0.0,0.0,0.0,-0.58624727,0.9465284,0.6548461,0.012296535,0.0011172326,0.008942618,0.0,-0.2095095,-0.10966155,-0.454884,-3.1199658,0.6221772,nan,0.18320799,3.844357,0.45213255,0.8132467,0.0981296,inf,inf,inf,inf,0,1,0,1,1,0,1,0,4,0,0,0,0
411537270,411534673,0,nan,nan,-1.9903201,0.46294284,-7.117605,0.0,0.0,0.0,-0.6527312,0.76629555,0.42172158,-0.21242516,0.0011172326,0.008942618,0.0,-0.18613057,-0.026762275,0.30743465,3.0982368,0.6221772,nan,0.23137188,3.7572632,0.4535227,0.8029383,0.09823323,inf,inf,inf,inf,0,1,0,1,1,0,1,0,4,0,0,0,0
412034803,412033976,0,nan,nan,-1.8925794,0.25070193,-7.135823,0.0,0.0,0.0,-0.66140187,0.59245867,0.7448361,0.11612181,0.0011172326,0.008942618,0.0,-0.25124362,-0.015853183,0.21683726,3.0464342,0.6221772,nan,0.24958944,3.8101733,0.45112792,0.8080383,0.097779475,inf,inf,inf,inf,0,1,0,1,1,0,1,0,4,0,0,0,0
413033387,413032585,0,nan,nan,-1.4686414,-0.03516779,-7.1414304,0.0,0.0,0.0,-0.56911397,0.37422058,0.85044473,0.19840916,0.0011172326,0.008942618,0.0,0.00034247158,-0.16554645,0.9928216,2.8879666,0.6221772,nan,0.25519705,3.776221,0.4537543,0.8017545,0.0977416,inf,inf,inf,inf,0,1,0,1,1,0,1,0,4,0,0,0,0
413532764,413531889,0,nan,nan,-1.301565,-0.07171151,-7.015886,0.0,0.0,0.0,-0.4804743,0.26909164,0.8911596,0.2224722,0.0011172326,0.008942618,0.0,-0.05073853,-0.043873817,-0.9872379,2.883672,0.6221772,nan,0.1296525,3.827976,0.45494887,0.8065642,0.09762408,inf,inf,inf,inf,0,1,0,1,1,0,1,0,4,0,0,0,0
414031972,414031192,0,nan,nan,-1.2529861,0.0009843061,-7.0664115,0.0,0.0,0.0,-0.4655267,0.26692712,0.5274946,-0.16497791,0.0011172326,0.008942618,0.0,0.006037046,-0.13702767,0.4731037,2.8996058,0.6221772,nan,0.18017817,3.8809984,0.45226312,0.8177046,0.09722251,inf,inf,inf,inf,0,1,0,1,1,0,1,0,4,0,0,0,0
414531264,414530537,0,nan,nan,-1.2056572,0.012938542,-7.103661,0.0,0.0,0.0,-0.47541317,0.10076072,0.79503155,0.08202558,0.0011172326,0.008942618,0.0,-0.21714288,-0.51517457,-0.27391776,2.9213052,0.6221772,nan,0.21742773,3.793532,0.4533461,0.8017709,0.09714983,inf,inf,inf,inf,0,1,0,1,1,0,1,0,4,0,0,0,0
415035691,415034799,0,nan,nan,-1.173988,-0.14275523,-7.13129,0.0,0.0,0.0,-0.5526983,-0.17916757,0.71496564,-0.017614903,0.0011172326,0.008942618,0.0,-0.1762478,-0.31756255,0.6859583,2.9214976,0.6221772,nan,0.24505663,3.8453238,0.45440626,0.80866855,0.09716817,inf,inf,inf,inf,0,1,0,1,1,0,1,0,4,0,0,0,0
415535019,415534096,0,nan,nan,-1.1607338,-0.38896707,-7.0965395,0.0,0.0,0.0,-0.55898744,-0.3654102,0.8546691,0.119620845,0.0011172326,0.008942618,0.0,-0.21456608,-0.221543,-0.6306678,2.903603,0.6221772,nan,0.21030617,3.7590973,0.45170003,0.7937627,0.0967989,inf,inf,inf,inf,0,1,0,1,1,0,1,0,4,0,0,0,0
416533481,416532703,0,nan,nan,-1.2241153,-0.9043738,-7.082311,0.0,0.0,0.0,-0.53428626,-0.5811473,0.70952,-0.0010669864,0.0011172326,0.008942618,0.0,0.015481544,-0.07016384,-0.98036987,2.9086185,0.6221772,nan,0.19607782,3.8626964,0.45015085,0.8071582,0.09663,inf,inf,inf,inf,0,1,0,1,1,0,1,0,4,0,0,0,0
417032919,417032006,0,nan,nan,-1.2221999,-1.0943048,-7.0984216,0.0,0.0,0.0,-0.44800872,-0.5846737,0.72901607,0.018171446,0.0011172326,0.008942618,0.0,0.049886916,0.05004869,-0.09765836,2.9114683,0.6221772,nan,0.21218824,3.7755084,0.45129642,0.79394954,0.096747026,inf,inf,inf,inf,0,1,0,1,1,0,1,0,4,0,0,0,0
417532064,417531310,0,nan,nan,-1.1822659,-1.2241789,-7.086055,0.0,0.0,0.0,-0.35530713,-0.597819,0.6935909,-0.0018189031,0.0011172326,0.008942618,0.0,0.012435747,0.029526003,-0.09850043,2.9132664,0.6221772,nan,0.19982147,3.8264773,0.4524456,0.8003057,0.09686005,inf,inf,inf,inf,0,1,0,1,1,0,1,0,4,0,0,0,0
418031681,418030628,0,nan,nan,-1.1180856,-1.2951199,-7.0807076,0.0,0.0,0.0,-0.27182716,-0.62245023,0.64937496,-0.025534399,0.0011172326,0.008942618,0.0,-0.023990985,-0.011066489,-0.07878174,2.9169133,0.6221772,nan,0.19447422,3.7399182,0.45359382,0.7874975,0.09697313,inf,inf,inf,inf,0,1,0,1,1,0,1,0,4,0,0,0,0
