timestamp,timestamp_sample,gps_hvel[0],gps_hvel[1],gps_vvel,gps_hpos[0],gps_hpos[1],gps_vpos,ev_hvel[0],ev_hvel[1],ev_vvel,ev_hpos[0],ev_hpos[1],ev_vpos,rng_vpos,baro_vpos,aux_hvel[0],aux_hvel[1],aux_vvel,flow[0],flow[1],heading,mag_field[0],mag_field[1],mag_field[2],drag[0],drag[1],airspeed,beta,hagl
293533585,293532518,0.0,0.0,0.0,0.0010957125,0.0,0.0,0.0,0.0,0.0,0.0,0.0,0.0,0.0,4.1757397e-05,0.0,0.0,nan,0.0,0.0,0.032020845,0.0,0.0,0.0,0.0,0.0,0.0,0.0,0.0
293543415,293542498,0.0,0.0,0.0,0.0010957125,0.0,0.0,0.0,0.0,0.0,0.0,0.0,0.0,0.0,4.1757397e-05,0.0,0.0,nan,0.0,0.0,0.032020845,0.0,0.0,0.0,0.0,0.0,0.0,0.0,0.0
294032784,294031828,0.0,0.0,0.0,0.0011070776,0.0,0.0,0.0,0.0,0.0,0.0,0.0,0.0,0.0,0.0005675419,0.0,0.0,nan,0.0,0.0,0.021038143,0.0,0.0,0.0,0.0,0.0,0.0,0.0,0.0
294532204,294531133,0.0,0.0,0.0,0.0011405841,0.0,0.0,0.0,0.0,0.0,0.0,0.0,0.0,0.0,0.0005284742,0.0,0.0,nan,0.0,0.0,0.015895331,0.0,0.0,0.0,0.0,0.0,0.0,0.0,0.0
295031504,295030442,0.0,0.0,0.0,4.9948244e-06,0.0,0.0,0.0,0.0,0.0,0.0,0.0,0.0,0.0,0.00032030873,0.0,0.0,nan,0.0,0.0,0.009611955,0.0,0.0,0.0,0.0,0.0,0.0,0.0,0.0
295535873,295534746,0.0,0.0,0.0,1.2586391e-05,0.0,0.0,0.0,0.0,0.0,0.0,0.0,0.0,0.0,5.5225305e-06,0.0,0.0,nan,0.0,0.0,0.0035669361,0.0,0.0,0.0,0.0,0.0,0.0,0.0,0.0
296034995,296034057,0.0,0.0,0.0,2.1504957e-05,0.0,0.0,0.0,0.0,0.0,0.0,0.0,0.0,0.0,0.00017706302,0.0,0.0,nan,0.0,0.0,0.0010234292,0.0,0.0,0.0,0.0,0.0,0.0,0.0,0.0
296534207,296533370,0.0,0.0,0.0,2.9197045e-05,0.0,0.0,0.0,0.0,0.0,0.0,0.0,0.0,0.0,0.0002918357,0.0,0.0,nan,0.0,0.0,0.0011352753,0.0,0.0,0.0,0.0,0.0,0.0,0.0,0.0
297033702,297032680,0.0,0.0,0.0,4.0053266e-05,0.0,0.0,0.0,0.0,0.0,0.0,0.0,0.0,0.0,2.1934136e-05,0.0,0.0,nan,0.0,0.0,0.009045906,0.0,0.0,0.0,0.0,0.0,0.0,0.0,0.0
297532927,297531990,0.0,0.0,0.0,5.3252534e-05,0.0,0.0,0.0,0.0,0.0,0.0,0.0,0.0,0.0,0.00013120053,0.0,0.0,nan,0.0,0.0,0.018299645,0.0,0.0,0.0,0.0,0.0,0.0,0.0,0.0
298032478,298031301,0.0,0.0,0.0,5.3121323e-05,0.0,0.0,0.0,0.0,0.0,0.0,0.0,0.0,0.0,0.00031836695,0.0,0.0,nan,0.0,0.0,0.032488655,0.0,0.0,0.0,0.0,0.0,0.0,0.0,0.0
298531443,298530613,0.0,0.0,0.0,6.3834006e-05,0.0,0.0,0.0,0.0,0.0,0.0,0.0,0.0,0.0,0.0002931024,0.0,0.0,nan,0.0,0.0,0.1321245,0.0,0.0,0.0,0.0,0.0,0.0,0.0,0.0
299035986,299034921,0.0,0.0,0.0,0.00011843269,0.0,0.0,0.0,0.0,0.0,0.0,0.0,0.0,0.0,0.0005465993,0.0,0.0,nan,0.0,0.0,0.2291058,0.0,0.0,0.0,0.0,0.0,0.0,0.0,0.0
299535076,299534229,0.0,0.0,0.0,0.00019615414,0.0,0.0,0.0,0.0,0.0,0.0,0.0,0.0,0.0,0.00030229214,0.0,0.0,nan,0.0,0.0,0.25957876,0.0,0.0,0.0,0.0,0.0,0.0,0.0,0.0
300034654,300033541,0.0,0.0,0.0,0.00017745275,0.0,0.0,0.0,0.0,0.0,0.0,0.0,0.0,0.0,0.00060655124,0.0,0.0,nan,0.0,0.0,0.26054022,0.0,0.0,0.0,0.0,0.0,0.0,0.0,0.0
300533727,300532895,0.0,0.0,0.0,0.0001356479,0.0,0.0,0.0,0.0,0.0,0.0,0.0,0.0,0.0,0.00023831625,0.0,0.0,nan,0.0,0.0,0.30614352,0.0,0.0,0.0,0.0,0.0,0.0,0.0,0.0
301033080,301032169,0.0,0.0,0.0,0.00037579302,0.0,0.0,0.0,0.0,0.0,0.0,0.0,0.0,0.0,0.0002952987,0.0,0.0,nan,0.0,0.0,0.3552103,0.0,0.0,0.0,0.0,0.0,0.0,0.0,0.0
301532553,301531477,0.0,0.0,0.0,0.000642157,0.0,0.0,0.0,0.0,0.0,0.0,0.0,0.0,0.0,0.00051329756,0.0,0.0,nan,0.0,0.0,0.42673016,0.0,0.0,0.0,0.0,0.0,0.0,0.0,0.0
302031643,302030790,0.0,0.0,0.0,0.001156075,0.0,0.0,0.0,0.0,0.0,0.0,0.0,0.0,0.0,0.0005157504,0.0,0.0,nan,0.0,0.0,0.51183295,0.0,0.0,0.0,0.0,0.0,0.0,0.0,0.0
302531101,302530101,0.0,0.0,0.0,0.0014899136,0.0,0.0,0.0,0.0,0.0,0.0,0.0,0.0,0.0,0.00022057179,0.0,0.0,nan,0.0,0.0,0.5149637,0.0,0.0,0.0,0.0,0.0,0.0,0.0,0.0
303035284,303034408,0.0,0.0,0.0,0.0016690673,0.0,0.0,0.0,0.0,0.0,0.0,0.0,0.0,0.0,0.00017030023,0.0,0.0,nan,0.0,0.0,0.52279276,0.0,0.0,0.0,0.0,0.0,0.0,0.0,0.0
303534692,303533723,0.0,0.0,0.0,0.0017242644,0.0,0.0,0.0,0.0,0.0,0.0,0.0,0.0,0.0,0.00024262586,0.0,0.0,nan,0.0,0.0,0.48181534,0.0,0.0,0.0,0.0,0.0,0.0,0.0,0.0
304033990,304033033,0.0,0.0,0.0,0.0016554246,0.0,0.0,0.0,0.0,0.0,0.0,0.0,0.0,0.0,2.847979e-05,0.0,0.0,nan,0.0,0.0,0.46081147,0.0,0.0,0.0,0.0,0.0,0.0,0.0,0.0
304533460,304532345,0.0,0.0,0.0,0.0014877217,0.0,0.0,0.0,0.0,0.0,0.0,0.0,0.0,0.0,0.0001053249,0.0,0.0,nan,0.0,0.0,0.43294138,0.0,0.0,0.0,0.0,0.0,0.0,0.0,0.0
305032566,305031658,0.0,0.0,0.0,0.0013710669,0.0,0.0,0.0,0.0,0.0,0.0,0.0,0.0,0.0,2.4701345e-05,0.0,0.0,nan,0.0,0.0,0.33897808,0.0,0.0,0.0,0.0,0.0,0.0,0.0,0.0
305531869,305530971,0.0,0.0,0.0,0.0012583599,0.0,0.0,0.0,0.0,0.0,0.0,0.0,0.0,0.0,5.62582e-07,0.0,0.0,nan,0.0,0.0,0.33976555,0.0,0.0,0.0,0.0,0.0,0.0,0.0,0.0
306031292,306030283,0.0,0.0,0.0,0.0010990839,0.0,0.0,0.0,0.0,0.0,0.0,0.0,0.0,0.0,4.4232933e-05,0.0,0.0,nan,0.0,0.0,0.285573,0.0,0.0,0.0,0.0,0.0,0.0,0.0,0.0
306535496,306534591,0.0,0.0,0.0,0.000997285,0.0,0.0,0.0,0.0,0.0,0.0,0.0,0.0,0.0,3.4961948e-05,0.0,0.0,nan,0.0,0.0,0.26229846,0.0,0.0,0.0,0.0,0.0,0.0,0.0,0.0
307035098,307033903,0.0,0.0,0.0,0.0008510107,0.0,0.0,0.0,0.0,0.0,0.0,0.0,0.0,0.0,3.386382e-05,0.0,0.0,nan,0.0,0.0,0.25655654,0.0,0.0,0.0,0.0,0.0,0.0,0.0,0.0
307534092,307533216,0.0,0.0,0.0,0.0007630729,0.0,0.0,0.0,0.0,0.0,0.0,0.0,0.0,0.0,4.188658e-05,0.0,0.0,nan,0.0,0.0,0.22257316,0.0,0.0,0.0,0.0,0.0,0.0,0.0,0.0
308033593,308032530,0.0,0.0,0.0,0.00068454054,0.0,0.0,0.0,0.0,0.0,0.0,0.0,0.0,0.0,0.00013886711,0.0,0.0,nan,0.0,0.0,0.22229974,0.0,0.0,0.0,0.0,0.0,0.0,0.0,0.0
308532800,308531843,0.0,0.0,0.0,0.00065116404,0.0,0.0,0.0,0.0,0.0,0.0,0.0,0.0,0.0,0.0001140097,0.0,0.0,nan,0.0,0.0,0.22446418,0.0,0.0,0.0,0.0,0.0,0.0,0.0,0.0
309032209,309031156,0.0,0.0,0.0,0.00069779955,0.0,0.0,0.0,0.0,0.0,0.0,0.0,0.0,0.0,2.1464613e-05,0.0,0.0,nan,0.0,0.0,0.22225852,0.0,0.0,0.0,0.0,0.0,0.0,0.0,0.0
309531482,309530472,0.0,0.0,0.0,0.0008063435,0.0,0.0,0.0,0.0,0.0,0.0,0.0,0.0,0.0,2.7016404e-05,0.0,0.0,nan,0.0,0.0,0.2521797,0.0,0.0,0.0,0.0,0.0,0.0,0.0,0.0
310035902,310034777,0.0,0.0,0.0,0.0010669525,0.0,0.0,0.0,0.0,0.0,0.0,0.0,0.0,0.0,5.966027e-05,0.0,0.0,nan,0.0,0.0,0.3122639,0.0,0.0,0.0,0.0,0.0,0.0,0.0,0.0
310535127,310534091,0.0,0.0,0.0,0.0013532888,0.0,0.0,0.0,0.0,0.0,0.0,0.0,0.0,0.0,0.00023062996,0.0,0.0,nan,0.0,0.0,0.35873023,0.0,0.0,0.0,0.0,0.0,0.0,0.0,0.0
311034305,311033407,0.0,0.0,0.0,0.0018454528,0.0,0.0,0.0,0.0,0.0,0.0,0.0,0.0,0.0,0.00010179174,0.0,0.0,nan,0.0,0.0,0.3789544,0.0,0.0,0.0,0.0,0.0,0.0,0.0,0.0
312032933,312032032,0.0,0.0,0.0,0.00260889,0.0,0.0,0.0,0.0,0.0,0.0,0.0,0.0,0.0,0.00038967788,0.0,0.0,nan,0.0,0.0,0.0012865443,0.0,0.0,0.0,0.0,0.0,0.0,0.0,0.0
312537361,312536339,0.0,0.0,0.0,0.0031705843,0.0,0.0,0.0,0.0,0.0,0.0,0.0,0.0,0.0,0.0006774123,0.0,0.0,nan,0.0,0.0,9.791421e-06,0.0,0.0,0.0,0.0,0.0,0.0,0.0,0.0
313036553,313035658,0.0,0.0,0.0,0.0035195986,0.0,0.0,0.0,0.0,0.0,0.0,0.0,0.0,0.0,0.001062732,0.0,0.0,nan,0.0,0.0,0.0021878437,0.0,0.0,0.0,0.0,0.0,0.0,0.0,0.0
313536101,313534967,0.0,0.0,0.0,0.004004909,0.0,0.0,0.0,0.0,0.0,0.0,0.0,0.0,0.0,0.0029729155,0.0,0.0,nan,0.0,0.0,0.0032337643,0.0,0.0,0.0,0.0,0.0,0.0,0.0,0.0
314035205,314034312,0.0,0.0,0.0,0.0042203297,0.0,0.0,0.0,0.0,0.0,0.0,0.0,0.0,0.0,0.0035087424,0.0,0.0,nan,0.0,0.0,0.004714988,0.0,0.0,0.0,0.0,0.0,0.0,0.0,0.0
314534753,314533595,0.0,0.0,0.0,0.0042790896,0.0,0.0,0.0,0.0,0.0,0.0,0.0,0.0,0.0,0.0036706096,0.0,0.0,nan,0.0,0.0,0.0013613853,0.0,0.0,0.0,0.0,0.0,0.0,0.0,0.0
315033913,315032909,0.0,0.0,0.0,0.0041710553,0.0,0.0,0.0,0.0,0.0,0.0,0.0,0.0,0.0,0.005124922,0.0,0.0,nan,0.0,0.0,2.294947e-06,0.0,0.0,0.0,0.0,0.0,0.0,0.0,0.0
315533108,315532260,0.0,0.0,0.0,0.003997861,0.0,0.0,0.0,0.0,0.0,0.0,0.0,0.0,0.0,0.005806859,0.0,0.0,nan,0.0,0.0,0.0012648315,0.0,0.0,0.0,0.0,0.0,0.0,0.0,0.0
316032499,316031537,0.0,0.0,0.0,0.003795607,0.0,0.0,0.0,0.0,0.0,0.0,0.0,0.0,0.0,0.0073606526,0.0,0.0,nan,0.0,0.0,0.0145134125,0.0,0.0,0.0,0.0,0.0,0.0,0.0,0.0
316536848,316535845,0.0,0.0,0.0,0.0032974877,0.0,0.0,0.0,0.0,0.0,0.0,0.0,0.0,0.0,0.006131481,0.0,0.0,nan,0.0,0.0,0.037936445,0.0,0.0,0.0,0.0,0.0,0.0,0.0,0.0
317036169,317035159,0.0,0.0,0.0,0.0029793985,0.0,0.0,0.0,0.0,0.0,0.0,0.0,0.0,0.0,0.008464179,0.0,0.0,nan,0.0,0.0,0.06116324,0.0,0.0,0.0,0.0,0.0,0.0,0.0,0.0
317530369,317529481,0.0,0.0,0.0,0.0025644307,0.0,0.0,0.0,0.0,0.0,0.0,0.0,0.0,0.0,0.0064927875,0.0,0.0,nan,0.0,0.0,0.081775256,0.0,0.0,0.0,0.0,0.0,0.0,0.0,0.0
318039943,318038784,0.0,0.0,0.0,0.0022850581,0.0,0.0,0.0,0.0,0.0,0.0,0.0,0.0,0.0,0.00544521,0.0,0.0,nan,0.0,0.0,0.10138256,0.0,0.0,0.0,0.0,0.0,0.0,0.0,0.0
318539010,318538095,0.0,0.0,0.0,0.0020499725,0.0,0.0,0.0,0.0,0.0,0.0,0.0,0.0,0.0,0.0077968496,0.0,0.0,nan,0.0,0.0,0.13717073,0.0,0.0,0.0,0.0,0.0,0.0,0.0,0.0
319038415,319037410,0.0,0.0,0.0,0.0018078163,0.0,0.0,0.0,0.0,0.0,0.0,0.0,0.0,0.0,0.0057173036,0.0,0.0,nan,0.0,0.0,0.14090495,0.0,0.0,0.0,0.0,0.0,0.0,0.0,0.0
319537640,319536724,0.0,0.0,0.0,0.001714371,0.0,0.0,0.0,0.0,0.0,0.0,0.0,0.0,0.0,0.0069560036,0.0,0.0,nan,0.0,0.0,0.13976187,0.0,0.0,0.0,0.0,0.0,0.0,0.0,0.0
320037127,320036038,0.0,0.0,0.0,0.0016106307,0.0,0.0,0.0,0.0,0.0,0.0,0.0,0.0,0.0,0.005924994,0.0,0.0,nan,0.0,0.0,0.1108277,0.0,0.0,0.0,0.0,0.0,0.0,0.0,0.0
320536307,320535354,0.0,0.0,0.0,0.00156923,0.0,0.0,0.0,0.0,0.0,0.0,0.0,0.0,0.0,0.0038815674,0.0,0.0,nan,0.0,0.0,0.09470432,0.0,0.0,0.0,0.0,0.0,0.0,0.0,0.0
321035584,321034668,0.0,0.0,0.0,0.0015129376,0.0,0.0,0.0,0.0,0.0,0.0,0.0,0.0,0.0,0.0020752284,0.0,0.0,nan,0.0,0.0,0.07070259,0.0,0.0,0.0,0.0,0.0,0.0,0.0,0.0
321534992,321533981,0.0,0.0,0.0,0.0014188543,0.0,0.0,0.0,0.0,0.0,0.0,0.0,0.0,0.0,0.003338498,0.0,0.0,nan,0.0,0.0,0.056222606,0.0,0.0,0.0,0.0,0.0,0.0,0.0,0.0
322034248,322033299,0.0,0.0,0.0,0.0013258933,0.0,0.0,0.0,0.0,0.0,0.0,0.0,0.0,0.0,0.0032263251,0.0,0.0,nan,0.0,0.0,0.03436409,0.0,0.0,0.0,0.0,0.0,0.0,0.0,0.0
322533920,322532612,0.0,0.0,0.0,0.0011456003,0.0,0.0,0.0,0.0,0.0,0.0,0.0,0.0,0.0,0.002740579,0.0,0.0,nan,0.0,0.0,0.0164974,0.0,0.0,0.0,0.0,0.0,0.0,0.0,0.0
323032821,323031925,0.0,0.0,0.0,0.0009840918,0.0,0.0,0.0,0.0,0.0,0.0,0.0,0.0,0.0,0.0020028336,0.0,0.0,nan,0.0,0.0,0.0014857133,0.0,0.0,0.0,0.0,0.0,0.0,0.0,0.0
323532341,323531240,0.0,0.0,0.0,0.00082203106,0.0,0.0,0.0,0.0,0.0,0.0,0.0,0.0,0.0,0.003121221,0.0,0.0,nan,0.0,0.0,0.0005788125,0.0,0.0,0.0,0.0,0.0,0.0,0.0,0.0
324036528,324035547,0.0,0.0,0.0,0.0005918153,0.0,0.0,0.0,0.0,0.0,0.0,0.0,0.0,0.0,0.0034019714,0.0,0.0,nan,0.0,0.0,0.0011772008,0.0,0.0,0.0,0.0,0.0,0.0,0.0,0.0
324535937,324534861,0.0,0.0,0.0,0.00045365584,0.0,0.0,0.0,0.0,0.0,0.0,0.0,0.0,0.0,0.0021534201,0.0,0.0,nan,0.0,0.0,0.0009313062,0.0,0.0,0.0,0.0,0.0,0.0,0.0,0.0
325035008,325034177,0.0,0.0,0.0,0.00032059193,0.0,0.0,0.0,0.0,0.0,0.0,0.0,0.0,0.0,0.0035891263,0.0,0.0,nan,0.0,0.0,0.0001925866,0.0,0.0,0.0,0.0,0.0,0.0,0.0,0.0
325534644,325533490,0.0,0.0,0.0,0.00016235246,0.0,0.0,0.0,0.0,0.0,0.0,0.0,0.0,0.0,0.0032414654,0.0,0.0,nan,0.0,0.0,0.0014142805,0.0,0.0,0.0,0.0,0.0,0.0,0.0,0.0
326033865,326032806,0.0,0.0,0.0,8.890299e-05,0.0,0.0,0.0,0.0,0.0,0.0,0.0,0.0,0.0,0.002068305,0.0,0.0,nan,0.0,0.0,0.005680575,0.0,0.0,0.0,0.0,0.0,0.0,0.0,0.0
326533008,326532119,0.0,0.0,0.0,2.3996516e-05,0.0,0.0,0.0,0.0,0.0,0.0,0.0,0.0,0.0,0.0041948594,0.0,0.0,nan,0.0,0.0,0.017444305,0.0,0.0,0.0,0.0,0.0,0.0,0.0,0.0
327037579,327036427,0.0,0.0,0.0,4.054889e-06,0.0,0.0,0.0,0.0,0.0,0.0,0.0,0.0,0.0,0.0040577697,0.0,0.0,nan,0.0,0.0,0.021694459,0.0,0.0,0.0,0.0,0.0,0.0,0.0,0.0
327536718,327535744,0.0,0.0,0.0,8.468051e-06,0.0,0.0,0.0,0.0,0.0,0.0,0.0,0.0,0.0,0.0052480507,0.0,0.0,nan,0.0,0.0,0.033899695,0.0,0.0,0.0,0.0,0.0,0.0,0.0,0.0
328036138,328035056,0.0,0.0,0.0,2.3187382e-05,0.0,0.0,0.0,0.0,0.0,0.0,0.0,0.0,0.0,0.004300058,0.0,0.0,nan,0.0,0.0,0.036430597,0.0,0.0,0.0,0.0,0.0,0.0,0.0,0.0
328535336,328534370,0.0,0.0,0.0,4.976804e-05,0.0,0.0,0.0,0.0,0.0,0.0,0.0,0.0,0.0,0.0061436123,0.0,0.0,nan,0.0,0.0,0.030766198,0.0,0.0,0.0,0.0,0.0,0.0,0.0,0.0
329034672,329033695,0.0,0.0,0.0,0.00011382394,0.0,0.0,0.0,0.0,0.0,0.0,0.0,0.0,0.0,0.0043371073,0.0,0.0,nan,0.0,0.0,0.02647496,0.0,0.0,0.0,0.0,0.0,0.0,0.0,0.0
329533864,329533017,0.0,0.0,0.0,0.00015213677,0.0,0.0,0.0,0.0,0.0,0.0,0.0,0.0,0.0,0.003544283,0.0,0.0,nan,0.0,0.0,0.036732398,0.0,0.0,0.0,0.0,0.0,0.0,0.0,0.0
330033447,330032314,0.0,0.0,0.0,0.00015354868,0.0,0.0,0.0,0.0,0.0,0.0,0.0,0.0,0.0,0.0070958184,0.0,0.0,nan,0.0,0.0,0.043977562,0.0,0.0,0.0,0.0,0.0,0.0,0.0,0.0
330532684,330531662,0.0,0.0,0.0,0.0001913031,0.0,0.0,0.0,0.0,0.0,0.0,0.0,0.0,0.0,0.004935388,0.0,0.0,nan,0.0,0.0,0.10595694,0.0,0.0,0.0,0.0,0.0,0.0,0.0,0.0
331031768,331030942,0.0,0.0,0.0,0.00028015085,0.0,0.0,0.0,0.0,0.0,0.0,0.0,0.0,0.0,0.0061912797,0.0,0.0,nan,0.0,0.0,0.18525727,0.0,0.0,0.0,0.0,0.0,0.0,0.0,0.0
331536354,331535279,0.0,0.0,0.0,0.00041491457,0.0,0.0,0.0,0.0,0.0,0.0,0.0,0.0,0.0,0.0048012645,0.0,0.0,nan,0.0,0.0,0.2797474,0.0,0.0,0.0,0.0,0.0,0.0,0.0,0.0
332035580,332034565,0.0,0.0,0.0,0.00053624064,0.0,0.0,0.0,0.0,0.0,0.0,0.0,0.0,0.0,0.0049531013,0.0,0.0,nan,0.0,0.0,0.3120553,0.0,0.0,0.0,0.0,0.0,0.0,0.0,0.0
332534980,332533878,0.0,0.0,0.0,0.0006478632,0.0,0.0,0.0,0.0,0.0,0.0,0.0,0.0,0.0,0.006721084,0.0,0.0,nan,0.0,0.0,0.1687119,0.0,0.0,0.0,0.0,0.0,0.0,0.0,0.0
333034173,333033193,0.0,0.0,0.0,0.0008179182,0.0,0.0,0.0,0.0,0.0,0.0,0.0,0.0,0.0,0.0033359567,0.0,0.0,nan,0.0,0.0,0.07167632,0.0,0.0,0.0,0.0,0.0,0.0,0.0,0.0
333533558,333532506,0.0,0.0,0.0,0.00088900316,0.0,0.0,0.0,0.0,0.0,0.0,0.0,0.0,0.0,0.0043861866,0.0,0.0,nan,0.0,0.0,0.021395471,0.0,0.0,0.0,0.0,0.0,0.0,0.0,0.0
334032764,334031821,0.0,0.0,0.0,0.00094591966,0.0,0.0,0.0,0.0,0.0,0.0,0.0,0.0,0.0,0.00494922,0.0,0.0,nan,0.0,0.0,0.009953336,0.0,0.0,0.0,0.0,0.0,0.0,0.0,0.0
334532273,334531135,0.0,0.0,0.0,0.0009925478,0.0,0.0,0.0,0.0,0.0,0.0,0.0,0.0,0.0,0.0071861264,0.0,0.0,nan,0.0,0.0,0.010670584,0.0,0.0,0.0,0.0,0.0,0.0,0.0,0.0
335031422,335030448,0.0,0.0,0.0,0.0010328862,0.0,0.0,0.0,0.0,0.0,0.0,0.0,0.0,0.0,0.006057983,0.0,0.0,nan,0.0,0.0,0.012859297,0.0,0.0,0.0,0.0,0.0,0.0,0.0,0.0
335535884,335534756,0.0,0.0,0.0,0.0010861824,0.0,0.0,0.0,0.0,0.0,0.0,0.0,0.0,0.0,0.0069196816,0.0,0.0,nan,0.0,0.0,0.017098682,0.0,0.0,0.0,0.0,0.0,0.0,0.0,0.0
336035060,336034072,0.0,0.0,0.0,0.0011017957,0.0,0.0,0.0,0.0,0.0,0.0,0.0,0.0,0.0,0.007010052,0.0,0.0,nan,0.0,0.0,0.019112924,0.0,0.0,0.0,0.0,0.0,0.0,0.0,0.0
336534322,336533384,0.0,0.0,0.0,0.0011310243,0.0,0.0,0.0,0.0,0.0,0.0,0.0,0.0,0.0,0.008086682,0.0,0.0,nan,0.0,0.0,0.022891607,0.0,0.0,0.0,0.0,0.0,0.0,0.0,0.0
337033767,337032698,0.0,0.0,0.0,0.0011975387,0.0,0.0,0.0,0.0,0.0,0.0,0.0,0.0,0.0,0.006004988,0.0,0.0,nan,0.0,0.0,0.019679518,0.0,0.0,0.0,0.0,0.0,0.0,0.0,0.0
337532965,337532012,0.0,0.0,0.0,0.0012115482,0.0,0.0,0.0,0.0,0.0,0.0,0.0,0.0,0.0,0.009934143,0.0,0.0,nan,0.0,0.0,0.016402235,0.0,0.0,0.0,0.0,0.0,0.0,0.0,0.0
338032546,338031326,0.0,0.0,0.0,0.0012300761,0.0,0.0,0.0,0.0,0.0,0.0,0.0,0.0,0.0,0.0077246306,0.0,0.0,nan,0.0,0.0,0.012136173,0.0,0.0,0.0,0.0,0.0,0.0,0.0,0.0
338531521,338530639,0.0,0.0,0.0,0.001189921,0.0,0.0,0.0,0.0,0.0,0.0,0.0,0.0,0.0,0.008509509,0.0,0.0,nan,0.0,0.0,0.0057539428,0.0,0.0,0.0,0.0,0.0,0.0,0.0,0.0
339036175,339034950,0.0,0.0,0.0,0.0011587524,0.0,0.0,0.0,0.0,0.0,0.0,0.0,0.0,0.0,0.010141773,0.0,0.0,nan,0.0,0.0,0.0049582236,0.0,0.0,0.0,0.0,0.0,0.0,0.0,0.0
339535141,339534260,0.0,0.0,0.0,0.0011360649,0.0,0.0,0.0,0.0,0.0,0.0,0.0,0.0,0.0,0.009826328,0.0,0.0,nan,0.0,0.0,0.001628219,0.0,0.0,0.0,0.0,0.0,0.0,0.0,0.0
340034640,340033574,0.0,0.0,0.0,0.0011322579,0.0,0.0,0.0,0.0,0.0,0.0,0.0,0.0,0.0,0.008153689,0.0,0.0,nan,0.0,0.0,0.0016404664,0.0,0.0,0.0,0.0,0.0,0.0,0.0,0.0
340533930,340532888,0.0,0.0,0.0,0.0010968233,0.0,0.0,0.0,0.0,0.0,0.0,0.0,0.0,0.0,0.0101726875,0.0,0.0,nan,0.0,0.0,0.0023591353,0.0,0.0,0.0,0.0,0.0,0.0,0.0,0.0
341033090,341032201,0.0,0.0,0.0,0.00091868703,0.0,0.0,0.0,0.0,0.0,0.0,0.0,0.0,0.0,0.009333102,0.0,0.0,nan,0.0,0.0,0.0028751488,0.0,0.0,0.0,0.0,0.0,0.0,0.0,0.0
341532485,341531515,0.0,0.0,0.0,0.00073009514,0.0,0.0,0.0,0.0,0.0,0.0,0.0,0.0,0.0,0.009274009,0.0,0.0,nan,0.0,0.0,0.006872086,0.0,0.0,0.0,0.0,0.0,0.0,0.0,0.0
342031874,342030829,0.0,0.0,0.0,0.00048179613,0.0,0.0,0.0,0.0,0.0,0.0,0.0,0.0,0.0,0.010895177,0.0,0.0,nan,0.0,0.0,0.0005202624,0.0,0.0,0.0,0.0,0.0,0.0,0.0,0.0
342536102,342535135,0.0,0.0,0.0,0.00036787798,0.0,0.0,0.0,0.0,0.0,0.0,0.0,0.0,0.0,0.010083902,0.0,0.0,nan,0.0,0.0,0.0002154152,0.0,0.0,0.0,0.0,0.0,0.0,0.0,0.0
343035386,343034448,0.0,0.0,0.0,0.00027132325,0.0,0.0,0.0,0.0,0.0,0.0,0.0,0.0,0.0,0.013502354,0.0,0.0,nan,0.0,0.0,0.0033271124,0.0,0.0,0.0,0.0,0.0,0.0,0.0,0.0
343534975,343533763,0.0,0.0,0.0,0.00016116854,0.0,0.0,0.0,0.0,0.0,0.0,0.0,0.0,0.0,0.012494138,0.0,0.0,nan,0.0,0.0,0.0042833267,0.0,0.0,0.0,0.0,0.0,0.0,0.0,0.0
344033995,344033077,0.0,0.0,0.0,0.00010420184,0.0,0.0,0.0,0.0,0.0,0.0,0.0,0.0,0.0,0.012411418,0.0,0.0,nan,0.0,0.0,0.0057400023,0.0,0.0,0.0,0.0,0.0,0.0,0.0,0.0
344533527,344532389,0.0,0.0,0.0,4.2611446e-05,0.0,0.0,0.0,0.0,0.0,0.0,0.0,0.0,0.0,0.013148569,0.0,0.0,nan,0.0,0.0,0.0048092916,0.0,0.0,0.0,0.0,0.0,0.0,0.0,0.0
345032808,345031703,0.0,0.0,0.0,2.0867912e-05,0.0,0.0,0.0,0.0,0.0,0.0,0.0,0.0,0.0,0.01723626,0.0,0.0,nan,0.0,0.0,0.00083453563,0.0,0.0,0.0,0.0,0.0,0.0,0.0,0.0
345531901,345531015,0.0,0.0,0.0,4.5239303e-05,0.0,0.0,0.0,0.0,0.0,0.0,0.0,0.0,0.0,0.014003537,0.0,0.0,nan,0.0,0.0,0.000119961594,0.0,0.0,0.0,0.0,0.0,0.0,0.0,0.0
346031379,346030329,0.0,0.0,0.0,0.000102433645,0.0,0.0,0.0,0.0,0.0,0.0,0.0,0.0,0.0,0.013620059,0.0,0.0,nan,0.0,0.0,0.004461251,0.0,0.0,0.0,0.0,0.0,0.0,0.0,0.0
346535584,346534634,0.0,0.0,0.0,0.00015598848,0.0,0.0,0.0,0.0,0.0,0.0,0.0,0.0,0.0,0.01488023,0.0,0.0,nan,0.0,0.0,0.005815951,0.0,0.0,0.0,0.0,0.0,0.0,0.0,0.0
347035140,347033948,0.0,0.0,0.0,0.00025449507,0.0,0.0,0.0,0.0,0.0,0.0,0.0,0.0,0.0,0.014317812,0.0,0.0,nan,0.0,0.0,0.0010674729,0.0,0.0,0.0,0.0,0.0,0.0,0.0,0.0
347534229,347533266,0.0,0.0,0.0,0.0003033975,0.0,0.0,0.0,0.0,0.0,0.0,0.0,0.0,0.0,0.016577339,0.0,0.0,nan,0.0,0.0,1.09944e-05,0.0,0.0,0.0,0.0,0.0,0.0,0.0,0.0
348033693,348032596,0.0,0.0,0.0,0.00032126534,0.0,0.0,0.0,0.0,0.0,0.0,0.0,0.0,0.0,0.016542528,0.0,0.0,nan,0.0,0.0,0.004518422,0.0,0.0,0.0,0.0,0.0,0.0,0.0,0.0
348532786,348531887,0.0,0.0,0.0,0.00026886183,0.0,0.0,0.0,0.0,0.0,0.0,0.0,0.0,0.0,0.012876782,0.0,0.0,nan,0.0,0.0,0.005085219,0.0,0.0,0.0,0.0,0.0,0.0,0.0,0.0
349032294,349031248,0.0,0.0,0.0,0.00022384193,0.0,0.0,0.0,0.0,0.0,0.0,0.0,0.0,0.0,0.015473131,0.0,0.0,nan,0.0,0.0,0.009674118,0.0,0.0,0.0,0.0,0.0,0.0,0.0,0.0
349536478,349535515,0.0,0.0,0.0,0.0001955452,0.0,0.0,0.0,0.0,0.0,0.0,0.0,0.0,0.0,0.015021347,0.0,0.0,nan,0.0,0.0,0.013564809,0.0,0.0,0.0,0.0,0.0,0.0,0.0,0.0
350035966,350034819,0.0,0.0,0.0,0.00018067771,0.0,0.0,0.0,0.0,0.0,0.0,0.0,0.0,0.0,0.016311275,0.0,0.0,nan,0.0,0.0,0.02122292,0.0,0.0,0.0,0.0,0.0,0.0,0.0,0.0
350535051,350534179,0.0,0.0,0.0,0.00024813003,0.0,0.0,0.0,0.0,0.0,0.0,0.0,0.0,0.0,0.016447036,0.0,0.0,nan,0.0,0.0,0.041304354,0.0,0.0,0.0,0.0,0.0,0.0,0.0,0.0
351034421,351033447,0.0,0.0,0.0,0.00037888857,0.0,0.0,0.0,0.0,0.0,0.0,0.0,0.0,0.0,0.016568033,0.0,0.0,nan,0.0,0.0,0.050043624,0.0,0.0,0.0,0.0,0.0,0.0,0.0,0.0
351533841,351532756,0.0,0.0,0.0,0.00046004078,0.0,0.0,0.0,0.0,0.0,0.0,0.0,0.0,0.0,0.01879753,0.0,0.0,nan,0.0,0.0,0.053620603,0.0,0.0,0.0,0.0,0.0,0.0,0.0,0.0
352038021,352037062,0.0,0.0,0.0,0.0005444802,0.0,0.0,0.0,0.0,0.0,0.0,0.0,0.0,0.0,0.01657123,0.0,0.0,nan,0.0,0.0,0.0055572595,0.0,0.0,0.0,0.0,0.0,0.0,0.0,0.0
352537466,352536375,0.0,0.0,0.0,0.00065882754,0.0,0.0,0.0,0.0,0.0,0.0,0.0,0.0,0.0,0.017857334,0.0,0.0,nan,0.0,0.0,1.40793145e-05,0.0,0.0,0.0,0.0,0.0,0.0,0.0,0.0
353036586,353035688,0.0,0.0,0.0,0.00064223824,0.0,0.0,0.0,0.0,0.0,0.0,0.0,0.0,0.0,0.019053284,0.0,0.0,nan,0.0,0.0,0.0037182942,0.0,0.0,0.0,0.0,0.0,0.0,0.0,0.0
353536028,353535000,0.0,0.0,0.0,0.00047908255,0.0,0.0,0.0,0.0,0.0,0.0,0.0,0.0,0.0,0.016396038,0.0,0.0,nan,0.0,0.0,0.003384605,0.0,0.0,0.0,0.0,0.0,0.0,0.0,0.0
354035321,354034312,0.0,0.0,0.0,0.00036362375,0.0,0.0,0.0,0.0,0.0,0.0,0.0,0.0,0.0,0.016303714,0.0,0.0,nan,0.0,0.0,0.004729403,0.0,0.0,0.0,0.0,0.0,0.0,0.0,0.0
354534752,354533630,0.0,0.0,0.0,0.00023851855,0.0,0.0,0.0,0.0,0.0,0.0,0.0,0.0,0.0,0.018712137,0.0,0.0,nan,0.0,0.0,0.002180931,0.0,0.0,0.0,0.0,0.0,0.0,0.0,0.0
355033770,355032936,0.0,0.0,0.0,0.0001387635,0.0,0.0,0.0,0.0,0.0,0.0,0.0,0.0,0.0,0.016819488,0.0,0.0,nan,0.0,0.0,0.006339079,0.0,0.0,0.0,0.0,0.0,0.0,0.0,0.0
355533260,355532249,0.0,0.0,0.0,9.293419e-05,0.0,0.0,0.0,0.0,0.0,0.0,0.0,0.0,0.0,0.018281976,0.0,0.0,nan,0.0,0.0,0.0008503824,0.0,0.0,0.0,0.0,0.0,0.0,0.0,0.0
356032657,356031561,0.0,0.0,0.0,4.062032e-05,0.0,0.0,0.0,0.0,0.0,0.0,0.0,0.0,0.0,0.016767759,0.0,0.0,nan,0.0,0.0,0.0018093939,0.0,0.0,0.0,0.0,0.0,0.0,0.0,0.0
356531698,356530872,0.0,0.0,0.0,2.6636966e-05,0.0,0.0,0.0,0.0,0.0,0.0,0.0,0.0,0.0,0.018317003,0.0,0.0,nan,0.0,0.0,0.0048710946,0.0,0.0,0.0,0.0,0.0,0.0,0.0,0.0
357031360,357030184,0.0,0.0,0.0,4.9413822e-05,0.0,0.0,0.0,0.0,0.0,0.0,0.0,0.0,0.0,0.017451013,0.0,0.0,nan,0.0,0.0,0.011139948,0.0,0.0,0.0,0.0,0.0,0.0,0.0,0.0
357535337,357534489,0.0,0.0,0.0,9.365097e-05,0.0,0.0,0.0,0.0,0.0,0.0,0.0,0.0,0.0,0.019419631,0.0,0.0,nan,0.0,0.0,0.0135545265,0.0,0.0,0.0,0.0,0.0,0.0,0.0,0.0
358034831,358033802,0.0,0.0,0.0,0.00014028538,0.0,0.0,0.0,0.0,0.0,0.0,0.0,0.0,0.0,0.018326746,0.0,0.0,nan,0.0,0.0,0.011534416,0.0,0.0,0.0,0.0,0.0,0.0,0.0,0.0
358534080,358533113,0.0,0.0,0.0,0.00017647377,0.0,0.0,0.0,0.0,0.0,0.0,0.0,0.0,0.0,0.017121853,0.0,0.0,nan,0.0,0.0,0.018276354,0.0,0.0,0.0,0.0,0.0,0.0,0.0,0.0
359033607,359032425,0.0,0.0,0.0,0.0002045004,0.0,0.0,0.0,0.0,0.0,0.0,0.0,0.0,0.0,0.017798783,0.0,0.0,nan,0.0,0.0,0.015511156,0.0,0.0,0.0,0.0,0.0,0.0,0.0,0.0
359532677,359531736,0.0,0.0,0.0,0.00020104458,0.0,0.0,0.0,0.0,0.0,0.0,0.0,0.0,0.0,0.019335192,0.0,0.0,nan,0.0,0.0,0.027964484,0.0,0.0,0.0,0.0,0.0,0.0,0.0,0.0
360032074,360031047,0.0,0.0,0.0,0.00016613616,0.0,0.0,0.0,0.0,0.0,0.0,0.0,0.0,0.0,0.017916238,0.0,0.0,nan,0.0,0.0,0.025878616,0.0,0.0,0.0,0.0,0.0,0.0,0.0,0.0
360531317,360530361,0.0,0.0,0.0,0.00013432006,0.0,0.0,0.0,0.0,0.0,0.0,0.0,0.0,0.0,0.017640673,0.0,0.0,nan,0.0,0.0,0.02868564,0.0,0.0,0.0,0.0,0.0,0.0,0.0,0.0
361035738,361034663,0.0,0.0,0.0,9.398561e-05,0.0,0.0,0.0,0.0,0.0,0.0,0.0,0.0,0.0,0.018056277,0.0,0.0,nan,0.0,0.0,0.020794723,0.0,0.0,0.0,0.0,0.0,0.0,0.0,0.0
361534997,361533975,0.0,0.0,0.0,0.00012037122,0.0,0.0,0.0,0.0,0.0,0.0,0.0,0.0,0.0,0.015194853,0.0,0.0,nan,0.0,0.0,0.02574628,0.0,0.0,0.0,0.0,0.0,0.0,0.0,0.0
362034173,362033286,0.0,0.0,0.0,0.0001653384,0.0,0.0,0.0,0.0,0.0,0.0,0.0,0.0,0.0,0.020098431,0.0,0.0,nan,0.0,0.0,0.018242436,0.0,0.0,0.0,0.0,0.0,0.0,0.0,0.0
362533802,362532599,0.0,0.0,0.0,0.00023186089,0.0,0.0,0.0,0.0,0.0,0.0,0.0,0.0,0.0,0.016418327,0.0,0.0,nan,0.0,0.0,0.009451318,0.0,0.0,0.0,0.0,0.0,0.0,0.0,0.0
363037811,363036905,0.0,0.0,0.0,0.00028584685,0.0,0.0,0.0,0.0,0.0,0.0,0.0,0.0,0.0,0.017131208,0.0,0.0,nan,0.0,0.0,0.013530542,0.0,0.0,0.0,0.0,0.0,0.0,0.0,0.0
363538856,363536213,0.0,0.0,0.0,0.00022630204,0.0,0.0,0.0,0.0,0.0,0.0,0.0,0.0,0.0,0.013732092,0.0,0.0,nan,0.0,0.0,0.0,0.0010141776,0.0,0.0,0.0,0.0,0.0,0.0,0.0
364036477,364035570,0.0,0.0,0.0,0.00042098665,0.0,0.0,0.0,0.0,0.0,0.0,0.0,0.0,0.0,0.018117752,0.0,0.0,nan,0.0,0.0,0.0,0.013096423,0.0,0.0,0.0,0.0,0.0,0.0,0.0
364537369,364534834,0.0,0.0,0.0,0.00045792625,0.0,0.0,0.0,0.0,0.0,0.0,0.0,0.0,0.0,0.01867505,0.0,0.0,nan,0.0,0.0,0.0,0.03110079,0.0,0.0,0.0,0.0,0.0,0.0,0.0
365035101,365034146,0.0,0.0,0.0,0.00047611137,0.0,0.0,0.0,0.0,0.0,0.0,0.0,0.0,0.0,0.017679015,0.0,0.0,nan,0.0,0.0,0.0,0.03159018,0.0,0.0,0.0,0.0,0.0,0.0,0.0
365534397,365533457,0.0,0.0,0.0,0.0004787906,0.0,0.0,0.0,0.0,0.0,0.0,0.0,0.0,0.0,0.016919233,0.0,0.0,nan,0.0,0.0,0.0,0.062738314,0.0,0.0,0.0,0.0,0.0,0.0,0.0
366035374,366032767,0.0,0.0,0.0,0.00034654586,0.0,0.0,0.0,0.0,0.0,0.0,0.0,0.0,0.0,0.016915148,0.0,0.0,nan,0.0,0.0,0.0,0.055018593,0.0,0.0,0.0,0.0,0.0,0.0,0.0
366532992,366532078,0.0,0.0,0.0,0.00036923724,0.0,0.0,0.0,0.0,0.0,0.0,0.0,0.0,0.0,0.019573728,0.0,0.0,nan,0.0,0.0,0.0,0.09091667,0.0,0.0,0.0,0.0,0.0,0.0,0.0
367038920,367036382,0.0,0.0,0.0,0.00064723106,0.0,0.0,0.0,0.0,0.0,0.0,0.0,0.0,0.0,0.013370568,0.0,0.0,nan,0.0,0.0,0.0,0.08700883,0.0,0.0,0.0,0.0,0.0,0.0,0.0
368535171,368534328,0.0,0.0,0.0,0.0020381364,0.0,0.0,0.0,0.0,0.0,0.0,0.0,0.0,0.0,0.0141782705,0.0,0.0,nan,0.0,0.0,0.0,0.012764421,0.0,0.0,0.0,0.0,0.0,0.0,0.0
369036396,369033625,0.0,0.0,0.0,0.002499321,0.0,0.0,0.0,0.0,0.0,0.0,0.0,0.0,0.0,0.012449422,0.0,0.0,nan,0.0,0.0,0.0,0.0047467654,0.0,0.0,0.0,0.0,0.0,0.0,0.0
369533879,369532936,0.0,0.0,0.0,0.0027105997,0.0,0.0,0.0,0.0,0.0,0.0,0.0,0.0,0.0,0.01263412,0.0,0.0,nan,0.0,0.0,0.0,0.018118288,0.0,0.0,0.0,0.0,0.0,0.0,0.0
370033137,370032249,0.0,0.0,0.0,0.0028209023,0.0,0.0,0.0,0.0,0.0,0.0,0.0,0.0,0.0,0.013519506,0.0,0.0,nan,0.0,0.0,0.0,0.045318853,0.0,0.0,0.0,0.0,0.0,0.0,0.0
370537497,370536548,0.0,0.0,0.0,0.0028766077,0.0,0.0,0.0,0.0,0.0,0.0,0.0,0.0,0.0,0.016050735,0.0,0.0,nan,0.0,0.0,0.0,0.1105777,0.0,0.0,0.0,0.0,0.0,0.0,0.0
371036954,371035858,0.0,0.0,0.0,0.0028289834,0.0,0.0,0.0,0.0,0.0,0.0,0.0,0.0,0.0,0.013057381,0.0,0.0,nan,0.0,0.0,0.016865877,0.0,0.0,0.0,0.0,0.0,0.0,0.0,0.0
371536274,371535169,0.0,0.0,0.0,0.0027398714,0.0,0.0,0.0,0.0,0.0,0.0,0.0,0.0,0.0,0.01494716,0.0,0.0,nan,0.0,0.0,0.020847958,0.0,0.0,0.0,0.0,0.0,0.0,0.0,0.0
372035412,372034479,0.0,0.0,0.0,0.0027250838,0.0,0.0,0.0,0.0,0.0,0.0,0.0,0.0,0.0,0.015049938,0.0,0.0,nan,0.0,0.0,0.058377467,0.0,0.0,0.0,0.0,0.0,0.0,0.0,0.0
372534819,372533791,0.0,0.0,0.0,0.0030592922,0.0,0.0,0.0,0.0,0.0,0.0,0.0,0.0,0.0,0.01710866,0.0,0.0,nan,0.0,0.0,0.095072836,0.0,0.0,0.0,0.0,0.0,0.0,0.0,0.0
373034037,373033099,0.0,0.0,0.0,0.003513856,0.0,0.0,0.0,0.0,0.0,0.0,0.0,0.0,0.0,0.018042035,0.0,0.0,nan,0.0,0.0,0.13879383,0.0,0.0,0.0,0.0,0.0,0.0,0.0,0.0
373533576,373532409,0.0,0.0,0.0,0.0037859662,0.0,0.0,0.0,0.0,0.0,0.0,0.0,0.0,0.0,0.015315379,0.0,0.0,nan,0.0,0.0,0.05806683,0.0,0.0,0.0,0.0,0.0,0.0,0.0,0.0
374032571,374031719,0.0,0.0,0.0,0.00392073,0.0,0.0,0.0,0.0,0.0,0.0,0.0,0.0,0.0,0.01804458,0.0,0.0,nan,0.0,0.0,0.12121297,0.0,0.0,0.0,0.0,0.0,0.0,0.0,0.0
374532097,374531029,0.0,0.0,0.0,0.0041189143,0.0,0.0,0.0,0.0,0.0,0.0,0.0,0.0,0.0,0.02045143,0.0,0.0,nan,0.0,0.0,0.048453618,0.0,0.0,0.0,0.0,0.0,0.0,0.0,0.0
375036184,375035333,0.0,0.0,0.0,0.004226906,0.0,0.0,0.0,0.0,0.0,0.0,0.0,0.0,0.0,0.020186758,0.0,0.0,nan,0.0,0.0,0.036413707,0.0,0.0,0.0,0.0,0.0,0.0,0.0,0.0
375535807,375534706,0.0,0.0,0.0,0.004635205,0.0,0.0,0.0,0.0,0.0,0.0,0.0,0.0,0.0,0.02187107,0.0,0.0,nan,0.0,0.0,0.018889692,0.0,0.0,0.0,0.0,0.0,0.0,0.0,0.0
376034902,376033950,0.0,0.0,0.0,0.005022428,0.0,0.0,0.0,0.0,0.0,0.0,0.0,0.0,0.0,0.022392644,0.0,0.0,nan,0.0,0.0,0.00040025462,0.0,0.0,0.0,0.0,0.0,0.0,0.0,0.0
376534212,376533260,0.0,0.0,0.0,0.0054534744,0.0,0.0,0.0,0.0,0.0,0.0,0.0,0.0,0.0,0.022238081,0.0,0.0,nan,0.0,0.0,0.01229706,0.0,0.0,0.0,0.0,0.0,0.0,0.0,0.0
377033632,377032569,0.0,0.0,0.0,0.0061285575,0.0,0.0,0.0,0.0,0.0,0.0,0.0,0.0,0.0,0.01918597,0.0,0.0,nan,0.0,0.0,0.017717721,0.0,0.0,0.0,0.0,0.0,0.0,0.0,0.0
377532774,377531878,0.0,0.0,0.0,0.0065737707,0.0,0.0,0.0,0.0,0.0,0.0,0.0,0.0,0.0,0.021105228,0.0,0.0,nan,0.0,0.0,0.020092903,0.0,0.0,0.0,0.0,0.0,0.0,0.0,0.0
378032413,378031186,0.0,0.0,0.0,0.006930879,0.0,0.0,0.0,0.0,0.0,0.0,0.0,0.0,0.0,0.021076998,0.0,0.0,nan,0.0,0.0,0.047984943,0.0,0.0,0.0,0.0,0.0,0.0,0.0,0.0
378531372,378530497,0.0,0.0,0.0,0.0069885943,0.0,0.0,0.0,0.0,0.0,0.0,0.0,0.0,0.0,0.02123026,0.0,0.0,nan,0.0,0.0,0.020556841,0.0,0.0,0.0,0.0,0.0,0.0,0.0,0.0
379035873,379034844,0.0,0.0,0.0,0.0068374644,0.0,0.0,0.0,0.0,0.0,0.0,0.0,0.0,0.0,0.019339403,0.0,0.0,nan,0.0,0.0,0.00793983,0.0,0.0,0.0,0.0,0.0,0.0,0.0,0.0
379535028,379534113,0.0,0.0,0.0,0.0061649275,0.0,0.0,0.0,0.0,0.0,0.0,0.0,0.0,0.0,0.021971662,0.0,0.0,nan,0.0,0.0,0.010084045,0.0,0.0,0.0,0.0,0.0,0.0,0.0,0.0
380034517,380033417,0.0,0.0,0.0,0.0056832964,0.0,0.0,0.0,0.0,0.0,0.0,0.0,0.0,0.0,0.019702341,0.0,0.0,nan,0.0,0.0,0.00010112741,0.0,0.0,0.0,0.0,0.0,0.0,0.0,0.0
380533771,380532726,0.0,0.0,0.0,0.0052118497,0.0,0.0,0.0,0.0,0.0,0.0,0.0,0.0,0.0,0.021423291,0.0,0.0,nan,0.0,0.0,0.0075083007,0.0,0.0,0.0,0.0,0.0,0.0,0.0,0.0
381032931,381032035,0.0,0.0,0.0,0.0046432465,0.0,0.0,0.0,0.0,0.0,0.0,0.0,0.0,0.0,0.020666324,0.0,0.0,nan,0.0,0.0,0.0117348,0.0,0.0,0.0,0.0,0.0,0.0,0.0,0.0
381532425,381531344,0.0,0.0,0.0,0.0042666546,0.0,0.0,0.0,0.0,0.0,0.0,0.0,0.0,0.0,0.018060708,0.0,0.0,nan,0.0,0.0,0.018847505,0.0,0.0,0.0,0.0,0.0,0.0,0.0,0.0
382031518,382030657,0.0,0.0,0.0,0.0037492493,0.0,0.0,0.0,0.0,0.0,0.0,0.0,0.0,0.0,0.020490179,0.0,0.0,nan,0.0,0.0,0.025524525,0.0,0.0,0.0,0.0,0.0,0.0,0.0,0.0
382536019,382534954,0.0,0.0,0.0,0.0034662273,0.0,0.0,0.0,0.0,0.0,0.0,0.0,0.0,0.0,0.01953308,0.0,0.0,nan,0.0,0.0,0.035920795,0.0,0.0,0.0,0.0,0.0,0.0,0.0,0.0
383035190,383034263,0.0,0.0,0.0,0.003281494,0.0,0.0,0.0,0.0,0.0,0.0,0.0,0.0,0.0,0.019045614,0.0,0.0,nan,0.0,0.0,0.02264448,0.0,0.0,0.0,0.0,0.0,0.0,0.0,0.0
383534539,383533571,0.0,0.0,0.0,0.0033077793,0.0,0.0,0.0,0.0,0.0,0.0,0.0,0.0,0.0,0.01984891,0.0,0.0,nan,0.0,0.0,0.05213802,0.0,0.0,0.0,0.0,0.0,0.0,0.0,0.0
384033806,384032880,0.0,0.0,0.0,0.0030963365,0.0,0.0,0.0,0.0,0.0,0.0,0.0,0.0,0.0,0.017797036,0.0,0.0,nan,0.0,0.0,0.033011496,0.0,0.0,0.0,0.0,0.0,0.0,0.0,0.0
384533284,384532188,0.0,0.0,0.0,0.002693833,0.0,0.0,0.0,0.0,0.0,0.0,0.0,0.0,0.0,0.01731641,0.0,0.0,nan,0.0,0.0,0.005968665,0.0,0.0,0.0,0.0,0.0,0.0,0.0,0.0
385032452,385031496,0.0,0.0,0.0,0.0026653293,0.0,0.0,0.0,0.0,0.0,0.0,0.0,0.0,0.0,0.019386342,0.0,0.0,nan,0.0,0.0,0.0010876578,0.0,0.0,0.0,0.0,0.0,0.0,0.0,0.0
385531743,385530805,0.0,0.0,0.0,0.002602747,0.0,0.0,0.0,0.0,0.0,0.0,0.0,0.0,0.0,0.018395318,0.0,0.0,nan,0.0,0.0,0.0048540602,0.0,0.0,0.0,0.0,0.0,0.0,0.0,0.0
386035940,386035106,0.0,0.0,0.0,0.0024600828,0.0,0.0,0.0,0.0,0.0,0.0,0.0,0.0,0.0,0.019526245,0.0,0.0,nan,0.0,0.0,0.0006941574,0.0,0.0,0.0,0.0,0.0,0.0,0.0,0.0
386535365,386534414,0.0,0.0,0.0,0.002320121,0.0,0.0,0.0,0.0,0.0,0.0,0.0,0.0,0.0,0.016358532,0.0,0.0,nan,0.0,0.0,0.00560407,0.0,0.0,0.0,0.0,0.0,0.0,0.0,0.0
387034932,387033722,0.0,0.0,0.0,0.0020542203,0.0,0.0,0.0,0.0,0.0,0.0,0.0,0.0,0.0,0.018834023,0.0,0.0,nan,0.0,0.0,0.002612902,0.0,0.0,0.0,0.0,0.0,0.0,0.0,0.0
387533870,387533030,0.0,0.0,0.0,0.0017697857,0.0,0.0,0.0,0.0,0.0,0.0,0.0,0.0,0.0,0.017916534,0.0,0.0,nan,0.0,0.0,0.00084565545,0.0,0.0,0.0,0.0,0.0,0.0,0.0,0.0
388033479,388032338,0.0,0.0,0.0,0.0014172628,0.0,0.0,0.0,0.0,0.0,0.0,0.0,0.0,0.0,0.015777284,0.0,0.0,nan,0.0,0.0,0.018123241,0.0,0.0,0.0,0.0,0.0,0.0,0.0,0.0
388532594,388531651,0.0,0.0,0.0,0.000937427,0.0,0.0,0.0,0.0,0.0,0.0,0.0,0.0,0.0,0.014780877,0.0,0.0,nan,0.0,0.0,0.0352371,0.0,0.0,0.0,0.0,0.0,0.0,0.0,0.0
389031941,389030955,0.0,0.0,0.0,0.0007806525,0.0,0.0,0.0,0.0,0.0,0.0,0.0,0.0,0.0,0.015014861,0.0,0.0,nan,0.0,0.0,0.0758306,0.0,0.0,0.0,0.0,0.0,0.0,0.0,0.0
389531278,389530267,0.0,0.0,0.0,0.00064379995,0.0,0.0,0.0,0.0,0.0,0.0,0.0,0.0,0.0,0.018638087,0.0,0.0,nan,0.0,0.0,0.033605,0.0,0.0,0.0,0.0,0.0,0.0,0.0,0.0
390035615,390034562,0.0,0.0,0.0,0.00047480734,0.0,0.0,0.0,0.0,0.0,0.0,0.0,0.0,0.0,0.015656672,0.0,0.0,nan,0.0,0.0,0.009265285,0.0,0.0,0.0,0.0,0.0,0.0,0.0,0.0
390534715,390533871,0.0,0.0,0.0,0.00037059636,0.0,0.0,0.0,0.0,0.0,0.0,0.0,0.0,0.0,0.01773445,0.0,0.0,nan,0.0,0.0,0.00059395377,0.0,0.0,0.0,0.0,0.0,0.0,0.0,0.0
391034135,391033177,0.0,0.0,0.0,0.00023353456,0.0,0.0,0.0,0.0,0.0,0.0,0.0,0.0,0.0,0.015755191,0.0,0.0,nan,0.0,0.0,1.5474278e-06,0.0,0.0,0.0,0.0,0.0,0.0,0.0,0.0
391533521,391532498,0.0,0.0,0.0,0.00017412603,0.0,0.0,0.0,0.0,0.0,0.0,0.0,0.0,0.0,0.015362776,0.0,0.0,nan,0.0,0.0,1.48089575e-05,0.0,0.0,0.0,0.0,0.0,0.0,0.0,0.0
392032637,392031791,0.0,0.0,0.0,0.00017425627,0.0,0.0,0.0,0.0,0.0,0.0,0.0,0.0,0.0,0.015078453,0.0,0.0,nan,0.0,0.0,0.0026561967,0.0,0.0,0.0,0.0,0.0,0.0,0.0,0.0
392532225,392531098,0.0,0.0,0.0,0.00018822217,0.0,0.0,0.0,0.0,0.0,0.0,0.0,0.0,0.0,0.012849807,0.0,0.0,nan,0.0,0.0,0.0027357356,0.0,0.0,0.0,0.0,0.0,0.0,0.0,0.0
393036230,393035400,0.0,0.0,0.0,0.00017114385,0.0,0.0,0.0,0.0,0.0,0.0,0.0,0.0,0.0,0.014835124,0.0,0.0,nan,0.0,0.0,0.017579285,0.0,0.0,0.0,0.0,0.0,0.0,0.0,0.0
393535792,393534706,0.0,0.0,0.0,0.00013807956,0.0,0.0,0.0,0.0,0.0,0.0,0.0,0.0,0.0,0.015802644,0.0,0.0,nan,0.0,0.0,0.050040025,0.0,0.0,0.0,0.0,0.0,0.0,0.0,0.0
394034903,394034013,0.0,0.0,0.0,0.00011939002,0.0,0.0,0.0,0.0,0.0,0.0,0.0,0.0,0.0,0.018666724,0.0,0.0,nan,0.0,0.0,0.055460867,0.0,0.0,0.0,0.0,0.0,0.0,0.0,0.0
394534544,394533320,0.0,0.0,0.0,9.7731245e-05,0.0,0.0,0.0,0.0,0.0,0.0,0.0,0.0,0.0,0.016790736,0.0,0.0,nan,0.0,0.0,0.09651702,0.0,0.0,0.0,0.0,0.0,0.0,0.0,0.0
395033570,395032633,0.0,0.0,0.0,7.136588e-05,0.0,0.0,0.0,0.0,0.0,0.0,0.0,0.0,0.0,0.017399728,0.0,0.0,nan,0.0,0.0,0.19090891,0.0,0.0,0.0,0.0,0.0,0.0,0.0,0.0
395532817,395531933,0.0,0.0,0.0,0.00010000068,0.0,0.0,0.0,0.0,0.0,0.0,0.0,0.0,0.0,0.021060346,0.0,0.0,nan,0.0,0.0,0.15148404,0.0,0.0,0.0,0.0,0.0,0.0,0.0,0.0
396032265,396031244,0.0,0.0,0.0,0.00020044431,0.0,0.0,0.0,0.0,0.0,0.0,0.0,0.0,0.0,0.018867195,0.0,0.0,nan,0.0,0.0,0.2010186,0.0,0.0,0.0,0.0,0.0,0.0,0.0,0.0
396536416,396535539,0.0,0.0,0.0,0.0003629862,0.0,0.0,0.0,0.0,0.0,0.0,0.0,0.0,0.0,0.020139787,0.0,0.0,nan,0.0,0.0,0.12129467,0.0,0.0,0.0,0.0,0.0,0.0,0.0,0.0
397035934,397034847,0.0,0.0,0.0,0.00045320945,0.0,0.0,0.0,0.0,0.0,0.0,0.0,0.0,0.0,0.023242591,0.0,0.0,nan,0.0,0.0,0.18448424,0.0,0.0,0.0,0.0,0.0,0.0,0.0,0.0
397535103,397534153,0.0,0.0,0.0,0.00057232584,0.0,0.0,0.0,0.0,0.0,0.0,0.0,0.0,0.0,0.024867497,0.0,0.0,nan,0.0,0.0,0.08629131,0.0,0.0,0.0,0.0,0.0,0.0,0.0,0.0
398034483,398033465,0.0,0.0,0.0,0.00064342347,0.0,0.0,0.0,0.0,0.0,0.0,0.0,0.0,0.0,0.02125468,0.0,0.0,nan,0.0,0.0,0.06738275,0.0,0.0,0.0,0.0,0.0,0.0,0.0,0.0
398533665,398532769,0.0,0.0,0.0,0.0007089517,0.0,0.0,0.0,0.0,0.0,0.0,0.0,0.0,0.0,0.026122248,0.0,0.0,nan,0.0,0.0,0.016253242,0.0,0.0,0.0,0.0,0.0,0.0,0.0,0.0
399033206,399032071,0.0,0.0,0.0,0.0007774361,0.0,0.0,0.0,0.0,0.0,0.0,0.0,0.0,0.0,0.024081867,0.0,0.0,nan,0.0,0.0,0.0055845496,0.0,0.0,0.0,0.0,0.0,0.0,0.0,0.0
399532264,399531377,0.0,0.0,0.0,0.0008066779,0.0,0.0,0.0,0.0,0.0,0.0,0.0,0.0,0.0,0.02334688,0.0,0.0,nan,0.0,0.0,0.0062767104,0.0,0.0,0.0,0.0,0.0,0.0,0.0,0.0
400031565,400030684,0.0,0.0,0.0,0.00095906877,0.0,0.0,0.0,0.0,0.0,0.0,0.0,0.0,0.0,0.023921447,0.0,0.0,nan,0.0,0.0,0.043194585,0.0,0.0,0.0,0.0,0.0,0.0,0.0,0.0
400536007,400535037,0.0,0.0,0.0,0.0013009426,0.0,0.0,0.0,0.0,0.0,0.0,0.0,0.0,0.0,0.0197266,0.0,0.0,nan,0.0,0.0,0.023828665,0.0,0.0,0.0,0.0,0.0,0.0,0.0,0.0
401035144,401034291,0.0,0.0,0.0,0.0015931965,0.0,0.0,0.0,0.0,0.0,0.0,0.0,0.0,0.0,0.022060027,0.0,0.0,nan,0.0,0.0,0.027171655,0.0,0.0,0.0,0.0,0.0,0.0,0.0,0.0
401534676,401533602,0.0,0.0,0.0,0.0018322511,0.0,0.0,0.0,0.0,0.0,0.0,0.0,0.0,0.0,0.022425665,0.0,0.0,nan,0.0,0.0,7.2263147e-06,0.0,0.0,0.0,0.0,0.0,0.0,0.0,0.0
402033841,402032900,0.0,0.0,0.0,0.0018157008,0.0,0.0,0.0,0.0,0.0,0.0,0.0,0.0,0.0,0.01843351,0.0,0.0,nan,0.0,0.0,0.01155229,0.0,0.0,0.0,0.0,0.0,0.0,0.0,0.0
402533309,402532205,0.0,0.0,0.0,0.0017724013,0.0,0.0,0.0,0.0,0.0,0.0,0.0,0.0,0.0,0.019840112,0.0,0.0,nan,0.0,0.0,0.04621646,0.0,0.0,0.0,0.0,0.0,0.0,0.0,0.0
403032441,403031516,0.0,0.0,0.0,0.0019707873,0.0,0.0,0.0,0.0,0.0,0.0,0.0,0.0,0.0,0.02105302,0.0,0.0,nan,0.0,0.0,0.05413971,0.0,0.0,0.0,0.0,0.0,0.0,0.0,0.0
403531966,403530820,0.0,0.0,0.0,0.002045082,0.0,0.0,0.0,0.0,0.0,0.0,0.0,0.0,0.0,0.01899974,0.0,0.0,nan,0.0,0.0,0.0573544,0.0,0.0,0.0,0.0,0.0,0.0,0.0,0.0
404036055,404035115,0.0,0.0,0.0,0.001996884,0.0,0.0,0.0,0.0,0.0,0.0,0.0,0.0,0.0,0.01849223,0.0,0.0,nan,0.0,0.0,0.026844658,0.0,0.0,0.0,0.0,0.0,0.0,0.0,0.0
404535505,404534421,0.0,0.0,0.0,0.0019047036,0.0,0.0,0.0,0.0,0.0,0.0,0.0,0.0,0.0,0.019188792,0.0,0.0,nan,0.0,0.0,0.015887886,0.0,0.0,0.0,0.0,0.0,0.0,0.0,0.0
405034564,405033726,0.0,0.0,0.0,0.0017552642,0.0,0.0,0.0,0.0,0.0,0.0,0.0,0.0,0.0,0.01704299,0.0,0.0,nan,0.0,0.0,0.0013043219,0.0,0.0,0.0,0.0,0.0,0.0,0.0,0.0
405534099,405533032,0.0,0.0,0.0,0.0015930347,0.0,0.0,0.0,0.0,0.0,0.0,0.0,0.0,0.0,0.018211003,0.0,0.0,nan,0.0,0.0,0.0025398945,0.0,0.0,0.0,0.0,0.0,0.0,0.0,0.0
406033422,406032336,0.0,0.0,0.0,0.00151155,0.0,0.0,0.0,0.0,0.0,0.0,0.0,0.0,0.0,0.016559562,0.0,0.0,nan,0.0,0.0,0.007437797,0.0,0.0,0.0,0.0,0.0,0.0,0.0,0.0
406532478,406531641,0.0,0.0,0.0,0.0013033698,0.0,0.0,0.0,0.0,0.0,0.0,0.0,0.0,0.0,0.017199479,0.0,0.0,nan,0.0,0.0,0.010172385,0.0,0.0,0.0,0.0,0.0,0.0,0.0,0.0
407033603,407030949,0.0,0.0,0.0,0.0010924084,0.0,0.0,0.0,0.0,0.0,0.0,0.0,0.0,0.0,0.014643469,0.0,0.0,nan,0.0,0.0,0.0,0.054006334,0.0,0.0,0.0,0.0,0.0,0.0,0.0
407531206,407530260,0.0,0.0,0.0,0.0012446981,0.0,0.0,0.0,0.0,0.0,0.0,0.0,0.0,0.0,0.019016955,0.0,0.0,nan,0.0,0.0,0.0,0.021444533,0.0,0.0,0.0,0.0,0.0,0.0,0.0
408037099,408034550,0.0,0.0,0.0,0.0015750919,0.0,0.0,0.0,0.0,0.0,0.0,0.0,0.0,0.0,0.015274616,0.0,0.0,nan,0.0,0.0,0.0,0.013580704,0.0,0.0,0.0,0.0,0.0,0.0,0.0
408534824,408533853,0.0,0.0,0.0,0.0018237592,0.0,0.0,0.0,0.0,0.0,0.0,0.0,0.0,0.0,0.0181846,0.0,0.0,nan,0.0,0.0,0.0,0.009125898,0.0,0.0,0.0,0.0,0.0,0.0,0.0
409035946,409033158,0.0,0.0,0.0,0.0023831737,0.0,0.0,0.0,0.0,0.0,0.0,0.0,0.0,0.0,0.014345865,0.0,0.0,nan,0.0,0.0,0.0,0.036661785,0.0,0.0,0.0,0.0,0.0,0.0,0.0
409533373,409532462,0.0,0.0,0.0,0.0028400018,0.0,0.0,0.0,0.0,0.0,0.0,0.0,0.0,0.0,0.016540065,0.0,0.0,nan,0.0,0.0,0.0,0.076760806,0.0,0.0,0.0,0.0,0.0,0.0,0.0
410032703,410031767,0.0,0.0,0.0,0.00328967,0.0,0.0,0.0,0.0,0.0,0.0,0.0,0.0,0.0,0.016548954,0.0,0.0,nan,0.0,0.0,0.0,0.08563648,0.0,0.0,0.0,0.0,0.0,0.0,0.0
410533622,410531074,0.0,0.0,0.0,0.0039154547,0.0,0.0,0.0,0.0,0.0,0.0,0.0,0.0,0.0,0.015478615,0.0,0.0,nan,0.0,0.0,0.0,0.121174365,0.0,0.0,0.0,0.0,0.0,0.0,0.0
411031246,411030375,0.0,0.0,0.0,0.00409267,0.0,0.0,0.0,0.0,0.0,0.0,0.0,0.0,0.0,0.016235571,0.0,0.0,nan,0.0,0.0,0.0,0.18033955,0.0,0.0,0.0,0.0,0.0,0.0,0.0
411537523,411534673,0.0,0.0,0.0,0.0036915839,0.0,0.0,0.0,0.0,0.0,0.0,0.0,0.0,0.0,0.014224718,0.0,0.0,nan,0.0,0.0,0.0,0.1149784,0.0,0.0,0.0,0.0,0.0,0.0,0.0
412034980,412033976,0.0,0.0,0.0,0.0034520759,0.0,0.0,0.0,0.0,0.0,0.0,0.0,0.0,0.0,0.02044036,0.0,0.0,nan,0.0,0.0,0.0,0.110941954,0.0,0.0,0.0,0.0,0.0,0.0,0.0
412535874,412533281,0.0,0.0,0.0,0.0028187663,0.0,0.0,0.0,0.0,0.0,0.0,0.0,0.0,0.0,0.015080675,0.0,0.0,nan,0.0,0.0,0.0,0.20166102,0.0,0.0,0.0,0.0,0.0,0.0,0.0
413033532,413032585,0.0,0.0,0.0,0.0020317805,0.0,0.0,0.0,0.0,0.0,0.0,0.0,0.0,0.0,0.018103188,0.0,0.0,nan,0.0,0.0,0.0,0.14001706,0.0,0.0,0.0,0.0,0.0,0.0,0.0
413532998,413531889,0.0,0.0,0.0,0.0018095679,0.0,0.0,0.0,0.0,0.0,0.0,0.0,0.0,0.0,0.017261013,0.0,0.0,nan,0.0,0.0,0.0002978828,0.0,0.0,0.0,0.0,0.0,0.0,0.0,0.0
414032142,414031192,0.0,0.0,0.0,0.0017476056,0.0,0.0,0.0,0.0,0.0,0.0,0.0,0.0,0.0,0.017693995,0.0,0.0,nan,0.0,0.0,0.017149791,0.0,0.0,0.0,0.0,0.0,0.0,0.0,0.0
414531401,414530537,0.0,0.0,0.0,0.0015881847,0.0,0.0,0.0,0.0,0.0,0.0,0.0,0.0,0.0,0.020469496,0.0,0.0,nan,0.0,0.0,0.076785505,0.0,0.0,0.0,0.0,0.0,0.0,0.0,0.0
415035894,415034799,0.0,0.0,0.0,0.001447771,0.0,0.0,0.0,0.0,0.0,0.0,0.0,0.0,0.0,0.013806039,0.0,0.0,nan,0.0,0.0,0.09680053,0.0,0.0,0.0,0.0,0.0,0.0,0.0,0.0
415535164,415534096,0.0,0.0,0.0,0.0014087115,0.0,0.0,0.0,0.0,0.0,0.0,0.0,0.0,0.0,0.01822306,0.0,0.0,nan,0.0,0.0,0.04105175,0.0,0.0,0.0,0.0,0.0,0.0,0.0,0.0
416533765,416532703,0.0,0.0,0.0,0.0015588661,0.0,0.0,0.0,0.0,0.0,0.0,0.0,0.0,0.0,0.016614687,0.0,0.0,nan,0.0,0.0,0.017743992,0.0,0.0,0.0,0.0,0.0,0.0,0.0,0.0
417033082,417032006,0.0,0.0,0.0,0.0016072764,0.0,0.0,0.0,0.0,0.0,0.0,0.0,0.0,0.0,0.015775818,0.0,0.0,nan,0.0,0.0,0.004403931,0.0,0.0,0.0,0.0,0.0,0.0,0.0,0.0
417532210,417531310,0.0,0.0,0.0,0.0015538853,0.0,0.0,0.0,0.0,0.0,0.0,0.0,0.0,0.0,0.014767216,0.0,0.0,nan,0.0,0.0,0.020917887,0.0,0.0,0.0,0.0,0.0,0.0,0.0,0.0
418031829,418030628,0.0,0.0,0.0,0.0013886754,0.0,0.0,0.0,0.0,0.0,0.0,0.0,0.0,0.0,0.013794925,0.0,0.0,nan,0.0,0.0,0.07422083,0.0,0.0,0.0,0.0,0.0,0.0,0.0,0.0
418535746,418534908,0.0,0.0,0.0,0.0014540531,0.0,0.0,0.0,0.0,0.0,0.0,0.0,0.0,0.0,0.015463626,0.0,0.0,nan,0.0,0.0,0.03884683,0.0,0.0,0.0,0.0,0.0,0.0,0.0,0.0
419035301,419034214,0.0,0.0,0.0,0.0015927345,0.0,0.0,0.0,0.0,0.0,0.0,0.0,0.0,0.0,0.017297404,0.0,0.0,nan,0.0,0.0,0.011203641,0.0,0.0,0.0,0.0,0.0,0.0,0.0,0.0
419534536,419533515,0.0,0.0,0.0,0.001969182,0.0,0.0,0.0,0.0,0.0,0.0,0.0,0.0,0.0,0.016134018,0.0,0.0,nan,0.0,0.0,0.0028467416,0.0,0.0,0.0,0.0,0.0,0.0,0.0,0.0
420033699,420032815,0.0,0.0,0.0,0.0023240638,0.0,0.0,0.0,0.0,0.0,0.0,0.0,0.0,0.0,0.014947419,0.0,0.0,nan,0.0,0.0,0.006299339,0.0,0.0,0.0,0.0,0.0,0.0,0.0,0.0
420533199,420532120,0.0,0.0,0.0,0.002679097,0.0,0.0,0.0,0.0,0.0,0.0,0.0,0.0,0.0,0.016506292,0.0,0.0,nan,0.0,0.0,0.0185785,0.0,0.0,0.0,0.0,0.0,0.0,0.0,0.0
421032446,421031423,0.0,0.0,0.0,0.0032556767,0.0,0.0,0.0,0.0,0.0,0.0,0.0,0.0,0.0,0.017012838,0.0,0.0,nan,0.0,0.0,0.08173589,0.0,0.0,0.0,0.0,0.0,0.0,0.0,0.0
421536746,421535719,0.0,0.0,0.0,0.003524521,0.0,0.0,0.0,0.0,0.0,0.0,0.0,0.0,0.0,0.014399087,0.0,0.0,nan,0.0,0.0,0.111061975,0.0,0.0,0.0,0.0,0.0,0.0,0.0,0.0
422035927,422035022,0.0,0.0,0.0,0.0038346865,0.0,0.0,0.0,0.0,0.0,0.0,0.0,0.0,0.0,0.0143640665,0.0,0.0,nan,0.0,0.0,0.099517494,0.0,0.0,0.0,0.0,0.0,0.0,0.0,0.0
422535468,422534324,0.0,0.0,0.0,0.0040498585,0.0,0.0,0.0,0.0,0.0,0.0,0.0,0.0,0.0,0.012617463,0.0,0.0,nan,0.0,0.0,0.047604937,0.0,0.0,0.0,0.0,0.0,0.0,0.0,0.0
423034475,423033626,0.0,0.0,0.0,0.004267853,0.0,0.0,0.0,0.0,0.0,0.0,0.0,0.0,0.0,0.014988631,0.0,0.0,nan,0.0,0.0,0.18060073,0.0,0.0,0.0,0.0,0.0,0.0,0.0,0.0
423534100,423532929,0.0,0.0,0.0,0.0043153395,0.0,0.0,0.0,0.0,0.0,0.0,0.0,0.0,0.0,0.014331275,0.0,0.0,nan,0.0,0.0,0.5654834,0.0,0.0,0.0,0.0,0.0,0.0,0.0,0.0
424033245,424032231,0.0,0.0,0.0,0.004159006,0.0,0.0,0.0,0.0,0.0,0.0,0.0,0.0,0.0,0.016613733,0.0,0.0,nan,0.0,0.0,0.7057792,0.0,0.0,0.0,0.0,0.0,0.0,0.0,0.0
424532408,424531533,0.0,0.0,0.0,0.0036512685,0.0,0.0,0.0,0.0,0.0,0.0,0.0,0.0,0.0,0.015598894,0.0,0.0,nan,0.0,0.0,0.5684358,0.0,0.0,0.0,0.0,0.0,0.0,0.0,0.0
425036850,425035828,0.0,0.0,0.0,0.003023748,0.0,0.0,0.0,0.0,0.0,0.0,0.0,0.0,0.0,0.014579375,0.0,0.0,nan,0.0,0.0,0.4251496,0.0,0.0,0.0,0.0,0.0,0.0,0.0,0.0
425536300,425535129,0.0,0.0,0.0,0.002511453,0.0,0.0,0.0,0.0,0.0,0.0,0.0,0.0,0.0,0.0135878045,0.0,0.0,nan,0.0,0.0,0.31031263,0.0,0.0,0.0,0.0,0.0,0.0,0.0,0.0
426035527,426034432,0.0,0.0,0.0,0.0023961477,0.0,0.0,0.0,0.0,0.0,0.0,0.0,0.0,0.0,0.013880729,0.0,0.0,nan,0.0,0.0,0.19085124,0.0,0.0,0.0,0.0,0.0,0.0,0.0,0.0
426534621,426533735,0.0,0.0,0.0,0.0027355247,0.0,0.0,0.0,0.0,0.0,0.0,0.0,0.0,0.0,0.012221239,0.0,0.0,nan,0.0,0.0,0.19056413,0.0,0.0,0.0,0.0,0.0,0.0,0.0,0.0
427034342,427033035,0.0,0.0,0.0,0.0032795656,0.0,0.0,0.0,0.0,0.0,0.0,0.0,0.0,0.0,0.01339179,0.0,0.0,nan,0.0,0.0,0.08889219,0.0,0.0,0.0,0.0,0.0,0.0,0.0,0.0
427533267,427532344,0.0,0.0,0.0,0.0034578177,0.0,0.0,0.0,0.0,0.0,0.0,0.0,0.0,0.0,0.00903227,0.0,0.0,nan,0.0,0.0,0.03295963,0.0,0.0,0.0,0.0,0.0,0.0,0.0,0.0
428032796,428031638,0.0,0.0,0.0,0.003455802,0.0,0.0,0.0,0.0,0.0,0.0,0.0,0.0,0.0,0.010877528,0.0,0.0,nan,0.0,0.0,0.0014535288,0.0,0.0,0.0,0.0,0.0,0.0,0.0,0.0
428531860,428530940,0.0,0.0,0.0,0.003186076,0.0,0.0,0.0,0.0,0.0,0.0,0.0,0.0,0.0,0.010271889,0.0,0.0,nan,0.0,0.0,0.008827064,0.0,0.0,0.0,0.0,0.0,0.0,0.0,0.0
429031171,429030241,0.0,0.0,0.0,0.0028039182,0.0,0.0,0.0,0.0,0.0,0.0,0.0,0.0,0.0,0.011253915,0.0,0.0,nan,0.0,0.0,0.003079835,0.0,0.0,0.0,0.0,0.0,0.0,0.0,0.0
429535467,429534537,0.0,0.0,0.0,0.0023533588,0.0,0.0,0.0,0.0,0.0,0.0,0.0,0.0,0.0,0.009273437,0.0,0.0,nan,0.0,0.0,0.0051544486,0.0,0.0,0.0,0.0,0.0,0.0,0.0,0.0
430035063,430033837,0.0,0.0,0.0,0.0017566097,0.0,0.0,0.0,0.0,0.0,0.0,0.0,0.0,0.0,0.009858956,0.0,0.0,nan,0.0,0.0,0.027464082,0.0,0.0,0.0,0.0,0.0,0.0,0.0,0.0
430534078,430533137,0.0,0.0,0.0,0.0014256507,0.0,0.0,0.0,0.0,0.0,0.0,0.0,0.0,0.0,0.0074033863,0.0,0.0,nan,0.0,0.0,0.059127115,0.0,0.0,0.0,0.0,0.0,0.0,0.0,0.0
431033333,431032437,0.0,0.0,0.0,0.0010193876,0.0,0.0,0.0,0.0,0.0,0.0,0.0,0.0,0.0,0.008363309,0.0,0.0,nan,0.0,0.0,0.058608003,0.0,0.0,0.0,0.0,0.0,0.0,0.0,0.0
431532881,431531739,0.0,0.0,0.0,0.000932804,0.0,0.0,0.0,0.0,0.0,0.0,0.0,0.0,0.0,0.007095899,0.0,0.0,nan,0.0,0.0,0.0624523,0.0,0.0,0.0,0.0,0.0,0.0,0.0,0.0
432031999,432031039,0.0,0.0,0.0,0.0008645791,0.0,0.0,0.0,0.0,0.0,0.0,0.0,0.0,0.0,0.005801129,0.0,0.0,nan,0.0,0.0,0.088951625,0.0,0.0,0.0,0.0,0.0,0.0,0.0,0.0
432531421,432530339,0.0,0.0,0.0,0.0006274603,0.0,0.0,0.0,0.0,0.0,0.0,0.0,0.0,0.0,0.0052951737,0.0,0.0,nan,0.0,0.0,0.06626024,0.0,0.0,0.0,0.0,0.0,0.0,0.0,0.0
433035593,433034633,0.0,0.0,0.0,0.0005045152,0.0,0.0,0.0,0.0,0.0,0.0,0.0,0.0,0.0,0.0037638475,0.0,0.0,nan,0.0,0.0,0.052853987,0.0,0.0,0.0,0.0,0.0,0.0,0.0,0.0
433535011,433533984,0.0,0.0,0.0,0.00033315056,0.0,0.0,0.0,0.0,0.0,0.0,0.0,0.0,0.0,0.0061370474,0.0,0.0,nan,0.0,0.0,0.02898857,0.0,0.0,0.0,0.0,0.0,0.0,0.0,0.0
434034069,434033234,0.0,0.0,0.0,0.0002366508,0.0,0.0,0.0,0.0,0.0,0.0,0.0,0.0,0.0,0.004100734,0.0,0.0,nan,0.0,0.0,0.05653992,0.0,0.0,0.0,0.0,0.0,0.0,0.0,0.0
434533727,434532534,0.0,0.0,0.0,0.00016639261,0.0,0.0,0.0,0.0,0.0,0.0,0.0,0.0,0.0,0.004292653,0.0,0.0,nan,0.0,0.0,0.0640717,0.0,0.0,0.0,0.0,0.0,0.0,0.0,0.0
435032845,435031838,0.0,0.0,0.0,9.436199e-05,0.0,0.0,0.0,0.0,0.0,0.0,0.0,0.0,0.0,0.0039313114,0.0,0.0,nan,0.0,0.0,0.053875625,0.0,0.0,0.0,0.0,0.0,0.0,0.0,0.0
435531975,435531143,0.0,0.0,0.0,5.6854293e-05,0.0,0.0,0.0,0.0,0.0,0.0,0.0,0.0,0.0,0.0037730797,0.0,0.0,nan,0.0,0.0,0.03397409,0.0,0.0,0.0,0.0,0.0,0.0,0.0,0.0
436031582,436030434,0.0,0.0,0.0,8.140131e-05,0.0,0.0,0.0,0.0,0.0,0.0,0.0,0.0,0.0,0.0038445303,0.0,0.0,nan,0.0,0.0,0.027749367,0.0,0.0,0.0,0.0,0.0,0.0,0.0,0.0
436530667,436529766,0.0,0.0,0.0,0.00023373512,0.0,0.0,0.0,0.0,0.0,0.0,0.0,0.0,0.0,0.0023126258,0.0,0.0,nan,0.0,0.0,0.017777838,0.0,0.0,0.0,0.0,0.0,0.0,0.0,0.0
437035097,437034026,0.0,0.0,0.0,0.0003879826,0.0,0.0,0.0,0.0,0.0,0.0,0.0,0.0,0.0,0.0032293512,0.0,0.0,nan,0.0,0.0,0.0071236277,0.0,0.0,0.0,0.0,0.0,0.0,0.0,0.0
437534321,437533326,0.0,0.0,0.0,0.0006689135,0.0,0.0,0.0,0.0,0.0,0.0,0.0,0.0,0.0,0.0031141692,0.0,0.0,nan,0.0,0.0,0.0001960428,0.0,0.0,0.0,0.0,0.0,0.0,0.0,0.0
438033598,438032626,0.0,0.0,0.0,0.00085160683,0.0,0.0,0.0,0.0,0.0,0.0,0.0,0.0,0.0,0.0031042702,0.0,0.0,nan,0.0,0.0,0.0007223746,0.0,0.0,0.0,0.0,0.0,0.0,0.0,0.0
438532879,438531926,0.0,0.0,0.0,0.0009966843,0.0,0.0,0.0,0.0,0.0,0.0,0.0,0.0,0.0,0.0032744552,0.0,0.0,nan,0.0,0.0,0.00043424155,0.0,0.0,0.0,0.0,0.0,0.0,0.0,0.0
439032312,439031225,0.0,0.0,0.0,0.001138096,0.0,0.0,0.0,0.0,0.0,0.0,0.0,0.0,0.0,0.0019849492,0.0,0.0,nan,0.0,0.0,0.0020234915,0.0,0.0,0.0,0.0,0.0,0.0,0.0,0.0
439531602,439530525,0.0,0.0,0.0,0.001186482,0.0,0.0,0.0,0.0,0.0,0.0,0.0,0.0,0.0,0.0030126728,0.0,0.0,nan,0.0,0.0,0.012670695,0.0,0.0,0.0,0.0,0.0,0.0,0.0,0.0
440030767,440029823,0.0,0.0,0.0,0.0012120388,0.0,0.0,0.0,0.0,0.0,0.0,0.0,0.0,0.0,0.0025654628,0.0,0.0,nan,0.0,0.0,0.006934508,0.0,0.0,0.0,0.0,0.0,0.0,0.0,0.0
440530224,440529123,0.0,0.0,0.0,0.001181646,0.0,0.0,0.0,0.0,0.0,0.0,0.0,0.0,0.0,0.004457262,0.0,0.0,nan,0.0,0.0,0.0006893706,0.0,0.0,0.0,0.0,0.0,0.0,0.0,0.0
441039490,441038412,0.0,0.0,0.0,0.0011268285,0.0,0.0,0.0,0.0,0.0,0.0,0.0,0.0,0.0,0.0053286105,0.0,0.0,nan,0.0,0.0,0.0004924139,0.0,0.0,0.0,0.0,0.0,0.0,0.0,0.0
441533790,441532714,0.0,0.0,0.0,0.0010579583,0.0,0.0,0.0,0.0,0.0,0.0,0.0,0.0,0.0,0.0038008695,0.0,0.0,nan,0.0,0.0,0.016365714,0.0,0.0,0.0,0.0,0.0,0.0,0.0,0.0
442032916,442032012,0.0,0.0,0.0,0.0010599262,0.0,0.0,0.0,0.0,0.0,0.0,0.0,0.0,0.0,0.005134103,0.0,0.0,nan,0.0,0.0,0.03476542,0.0,0.0,0.0,0.0,0.0,0.0,0.0,0.0
442532520,442531312,0.0,0.0,0.0,0.0011672446,0.0,0.0,0.0,0.0,0.0,0.0,0.0,0.0,0.0,0.006100736,0.0,0.0,nan,0.0,0.0,0.04546505,0.0,0.0,0.0,0.0,0.0,0.0,0.0,0.0
443031543,443030611,0.0,0.0,0.0,0.0013058434,0.0,0.0,0.0,0.0,0.0,0.0,0.0,0.0,0.0,0.005318521,0.0,0.0,nan,0.0,0.0,0.045132242,0.0,0.0,0.0,0.0,0.0,0.0,0.0,0.0
443530951,443529910,0.0,0.0,0.0,0.0015097212,0.0,0.0,0.0,0.0,0.0,0.0,0.0,0.0,0.0,0.004643325,0.0,0.0,nan,0.0,0.0,0.029959157,0.0,0.0,0.0,0.0,0.0,0.0,0.0,0.0
444035093,444034200,0.0,0.0,0.0,0.0018123445,0.0,0.0,0.0,0.0,0.0,0.0,0.0,0.0,0.0,0.0048607006,0.0,0.0,nan,0.0,0.0,0.0027586855,0.0,0.0,0.0,0.0,0.0,0.0,0.0,0.0
444534589,444533498,0.0,0.0,0.0,0.0020014464,0.0,0.0,0.0,0.0,0.0,0.0,0.0,0.0,0.0,0.0036133623,0.0,0.0,nan,0.0,0.0,0.004643018,0.0,0.0,0.0,0.0,0.0,0.0,0.0,0.0
445033790,445032797,0.0,0.0,0.0,0.002201041,0.0,0.0,0.0,0.0,0.0,0.0,0.0,0.0,0.0,0.0031707992,0.0,0.0,nan,0.0,0.0,0.035535894,0.0,0.0,0.0,0.0,0.0,0.0,0.0,0.0
445533028,445532095,0.0,0.0,0.0,0.002358685,0.0,0.0,0.0,0.0,0.0,0.0,0.0,0.0,0.0,0.006270557,0.0,0.0,nan,0.0,0.0,0.08076372,0.0,0.0,0.0,0.0,0.0,0.0,0.0,0.0
446032356,446031391,0.0,0.0,0.0,0.0023586226,0.0,0.0,0.0,0.0,0.0,0.0,0.0,0.0,0.0,0.0065539908,0.0,0.0,nan,0.0,0.0,0.07449434,0.0,0.0,0.0,0.0,0.0,0.0,0.0,0.0
446531681,446530692,0.0,0.0,0.0,0.002423076,0.0,0.0,0.0,0.0,0.0,0.0,0.0,0.0,0.0,0.008264792,0.0,0.0,nan,0.0,0.0,0.08606592,0.0,0.0,0.0,0.0,0.0,0.0,0.0,0.0
447031067,447030047,0.0,0.0,0.0,0.0024772522,0.0,0.0,0.0,0.0,0.0,0.0,0.0,0.0,0.0,0.0075017097,0.0,0.0,nan,0.0,0.0,0.06692913,0.0,0.0,0.0,0.0,0.0,0.0,0.0,0.0
447535167,447534280,0.0,0.0,0.0,0.0025829363,0.0,0.0,0.0,0.0,0.0,0.0,0.0,0.0,0.0,0.010207202,0.0,0.0,nan,0.0,0.0,0.070098184,0.0,0.0,0.0,0.0,0.0,0.0,0.0,0.0
448034654,448033578,0.0,0.0,0.0,0.002686268,0.0,0.0,0.0,0.0,0.0,0.0,0.0,0.0,0.0,0.012776424,0.0,0.0,nan,0.0,0.0,0.07572168,0.0,0.0,0.0,0.0,0.0,0.0,0.0,0.0
448533764,448532875,0.0,0.0,0.0,0.0025695649,0.0,0.0,0.0,0.0,0.0,0.0,0.0,0.0,0.0,0.011372079,0.0,0.0,nan,0.0,0.0,0.06114484,0.0,0.0,0.0,0.0,0.0,0.0,0.0,0.0
449033219,449032173,0.0,0.0,0.0,0.0023042222,0.0,0.0,0.0,0.0,0.0,0.0,0.0,0.0,0.0,0.009711215,0.0,0.0,nan,0.0,0.0,0.078906685,0.0,0.0,0.0,0.0,0.0,0.0,0.0,0.0
449532446,449531471,0.0,0.0,0.0,0.002002133,0.0,0.0,0.0,0.0,0.0,0.0,0.0,0.0,0.0,0.01196223,0.0,0.0,nan,0.0,0.0,0.06740524,0.0,0.0,0.0,0.0,0.0,0.0,0.0,0.0
450031695,450030769,0.0,0.0,0.0,0.0017113691,0.0,0.0,0.0,0.0,0.0,0.0,0.0,0.0,0.0,0.011986377,0.0,0.0,nan,0.0,0.0,0.07355155,0.0,0.0,0.0,0.0,0.0,0.0,0.0,0.0
450536143,450535058,0.0,0.0,0.0,0.0012469236,0.0,0.0,0.0,0.0,0.0,0.0,0.0,0.0,0.0,0.013119688,0.0,0.0,nan,0.0,0.0,0.06133334,0.0,0.0,0.0,0.0,0.0,0.0,0.0,0.0
451035229,451034355,0.0,0.0,0.0,0.0009993264,0.0,0.0,0.0,0.0,0.0,0.0,0.0,0.0,0.0,0.013063586,0.0,0.0,nan,0.0,0.0,0.0416944,0.0,0.0,0.0,0.0,0.0,0.0,0.0,0.0
451534697,451533658,0.0,0.0,0.0,0.00089821406,0.0,0.0,0.0,0.0,0.0,0.0,0.0,0.0,0.0,0.013376611,0.0,0.0,nan,0.0,0.0,0.009685427,0.0,0.0,0.0,0.0,0.0,0.0,0.0,0.0
452033973,452032951,0.0,0.0,0.0,0.000921804,0.0,0.0,0.0,0.0,0.0,0.0,0.0,0.0,0.0,0.012534324,0.0,0.0,nan,0.0,0.0,0.0006903509,0.0,0.0,0.0,0.0,0.0,0.0,0.0,0.0
452533313,452532247,0.0,0.0,0.0,0.0009216089,0.0,0.0,0.0,0.0,0.0,0.0,0.0,0.0,0.0,0.014314072,0.0,0.0,nan,0.0,0.0,0.0036514625,0.0,0.0,0.0,0.0,0.0,0.0,0.0,0.0
453032384,453031544,0.0,0.0,0.0,0.00090842944,0.0,0.0,0.0,0.0,0.0,0.0,0.0,0.0,0.0,0.013386062,0.0,0.0,nan,0.0,0.0,0.017760955,0.0,0.0,0.0,0.0,0.0,0.0,0.0,0.0
453531925,453530840,0.0,0.0,0.0,0.00088686374,0.0,0.0,0.0,0.0,0.0,0.0,0.0,0.0,0.0,0.011895118,0.0,0.0,nan,0.0,0.0,0.034037597,0.0,0.0,0.0,0.0,0.0,0.0,0.0,0.0
454036074,454035130,0.0,0.0,0.0,0.0008832208,0.0,0.0,0.0,0.0,0.0,0.0,0.0,0.0,0.0,0.012823899,0.0,0.0,nan,0.0,0.0,0.055479698,0.0,0.0,0.0,0.0,0.0,0.0,0.0,0.0
454535614,454534427,0.0,0.0,0.0,0.00092648074,0.0,0.0,0.0,0.0,0.0,0.0,0.0,0.0,0.0,0.0125534795,0.0,0.0,nan,0.0,0.0,0.08595093,0.0,0.0,0.0,0.0,0.0,0.0,0.0,0.0
455034640,455033724,0.0,0.0,0.0,0.00093061954,0.0,0.0,0.0,0.0,0.0,0.0,0.0,0.0,0.0,0.011451128,0.0,0.0,nan,0.0,0.0,0.109390445,0.0,0.0,0.0,0.0,0.0,0.0,0.0,0.0
455533924,455533022,0.0,0.0,0.0,0.0009093091,0.0,0.0,0.0,0.0,0.0,0.0,0.0,0.0,0.0,0.012406887,0.0,0.0,nan,0.0,0.0,0.13508236,0.0,0.0,0.0,0.0,0.0,0.0,0.0,0.0
456033395,456032316,0.0,0.0,0.0,0.0008602393,0.0,0.0,0.0,0.0,0.0,0.0,0.0,0.0,0.0,0.013043474,0.0,0.0,nan,0.0,0.0,0.20604847,0.0,0.0,0.0,0.0,0.0,0.0,0.0,0.0
456532561,456531613,0.0,0.0,0.0,0.00076216465,0.0,0.0,0.0,0.0,0.0,0.0,0.0,0.0,0.0,0.011746759,0.0,0.0,nan,0.0,0.0,0.25784302,0.0,0.0,0.0,0.0,0.0,0.0,0.0,0.0
457036924,457035902,0.0,0.0,0.0,0.00060408073,0.0,0.0,0.0,0.0,0.0,0.0,0.0,0.0,0.0,0.0109110465,0.0,0.0,nan,0.0,0.0,0.3210333,0.0,0.0,0.0,0.0,0.0,0.0,0.0,0.0
457536140,457535199,0.0,0.0,0.0,0.0005230966,0.0,0.0,0.0,0.0,0.0,0.0,0.0,0.0,0.0,0.011361127,0.0,0.0,nan,0.0,0.0,0.34066284,0.0,0.0,0.0,0.0,0.0,0.0,0.0,0.0
458035615,458034513,0.0,0.0,0.0,0.00047348102,0.0,0.0,0.0,0.0,0.0,0.0,0.0,0.0,0.0,0.011116145,0.0,0.0,nan,0.0,0.0,0.36403105,0.0,0.0,0.0,0.0,0.0,0.0,0.0,0.0
458534683,458533790,0.0,0.0,0.0,0.00046626155,0.0,0.0,0.0,0.0,0.0,0.0,0.0,0.0,0.0,0.009411856,0.0,0.0,nan,0.0,0.0,0.0,1.0983388,0.0,0.0,0.0,0.0,0.0,0.0,0.0
459034293,459033089,0.0,0.0,0.0,0.0005322533,0.0,0.0,0.0,0.0,0.0,0.0,0.0,0.0,0.0,0.008005741,0.0,0.0,nan,0.0,0.0,0.0,1.2153447,0.0,0.0,0.0,0.0,0.0,0.0,0.0
459533321,459532386,0.0,0.0,0.0,0.0006960361,0.0,0.0,0.0,0.0,0.0,0.0,0.0,0.0,0.0,0.009885341,0.0,0.0,nan,0.0,0.0,0.0,1.0848162,0.0,0.0,0.0,0.0,0.0,0.0,0.0
460032526,460031679,0.0,0.0,0.0,0.005871818,0.0,0.0,0.0,0.0,0.0,0.0,0.0,0.0,0.0,0.0076743537,0.0,0.0,nan,0.0,0.0,0.0,0.6732226,0.0,0.0,0.0,0.0,0.0,0.0,0.0
460533573,460530974,0.0,0.0,0.0,0.020477131,0.0,0.0,0.0,0.0,0.0,0.0,0.0,0.0,0.0,0.0072857216,0.0,0.0,nan,0.0,0.0,0.0,0.6773843,0.0,0.0,0.0,0.0,0.0,0.0,0.0
461031134,461030269,0.0,0.0,0.0,0.04051479,0.0,0.0,0.0,0.0,0.0,0.0,0.0,0.0,0.0,0.0063159815,0.0,0.0,nan,0.0,0.0,0.0,0.66079503,0.0,0.0,0.0,0.0,0.0,0.0,0.0
461537157,461534559,0.0,0.0,0.0,0.053665325,0.0,0.0,0.0,0.0,0.0,0.0,0.0,0.0,0.0,0.0059072943,0.0,0.0,nan,0.0,0.0,0.0,0.67570215,0.0,0.0,0.0,0.0,0.0,0.0,0.0
462034808,462033854,0.0,0.0,0.0,0.06882151,0.0,0.0,0.0,0.0,0.0,0.0,0.0,0.0,0.0,0.0037803648,0.0,0.0,nan,0.0,0.0,0.0,0.6097531,0.0,0.0,0.0,0.0,0.0,0.0,0.0
462535699,462533149,0.0,0.0,0.0,0.08374184,0.0,0.0,0.0,0.0,0.0,0.0,0.0,0.0,0.0,0.0030617956,0.0,0.0,nan,0.0,0.0,0.0,0.20949353,0.0,0.0,0.0,0.0,0.0,0.0,0.0
463033361,463032445,0.0,0.0,0.0,0.09311103,0.0,0.0,0.0,0.0,0.0,0.0,0.0,0.0,0.0,0.0019579905,0.0,0.0,nan,0.0,0.0,0.0,0.16748658,0.0,0.0,0.0,0.0,0.0,0.0,0.0
463534548,463531740,0.0,0.0,0.0,0.09883681,0.0,0.0,0.0,0.0,0.0,0.0,0.0,0.0,0.0,0.001318864,0.0,0.0,nan,0.0,0.0,0.0,0.10446921,0.0,0.0,0.0,0.0,0.0,0.0,0.0
464031883,464031036,0.0,0.0,0.0,0.090590976,0.0,0.0,0.0,0.0,0.0,0.0,0.0,0.0,0.0,0.0005707445,0.0,0.0,nan,0.0,0.0,0.0,0.10252151,0.0,0.0,0.0,0.0,0.0,0.0,0.0
464538183,464535324,0.0,0.0,0.0,0.072188824,0.0,0.0,0.0,0.0,0.0,0.0,0.0,0.0,0.0,0.0009997801,0.0,0.0,nan,0.0,0.0,0.0,0.0906171,0.0,0.0,0.0,0.0,0.0,0.0,0.0
465035515,465034623,0.0,0.0,0.0,0.06652858,0.0,0.0,0.0,0.0,0.0,0.0,0.0,0.0,0.0,0.0003944785,0.0,0.0,nan,0.0,0.0,0.009740188,0.0,0.0,0.0,0.0,0.0,0.0,0.0,0.0
465534990,465533914,0.0,0.0,0.0,0.066504106,0.0,0.0,0.0,0.0,0.0,0.0,0.0,0.0,0.0,0.0017408107,0.0,0.0,nan,0.0,0.0,0.0058808965,0.0,0.0,0.0,0.0,0.0,0.0,0.0,0.0
466034263,466033209,0.0,0.0,0.0,0.06542024,0.0,0.0,0.0,0.0,0.0,0.0,0.0,0.0,0.0,0.0016167783,0.0,0.0,nan,0.0,0.0,0.0020846864,0.0,0.0,0.0,0.0,0.0,0.0,0.0,0.0
466533390,466532504,0.0,0.0,0.0,0.06387011,0.0,0.0,0.0,0.0,0.0,0.0,0.0,0.0,0.0,0.00027529523,0.0,0.0,nan,0.0,0.0,0.023880307,0.0,0.0,0.0,0.0,0.0,0.0,0.0,0.0
467032884,467031800,0.0,0.0,0.0,0.06177013,0.0,0.0,0.0,0.0,0.0,0.0,0.0,0.0,0.0,0.00034953863,0.0,0.0,nan,0.0,0.0,0.06456611,0.0,0.0,0.0,0.0,0.0,0.0,0.0,0.0
467532057,467531095,0.0,0.0,0.0,0.057694387,0.0,0.0,0.0,0.0,0.0,0.0,0.0,0.0,0.0,0.00012981896,0.0,0.0,nan,0.0,0.0,0.0738167,0.0,0.0,0.0,0.0,0.0,0.0,0.0,0.0
468036463,468035382,0.0,0.0,0.0,0.053997736,0.0,0.0,0.0,0.0,0.0,0.0,0.0,0.0,0.0,7.2378025e-05,0.0,0.0,nan,0.0,0.0,0.06848183,0.0,0.0,0.0,0.0,0.0,0.0,0.0,0.0
468535621,468534677,0.0,0.0,0.0,0.048454132,0.0,0.0,0.0,0.0,0.0,0.0,0.0,0.0,0.0,0.00011998705,0.0,0.0,nan,0.0,0.0,0.054700397,0.0,0.0,0.0,0.0,0.0,0.0,0.0,0.0
469034994,469033972,0.0,0.0,0.0,0.044692677,0.0,0.0,0.0,0.0,0.0,0.0,0.0,0.0,0.0,3.392508e-05,0.0,0.0,nan,0.0,0.0,0.011050586,0.0,0.0,0.0,0.0,0.0,0.0,0.0,0.0
469534153,469533266,0.0,0.0,0.0,0.04114785,0.0,0.0,0.0,0.0,0.0,0.0,0.0,0.0,0.0,9.161003e-05,0.0,0.0,nan,0.0,0.0,0.04557582,0.0,0.0,0.0,0.0,0.0,0.0,0.0,0.0
470033638,470032561,0.0,0.0,0.0,0.035417143,0.0,0.0,0.0,0.0,0.0,0.0,0.0,0.0,0.0,1.4778642e-05,0.0,0.0,nan,0.0,0.0,0.19026907,0.0,0.0,0.0,0.0,0.0,0.0,0.0,0.0
470532850,470531855,0.0,0.0,0.0,0.03171272,0.0,0.0,0.0,0.0,0.0,0.0,0.0,0.0,0.0,0.00045264623,0.0,0.0,nan,0.0,0.0,0.117714755,0.0,0.0,0.0,0.0,0.0,0.0,0.0,0.0
471032123,471031150,0.0,0.0,0.0,0.026288845,0.0,0.0,0.0,0.0,0.0,0.0,0.0,0.0,0.0,0.00028234365,0.0,0.0,nan,0.0,0.0,0.011905957,0.0,0.0,0.0,0.0,0.0,0.0,0.0,0.0
471531517,471530446,0.0,0.0,0.0,0.022848275,0.0,0.0,0.0,0.0,0.0,0.0,0.0,0.0,0.0,7.972635e-05,0.0,0.0,nan,0.0,0.0,0.0017615965,0.0,0.0,0.0,0.0,0.0,0.0,0.0,0.0
473034198,473033321,0.0,0.0,0.0,0.01842946,0.0,0.0,0.0,0.0,0.0,0.0,0.0,0.0,0.0,0.00033769998,0.0,0.0,nan,0.0,0.0,0.63395953,0.0,0.0,0.0,0.0,0.0,0.0,0.0,0.0
473533678,473532616,0.0,0.0,0.0,0.01812391,0.0,0.0,0.0,0.0,0.0,0.0,0.0,0.0,0.0,0.00088533404,0.0,0.0,nan,0.0,0.0,0.97120774,0.0,0.0,0.0,0.0,0.0,0.0,0.0,0.0
474032846,474031909,0.0,0.0,0.0,0.017820178,0.0,0.0,0.0,0.0,0.0,0.0,0.0,0.0,0.0,0.0016390547,0.0,0.0,nan,0.0,0.0,0.23400736,0.0,0.0,0.0,0.0,0.0,0.0,0.0,0.0
474532284,474531204,0.0,0.0,0.0,0.01748758,0.0,0.0,0.0,0.0,0.0,0.0,0.0,0.0,0.0,0.001202556,0.0,0.0,nan,0.0,0.0,0.18844001,0.0,0.0,0.0,0.0,0.0,0.0,0.0,0.0
475031569,475030498,0.0,0.0,0.0,0.017033825,0.0,0.0,0.0,0.0,0.0,0.0,0.0,0.0,0.0,0.001569887,0.0,0.0,nan,0.0,0.0,0.26722807,0.0,0.0,0.0,0.0,0.0,0.0,0.0,0.0
475535968,475534785,0.0,0.0,0.0,0.016546076,0.0,0.0,0.0,0.0,0.0,0.0,0.0,0.0,0.0,0.0016915965,0.0,0.0,nan,0.0,0.0,0.18385398,0.0,0.0,0.0,0.0,0.0,0.0,0.0,0.0
476034915,476034078,0.0,0.0,0.0,0.01612572,0.0,0.0,0.0,0.0,0.0,0.0,0.0,0.0,0.0,0.0029410862,0.0,0.0,nan,0.0,0.0,0.27885222,0.0,0.0,0.0,0.0,0.0,0.0,0.0,0.0
476534327,476533373,0.0,0.0,0.0,0.015551732,0.0,0.0,0.0,0.0,0.0,0.0,0.0,0.0,0.0,0.0033606682,0.0,0.0,nan,0.0,0.0,0.5608706,0.0,0.0,0.0,0.0,0.0,0.0,0.0,0.0
477033735,477032713,0.0,0.0,0.0,0.015603416,0.0,0.0,0.0,0.0,0.0,0.0,0.0,0.0,0.0,0.0025970147,0.0,0.0,nan,0.0,0.0,0.8010059,0.0,0.0,0.0,0.0,0.0,0.0,0.0,0.0
477532862,477531960,0.0,0.0,0.0,0.016720576,0.0,0.0,0.0,0.0,0.0,0.0,0.0,0.0,0.0,0.0038502042,0.0,0.0,nan,0.0,0.0,0.61460394,0.0,0.0,0.0,0.0,0.0,0.0,0.0,0.0
478032290,478031268,0.0,0.0,0.0,0.0171327,0.0,0.0,0.0,0.0,0.0,0.0,0.0,0.0,0.0,0.0046951547,0.0,0.0,nan,0.0,0.0,0.07897621,0.0,0.0,0.0,0.0,0.0,0.0,0.0,0.0
478531436,478530548,0.0,0.0,0.0,0.016972443,0.0,0.0,0.0,0.0,0.0,0.0,0.0,0.0,0.0,0.0036220097,0.0,0.0,nan,0.0,0.0,0.022649052,0.0,0.0,0.0,0.0,0.0,0.0,0.0,0.0
479030867,479029844,0.0,0.0,0.0,0.01567317,0.0,0.0,0.0,0.0,0.0,0.0,0.0,0.0,0.0,0.0018729881,0.0,0.0,nan,0.0,0.0,0.113502584,0.0,0.0,0.0,0.0,0.0,0.0,0.0,0.0
479535077,479534129,0.0,0.0,0.0,0.014395821,0.0,0.0,0.0,0.0,0.0,0.0,0.0,0.0,0.0,0.0011700803,0.0,0.0,nan,0.0,0.0,0.24136142,0.0,0.0,0.0,0.0,0.0,0.0,0.0,0.0
480034624,480033431,0.0,0.0,0.0,0.012232508,0.0,0.0,0.0,0.0,0.0,0.0,0.0,0.0,0.0,0.0013808846,0.0,0.0,nan,0.0,0.0,0.25041837,0.0,0.0,0.0,0.0,0.0,0.0,0.0,0.0
480533591,480532729,0.0,0.0,0.0,0.01081106,0.0,0.0,0.0,0.0,0.0,0.0,0.0,0.0,0.0,0.00012680664,0.0,0.0,nan,0.0,0.0,0.096087225,0.0,0.0,0.0,0.0,0.0,0.0,0.0,0.0
481032952,481032009,0.0,0.0,0.0,0.009451681,0.0,0.0,0.0,0.0,0.0,0.0,0.0,0.0,0.0,4.3359637e-06,0.0,0.0,nan,0.0,0.0,0.094394684,0.0,0.0,0.0,0.0,0.0,0.0,0.0,0.0
481532336,481531326,0.0,0.0,0.0,0.0075468444,0.0,0.0,0.0,0.0,0.0,0.0,0.0,0.0,0.0,0.0002066318,0.0,0.0,nan,0.0,0.0,0.007867603,0.0,0.0,0.0,0.0,0.0,0.0,0.0,0.0
482031544,482030596,0.0,0.0,0.0,0.0064622946,0.0,0.0,0.0,0.0,0.0,0.0,0.0,0.0,0.0,0.00012983683,0.0,0.0,nan,0.0,0.0,0.022159934,0.0,0.0,0.0,0.0,0.0,0.0,0.0,0.0
482530948,482529889,0.0,0.0,0.0,0.005581613,0.0,0.0,0.0,0.0,0.0,0.0,0.0,0.0,0.0,0.00037777043,0.0,0.0,nan,0.0,0.0,0.008235955,0.0,0.0,0.0,0.0,0.0,0.0,0.0,0.0
483040146,483039168,0.0,0.0,0.0,0.0051542507,0.0,0.0,0.0,0.0,0.0,0.0,0.0,0.0,0.0,0.0008635287,0.0,0.0,nan,0.0,0.0,0.12852314,0.0,0.0,0.0,0.0,0.0,0.0,0.0,0.0
483539413,483538461,0.0,0.0,0.0,0.005394808,0.0,0.0,0.0,0.0,0.0,0.0,0.0,0.0,0.0,6.415949e-05,0.0,0.0,nan,0.0,0.0,0.04368883,0.0,0.0,0.0,0.0,0.0,0.0,0.0,0.0
484028848,484027768,0.0,0.0,0.0,0.005694372,0.0,0.0,0.0,0.0,0.0,0.0,0.0,0.0,0.0,0.00047754333,0.0,0.0,nan,0.0,0.0,0.01258642,0.0,0.0,0.0,0.0,0.0,0.0,0.0,0.0
484538092,484537048,0.0,0.0,0.0,0.0057051736,0.0,0.0,0.0,0.0,0.0,0.0,0.0,0.0,0.0,0.00046129574,0.0,0.0,nan,0.0,0.0,0.0005256053,0.0,0.0,0.0,0.0,0.0,0.0,0.0,0.0
485037340,485036340,0.0,0.0,0.0,0.005491704,0.0,0.0,0.0,0.0,0.0,0.0,0.0,0.0,0.0,0.00030049094,0.0,0.0,nan,0.0,0.0,0.041604485,0.0,0.0,0.0,0.0,0.0,0.0,0.0,0.0
485536809,485535634,0.0,0.0,0.0,0.0050125537,0.0,0.0,0.0,0.0,0.0,0.0,0.0,0.0,0.0,0.0011609386,0.0,0.0,nan,0.0,0.0,0.04203462,0.0,0.0,0.0,0.0,0.0,0.0,0.0,0.0
