timestamp,timestamp_sample,gps_hvel[0],gps_hvel[1],gps_vvel,gps_hpos[0],gps_hpos[1],gps_vpos,ev_hvel[0],ev_hvel[1],ev_vvel,ev_hpos[0],ev_hpos[1],ev_vpos,rng_vpos,baro_vpos,aux_hvel[0],aux_hvel[1],aux_vvel,flow[0],flow[1],heading,mag_field[0],mag_field[1],mag_field[2],drag[0],drag[1],airspeed,beta,hagl
293536307,293535766,0.0,0.0,0.0,1.9633086e-05,0.0,0.0,0.0,0.0,0.0,0.0,0.0,0.0,0.0,6.1570725e-05,0.0,0.0,nan,0.0,0.0,0.03218873,0.0,0.0,0.0,0.0,0.0,0.0,0.0,0.0
294032830,294031582,0.0,0.0,0.0,0.00013642224,0.0,0.0,0.0,0.0,0.0,0.0,0.0,0.0,0.0,0.00050380116,0.0,0.0,nan,0.0,0.0,0.021142548,0.0,0.0,0.0,0.0,0.0,0.0,0.0,0.0
294528108,294527664,0.0,0.0,0.0,0.00051793613,0.0,0.0,0.0,0.0,0.0,0.0,0.0,0.0,0.0,0.00047476328,0.0,0.0,nan,0.0,0.0,0.016564053,0.0,0.0,0.0,0.0,0.0,0.0,0.0,0.0
295037516,295036952,0.0,0.0,0.0,1.0297308e-05,0.0,0.0,0.0,0.0,0.0,0.0,0.0,0.0,0.0,0.0002709241,0.0,0.0,nan,0.0,0.0,0.009693681,0.0,0.0,0.0,0.0,0.0,0.0,0.0,0.0
295537729,295537072,0.0,0.0,0.0,3.073977e-05,0.0,0.0,0.0,0.0,0.0,0.0,0.0,0.0,0.0,3.6092885e-07,0.0,0.0,nan,0.0,0.0,0.0036711683,0.0,0.0,0.0,0.0,0.0,0.0,0.0,0.0
296033683,296033076,0.0,0.0,0.0,7.291101e-05,0.0,0.0,0.0,0.0,0.0,0.0,0.0,0.0,0.0,0.00012056638,0.0,0.0,nan,0.0,0.0,0.0010685347,0.0,0.0,0.0,0.0,0.0,0.0,0.0,0.0
296534509,296533219,0.0,0.0,0.0,0.00022509988,0.0,0.0,0.0,0.0,0.0,0.0,0.0,0.0,0.0,0.00020534586,0.0,0.0,nan,0.0,0.0,0.001166478,0.0,0.0,0.0,0.0,0.0,0.0,0.0,0.0
297029780,297029197,0.0,0.0,0.0,0.00040139226,0.0,0.0,0.0,0.0,0.0,0.0,0.0,0.0,0.0,2.6462135e-06,0.0,0.0,nan,0.0,0.0,0.008909633,0.0,0.0,0.0,0.0,0.0,0.0,0.0,0.0
297538910,297538498,0.0,0.0,0.0,0.00079714233,0.0,0.0,0.0,0.0,0.0,0.0,0.0,0.0,0.0,6.5059794e-05,0.0,0.0,nan,0.0,0.0,0.018707229,0.0,0.0,0.0,0.0,0.0,0.0,0.0,0.0
298034584,298034206,0.0,0.0,0.0,0.0012610584,0.0,0.0,0.0,0.0,0.0,0.0,0.0,0.0,0.0,0.00019917976,0.0,0.0,nan,0.0,0.0,0.029821604,0.0,0.0,0.0,0.0,0.0,0.0,0.0,0.0
298535220,298534623,0.0,0.0,0.0,0.0019273829,0.0,0.0,0.0,0.0,0.0,0.0,0.0,0.0,0.0,0.0006146248,0.0,0.0,nan,0.0,0.0,0.13285181,0.0,0.0,0.0,0.0,0.0,0.0,0.0,0.0
299036277,299034860,0.0,0.0,0.0,0.0033218693,0.0,0.0,0.0,0.0,0.0,0.0,0.0,0.0,0.0,0.0003454502,0.0,0.0,nan,0.0,0.0,0.22779319,0.0,0.0,0.0,0.0,0.0,0.0,0.0,0.0
299531204,299530756,0.0,0.0,0.0,0.004415988,0.0,0.0,0.0,0.0,0.0,0.0,0.0,0.0,0.0,0.00014424018,0.0,0.0,nan,0.0,0.0,0.25324497,0.0,0.0,0.0,0.0,0.0,0.0,0.0,0.0
300036170,300035517,0.0,0.0,0.0,0.0058815856,0.0,0.0,0.0,0.0,0.0,0.0,0.0,0.0,0.0,0.00018472664,0.0,0.0,nan,0.0,0.0,0.25531814,0.0,0.0,0.0,0.0,0.0,0.0,0.0,0.0
300536215,300535847,0.0,0.0,0.0,0.006452153,0.0,0.0,0.0,0.0,0.0,0.0,0.0,0.0,0.0,8.039182e-05,0.0,0.0,nan,0.0,0.0,0.29929543,0.0,0.0,0.0,0.0,0.0,0.0,0.0,0.0
301032197,301031667,0.0,0.0,0.0,0.006970541,0.0,0.0,0.0,0.0,0.0,0.0,0.0,0.0,0.0,0.0001104479,0.0,0.0,nan,0.0,0.0,0.3398001,0.0,0.0,0.0,0.0,0.0,0.0,0.0,0.0
301537419,301536736,0.0,0.0,0.0,0.0072550774,0.0,0.0,0.0,0.0,0.0,0.0,0.0,0.0,0.0,1.2451667e-06,0.0,0.0,nan,0.0,0.0,0.41813502,0.0,0.0,0.0,0.0,0.0,0.0,0.0,0.0
302037614,302036876,0.0,0.0,0.0,0.0072230673,0.0,0.0,0.0,0.0,0.0,0.0,0.0,0.0,0.0,0.000254991,0.0,0.0,nan,0.0,0.0,0.5162178,0.0,0.0,0.0,0.0,0.0,0.0,0.0,0.0
302533382,302532860,0.0,0.0,0.0,0.006964715,0.0,0.0,0.0,0.0,0.0,0.0,0.0,0.0,0.0,7.270458e-05,0.0,0.0,nan,0.0,0.0,0.5051204,0.0,0.0,0.0,0.0,0.0,0.0,0.0,0.0
303033612,303032980,0.0,0.0,0.0,0.0069412356,0.0,0.0,0.0,0.0,0.0,0.0,0.0,0.0,0.0,4.8785183e-05,0.0,0.0,nan,0.0,0.0,0.51449376,0.0,0.0,0.0,0.0,0.0,0.0,0.0,0.0
303529792,303528989,0.0,0.0,0.0,0.006973952,0.0,0.0,0.0,0.0,0.0,0.0,0.0,0.0,0.0,0.00010283726,0.0,0.0,nan,0.0,0.0,0.47380927,0.0,0.0,0.0,0.0,0.0,0.0,0.0,0.0
304039024,304038281,0.0,0.0,0.0,0.007014687,0.0,0.0,0.0,0.0,0.0,0.0,0.0,0.0,0.0,0.000105452404,0.0,0.0,nan,0.0,0.0,0.46154922,0.0,0.0,0.0,0.0,0.0,0.0,0.0,0.0
304539259,304538520,0.0,0.0,0.0,0.006973518,0.0,0.0,0.0,0.0,0.0,0.0,0.0,0.0,0.0,3.479641e-05,0.0,0.0,nan,0.0,0.0,0.42500892,0.0,0.0,0.0,0.0,0.0,0.0,0.0,0.0
305034909,305034414,0.0,0.0,0.0,0.006595949,0.0,0.0,0.0,0.0,0.0,0.0,0.0,0.0,0.0,9.3437194e-07,0.0,0.0,nan,0.0,0.0,0.3320564,0.0,0.0,0.0,0.0,0.0,0.0,0.0,0.0
305530553,305530163,0.0,0.0,0.0,0.0061968616,0.0,0.0,0.0,0.0,0.0,0.0,0.0,0.0,0.0,2.0926338e-05,0.0,0.0,nan,0.0,0.0,0.33448437,0.0,0.0,0.0,0.0,0.0,0.0,0.0,0.0
306032023,306030547,0.0,0.0,0.0,0.005535318,0.0,0.0,0.0,0.0,0.0,0.0,0.0,0.0,0.0,0.00010537232,0.0,0.0,nan,0.0,0.0,0.28033614,0.0,0.0,0.0,0.0,0.0,0.0,0.0,0.0
306531447,306530776,0.0,0.0,0.0,0.0050377375,0.0,0.0,0.0,0.0,0.0,0.0,0.0,0.0,0.0,6.3048656e-06,0.0,0.0,nan,0.0,0.0,0.2576681,0.0,0.0,0.0,0.0,0.0,0.0,0.0,0.0
307027096,307026731,0.0,0.0,0.0,0.0042717964,0.0,0.0,0.0,0.0,0.0,0.0,0.0,0.0,0.0,8.189684e-05,0.0,0.0,nan,0.0,0.0,0.25205603,0.0,0.0,0.0,0.0,0.0,0.0,0.0,0.0
307532083,307531434,0.0,0.0,0.0,0.0037706657,0.0,0.0,0.0,0.0,0.0,0.0,0.0,0.0,0.0,8.240256e-06,0.0,0.0,nan,0.0,0.0,0.21953808,0.0,0.0,0.0,0.0,0.0,0.0,0.0,0.0
308036909,308036275,0.0,0.0,0.0,0.0030498374,0.0,0.0,0.0,0.0,0.0,0.0,0.0,0.0,0.0,6.462798e-05,0.0,0.0,nan,0.0,0.0,0.21886797,0.0,0.0,0.0,0.0,0.0,0.0,0.0,0.0
308537417,308536601,0.0,0.0,0.0,0.0025105139,0.0,0.0,0.0,0.0,0.0,0.0,0.0,0.0,0.0,4.8193026e-05,0.0,0.0,nan,0.0,0.0,0.22063218,0.0,0.0,0.0,0.0,0.0,0.0,0.0,0.0
309033256,309032678,0.0,0.0,0.0,0.0019439869,0.0,0.0,0.0,0.0,0.0,0.0,0.0,0.0,0.0,0.00013656686,0.0,0.0,nan,0.0,0.0,0.22012559,0.0,0.0,0.0,0.0,0.0,0.0,0.0,0.0
309533310,309532752,0.0,0.0,0.0,0.0011177344,0.0,0.0,0.0,0.0,0.0,0.0,0.0,0.0,0.0,1.2735599e-06,0.0,0.0,nan,0.0,0.0,0.24747068,0.0,0.0,0.0,0.0,0.0,0.0,0.0,0.0
310029149,310028789,0.0,0.0,0.0,0.0006577138,0.0,0.0,0.0,0.0,0.0,0.0,0.0,0.0,0.0,1.4480156e-05,0.0,0.0,nan,0.0,0.0,0.2924864,0.0,0.0,0.0,0.0,0.0,0.0,0.0,0.0
310538463,310538093,0.0,0.0,0.0,0.0001587046,0.0,0.0,0.0,0.0,0.0,0.0,0.0,0.0,0.0,0.00013738702,0.0,0.0,nan,0.0,0.0,0.35511276,0.0,0.0,0.0,0.0,0.0,0.0,0.0,0.0
311029644,311029279,0.0,0.0,0.0,1.5391624e-05,0.0,0.0,0.0,0.0,0.0,0.0,0.0,0.0,0.0,4.316092e-05,0.0,0.0,nan,0.0,0.0,0.37486234,0.0,0.0,0.0,0.0,0.0,0.0,0.0,0.0
312034910,312034402,0.0,0.0,0.0,0.0002628789,0.0,0.0,0.0,0.0,0.0,0.0,0.0,0.0,0.0,0.00037318052,0.0,0.0,nan,0.0,0.0,0.00014364369,0.0,0.0,0.0,0.0,0.0,0.0,0.0,0.0
312530827,312530423,0.0,0.0,0.0,0.0005726261,0.0,0.0,0.0,0.0,0.0,0.0,0.0,0.0,0.0,0.0006176395,0.0,0.0,nan,0.0,0.0,3.189262e-05,0.0,0.0,0.0,0.0,0.0,0.0,0.0,0.0
313031507,313030551,0.0,0.0,0.0,0.0011826456,0.0,0.0,0.0,0.0,0.0,0.0,0.0,0.0,0.0,0.0009965007,0.0,0.0,nan,0.0,0.0,0.0029403123,0.0,0.0,0.0,0.0,0.0,0.0,0.0,0.0
313526937,313526508,0.0,0.0,0.0,0.0016669144,0.0,0.0,0.0,0.0,0.0,0.0,0.0,0.0,0.0,0.002150924,0.0,0.0,nan,0.0,0.0,0.0024362102,0.0,0.0,0.0,0.0,0.0,0.0,0.0,0.0
314036358,314035798,0.0,0.0,0.0,0.002326532,0.0,0.0,0.0,0.0,0.0,0.0,0.0,0.0,0.0,0.00327914,0.0,0.0,nan,0.0,0.0,0.005533302,0.0,0.0,0.0,0.0,0.0,0.0,0.0,0.0
314531919,314531540,0.0,0.0,0.0,0.0026501846,0.0,0.0,0.0,0.0,0.0,0.0,0.0,0.0,0.0,0.0034096402,0.0,0.0,nan,0.0,0.0,0.0030341544,0.0,0.0,0.0,0.0,0.0,0.0,0.0,0.0
315036961,315036376,0.0,0.0,0.0,0.003009623,0.0,0.0,0.0,0.0,0.0,0.0,0.0,0.0,0.0,0.006172394,0.0,0.0,nan,0.0,0.0,2.5910754e-06,0.0,0.0,0.0,0.0,0.0,0.0,0.0,0.0
315537366,315536760,0.0,0.0,0.0,0.0031529132,0.0,0.0,0.0,0.0,0.0,0.0,0.0,0.0,0.0,0.005297857,0.0,0.0,nan,0.0,0.0,0.003835085,0.0,0.0,0.0,0.0,0.0,0.0,0.0,0.0
316037470,316037035,0.0,0.0,0.0,0.0032569808,0.0,0.0,0.0,0.0,0.0,0.0,0.0,0.0,0.0,0.006725584,0.0,0.0,nan,0.0,0.0,0.014013774,0.0,0.0,0.0,0.0,0.0,0.0,0.0,0.0
316533445,316532857,0.0,0.0,0.0,0.0031588117,0.0,0.0,0.0,0.0,0.0,0.0,0.0,0.0,0.0,0.005589292,0.0,0.0,nan,0.0,0.0,0.035156433,0.0,0.0,0.0,0.0,0.0,0.0,0.0,0.0
317038295,317037913,0.0,0.0,0.0,0.0030741675,0.0,0.0,0.0,0.0,0.0,0.0,0.0,0.0,0.0,0.0078109205,0.0,0.0,nan,0.0,0.0,0.060493752,0.0,0.0,0.0,0.0,0.0,0.0,0.0,0.0
317538540,317538024,0.0,0.0,0.0,0.0029478485,0.0,0.0,0.0,0.0,0.0,0.0,0.0,0.0,0.0,0.006034896,0.0,0.0,nan,0.0,0.0,0.08166969,0.0,0.0,0.0,0.0,0.0,0.0,0.0,0.0
318038877,318038401,0.0,0.0,0.0,0.0028477893,0.0,0.0,0.0,0.0,0.0,0.0,0.0,0.0,0.0,0.005055402,0.0,0.0,nan,0.0,0.0,0.10074138,0.0,0.0,0.0,0.0,0.0,0.0,0.0,0.0
318534767,318534221,0.0,0.0,0.0,0.0027242783,0.0,0.0,0.0,0.0,0.0,0.0,0.0,0.0,0.0,0.007517229,0.0,0.0,nan,0.0,0.0,0.13668525,0.0,0.0,0.0,0.0,0.0,0.0,0.0,0.0
319030683,319030183,0.0,0.0,0.0,0.0026928603,0.0,0.0,0.0,0.0,0.0,0.0,0.0,0.0,0.0,0.0055841613,0.0,0.0,nan,0.0,0.0,0.15640555,0.0,0.0,0.0,0.0,0.0,0.0,0.0,0.0
319531036,319530327,0.0,0.0,0.0,0.0027225493,0.0,0.0,0.0,0.0,0.0,0.0,0.0,0.0,0.0,0.0041292524,0.0,0.0,nan,0.0,0.0,0.140409,0.0,0.0,0.0,0.0,0.0,0.0,0.0,0.0
320027338,320026317,0.0,0.0,0.0,0.0027650418,0.0,0.0,0.0,0.0,0.0,0.0,0.0,0.0,0.0,0.0059454124,0.0,0.0,nan,0.0,0.0,0.11368302,0.0,0.0,0.0,0.0,0.0,0.0,0.0,0.0
320536686,320535616,0.0,0.0,0.0,0.0027969668,0.0,0.0,0.0,0.0,0.0,0.0,0.0,0.0,0.0,0.0039241076,0.0,0.0,nan,0.0,0.0,0.09572638,0.0,0.0,0.0,0.0,0.0,0.0,0.0,0.0
321036512,321035869,0.0,0.0,0.0,0.00279448,0.0,0.0,0.0,0.0,0.0,0.0,0.0,0.0,0.0,0.0020977159,0.0,0.0,nan,0.0,0.0,0.071991794,0.0,0.0,0.0,0.0,0.0,0.0,0.0,0.0
321532325,321531752,0.0,0.0,0.0,0.0027428647,0.0,0.0,0.0,0.0,0.0,0.0,0.0,0.0,0.0,0.0033477878,0.0,0.0,nan,0.0,0.0,0.058084983,0.0,0.0,0.0,0.0,0.0,0.0,0.0,0.0
322032477,322031974,0.0,0.0,0.0,0.0026006496,0.0,0.0,0.0,0.0,0.0,0.0,0.0,0.0,0.0,0.003248698,0.0,0.0,nan,0.0,0.0,0.035523232,0.0,0.0,0.0,0.0,0.0,0.0,0.0,0.0
322528516,322527904,0.0,0.0,0.0,0.0024534145,0.0,0.0,0.0,0.0,0.0,0.0,0.0,0.0,0.0,0.002665557,0.0,0.0,nan,0.0,0.0,0.0125269815,0.0,0.0,0.0,0.0,0.0,0.0,0.0,0.0
323033514,323032636,0.0,0.0,0.0,0.0021154778,0.0,0.0,0.0,0.0,0.0,0.0,0.0,0.0,0.0,0.0020084572,0.0,0.0,nan,0.0,0.0,0.0016960886,0.0,0.0,0.0,0.0,0.0,0.0,0.0,0.0
323538317,323537754,0.0,0.0,0.0,0.0018759029,0.0,0.0,0.0,0.0,0.0,0.0,0.0,0.0,0.0,0.0031102088,0.0,0.0,nan,0.0,0.0,0.0004459196,0.0,0.0,0.0,0.0,0.0,0.0,0.0,0.0
324038437,324037800,0.0,0.0,0.0,0.0016206272,0.0,0.0,0.0,0.0,0.0,0.0,0.0,0.0,0.0,0.0033731053,0.0,0.0,nan,0.0,0.0,0.00091826444,0.0,0.0,0.0,0.0,0.0,0.0,0.0,0.0
324538687,324538128,0.0,0.0,0.0,0.0012649506,0.0,0.0,0.0,0.0,0.0,0.0,0.0,0.0,0.0,0.002106211,0.0,0.0,nan,0.0,0.0,0.0007627204,0.0,0.0,0.0,0.0,0.0,0.0,0.0,0.0
325038839,325038458,0.0,0.0,0.0,0.0010209436,0.0,0.0,0.0,0.0,0.0,0.0,0.0,0.0,0.0,0.003506666,0.0,0.0,nan,0.0,0.0,0.00027945073,0.0,0.0,0.0,0.0,0.0,0.0,0.0,0.0
325535235,325534280,0.0,0.0,0.0,0.00070057577,0.0,0.0,0.0,0.0,0.0,0.0,0.0,0.0,0.0,0.004123111,0.0,0.0,nan,0.0,0.0,0.001653906,0.0,0.0,0.0,0.0,0.0,0.0,0.0,0.0
326039694,326039309,0.0,0.0,0.0,0.00052766793,0.0,0.0,0.0,0.0,0.0,0.0,0.0,0.0,0.0,0.0019661288,0.0,0.0,nan,0.0,0.0,0.0058751972,0.0,0.0,0.0,0.0,0.0,0.0,0.0,0.0
326526670,326526135,0.0,0.0,0.0,0.0003298673,0.0,0.0,0.0,0.0,0.0,0.0,0.0,0.0,0.0,0.0040394193,0.0,0.0,nan,0.0,0.0,0.01778365,0.0,0.0,0.0,0.0,0.0,0.0,0.0,0.0
327035871,327035435,0.0,0.0,0.0,0.00022669953,0.0,0.0,0.0,0.0,0.0,0.0,0.0,0.0,0.0,0.0039372076,0.0,0.0,nan,0.0,0.0,0.022083055,0.0,0.0,0.0,0.0,0.0,0.0,0.0,0.0
327536825,327535595,0.0,0.0,0.0,0.0001549381,0.0,0.0,0.0,0.0,0.0,0.0,0.0,0.0,0.0,0.005097219,0.0,0.0,nan,0.0,0.0,0.034252074,0.0,0.0,0.0,0.0,0.0,0.0,0.0,0.0
328032153,328031586,0.0,0.0,0.0,8.3214065e-05,0.0,0.0,0.0,0.0,0.0,0.0,0.0,0.0,0.0,0.0041726283,0.0,0.0,nan,0.0,0.0,0.03577621,0.0,0.0,0.0,0.0,0.0,0.0,0.0,0.0
328532385,328531748,0.0,0.0,0.0,8.206101e-05,0.0,0.0,0.0,0.0,0.0,0.0,0.0,0.0,0.0,0.004027319,0.0,0.0,nan,0.0,0.0,0.030178819,0.0,0.0,0.0,0.0,0.0,0.0,0.0,0.0
329037140,329036629,0.0,0.0,0.0,0.0001534,0.0,0.0,0.0,0.0,0.0,0.0,0.0,0.0,0.0,0.004096791,0.0,0.0,nan,0.0,0.0,0.02628335,0.0,0.0,0.0,0.0,0.0,0.0,0.0,0.0
329537443,329537010,0.0,0.0,0.0,0.00019391335,0.0,0.0,0.0,0.0,0.0,0.0,0.0,0.0,0.0,0.0033260903,0.0,0.0,nan,0.0,0.0,0.03759128,0.0,0.0,0.0,0.0,0.0,0.0,0.0,0.0
330024421,330023845,0.0,0.0,0.0,0.0001872503,0.0,0.0,0.0,0.0,0.0,0.0,0.0,0.0,0.0,0.0063788863,0.0,0.0,nan,0.0,0.0,0.03331791,0.0,0.0,0.0,0.0,0.0,0.0,0.0,0.0
330533721,330533151,0.0,0.0,0.0,0.00018342979,0.0,0.0,0.0,0.0,0.0,0.0,0.0,0.0,0.0,0.0046689026,0.0,0.0,nan,0.0,0.0,0.10966425,0.0,0.0,0.0,0.0,0.0,0.0,0.0,0.0
331038567,331037899,0.0,0.0,0.0,0.0001895858,0.0,0.0,0.0,0.0,0.0,0.0,0.0,0.0,0.0,0.005894053,0.0,0.0,nan,0.0,0.0,0.18105528,0.0,0.0,0.0,0.0,0.0,0.0,0.0,0.0
331534349,331533721,0.0,0.0,0.0,0.00019376382,0.0,0.0,0.0,0.0,0.0,0.0,0.0,0.0,0.0,0.0046148165,0.0,0.0,nan,0.0,0.0,0.2838803,0.0,0.0,0.0,0.0,0.0,0.0,0.0,0.0
332034461,332034095,0.0,0.0,0.0,0.00019659365,0.0,0.0,0.0,0.0,0.0,0.0,0.0,0.0,0.0,0.0048307017,0.0,0.0,nan,0.0,0.0,0.31358582,0.0,0.0,0.0,0.0,0.0,0.0,0.0,0.0
332535618,332534380,0.0,0.0,0.0,0.000208246,0.0,0.0,0.0,0.0,0.0,0.0,0.0,0.0,0.0,0.0067028934,0.0,0.0,nan,0.0,0.0,0.16736004,0.0,0.0,0.0,0.0,0.0,0.0,0.0,0.0
333026523,333025960,0.0,0.0,0.0,0.0002739278,0.0,0.0,0.0,0.0,0.0,0.0,0.0,0.0,0.0,0.0068524065,0.0,0.0,nan,0.0,0.0,0.07049224,0.0,0.0,0.0,0.0,0.0,0.0,0.0,0.0
333535840,333535266,0.0,0.0,0.0,0.00034405472,0.0,0.0,0.0,0.0,0.0,0.0,0.0,0.0,0.0,0.004432166,0.0,0.0,nan,0.0,0.0,0.020581482,0.0,0.0,0.0,0.0,0.0,0.0,0.0,0.0
334035878,334035365,0.0,0.0,0.0,0.00038106495,0.0,0.0,0.0,0.0,0.0,0.0,0.0,0.0,0.0,0.0050724465,0.0,0.0,nan,0.0,0.0,0.009400941,0.0,0.0,0.0,0.0,0.0,0.0,0.0,0.0
334533185,334531402,0.0,0.0,0.0,0.0004233901,0.0,0.0,0.0,0.0,0.0,0.0,0.0,0.0,0.0,0.007342278,0.0,0.0,nan,0.0,0.0,0.009976938,0.0,0.0,0.0,0.0,0.0,0.0,0.0,0.0
335032316,335031561,0.0,0.0,0.0,0.00046009815,0.0,0.0,0.0,0.0,0.0,0.0,0.0,0.0,0.0,0.0062143826,0.0,0.0,nan,0.0,0.0,0.012144672,0.0,0.0,0.0,0.0,0.0,0.0,0.0,0.0
335527892,335527522,0.0,0.0,0.0,0.00049248914,0.0,0.0,0.0,0.0,0.0,0.0,0.0,0.0,0.0,0.007096515,0.0,0.0,nan,0.0,0.0,0.019433066,0.0,0.0,0.0,0.0,0.0,0.0,0.0,0.0
336037283,336036826,0.0,0.0,0.0,0.0005231628,0.0,0.0,0.0,0.0,0.0,0.0,0.0,0.0,0.0,0.007189755,0.0,0.0,nan,0.0,0.0,0.018273436,0.0,0.0,0.0,0.0,0.0,0.0,0.0,0.0
336537704,336537009,0.0,0.0,0.0,0.00055583875,0.0,0.0,0.0,0.0,0.0,0.0,0.0,0.0,0.0,0.008255502,0.0,0.0,nan,0.0,0.0,0.022013517,0.0,0.0,0.0,0.0,0.0,0.0,0.0,0.0
337034497,337032960,0.0,0.0,0.0,0.0006179848,0.0,0.0,0.0,0.0,0.0,0.0,0.0,0.0,0.0,0.00609456,0.0,0.0,nan,0.0,0.0,0.019106518,0.0,0.0,0.0,0.0,0.0,0.0,0.0,0.0
337533814,337533204,0.0,0.0,0.0,0.000632302,0.0,0.0,0.0,0.0,0.0,0.0,0.0,0.0,0.0,0.010043045,0.0,0.0,nan,0.0,0.0,0.015919585,0.0,0.0,0.0,0.0,0.0,0.0,0.0,0.0
338038530,338037997,0.0,0.0,0.0,0.000659014,0.0,0.0,0.0,0.0,0.0,0.0,0.0,0.0,0.0,0.0077738226,0.0,0.0,nan,0.0,0.0,0.011760962,0.0,0.0,0.0,0.0,0.0,0.0,0.0,0.0
338534184,338533816,0.0,0.0,0.0,0.0006422744,0.0,0.0,0.0,0.0,0.0,0.0,0.0,0.0,0.0,0.00854,0.0,0.0,nan,0.0,0.0,0.0052618813,0.0,0.0,0.0,0.0,0.0,0.0,0.0,0.0
339034590,339034145,0.0,0.0,0.0,0.000628783,0.0,0.0,0.0,0.0,0.0,0.0,0.0,0.0,0.0,0.01011599,0.0,0.0,nan,0.0,0.0,0.004545892,0.0,0.0,0.0,0.0,0.0,0.0,0.0,0.0
339539881,339539026,0.0,0.0,0.0,0.00062607095,0.0,0.0,0.0,0.0,0.0,0.0,0.0,0.0,0.0,0.009810429,0.0,0.0,nan,0.0,0.0,0.0014364448,0.0,0.0,0.0,0.0,0.0,0.0,0.0,0.0
340035761,340035097,0.0,0.0,0.0,0.00063903444,0.0,0.0,0.0,0.0,0.0,0.0,0.0,0.0,0.0,0.008104189,0.0,0.0,nan,0.0,0.0,0.0014316246,0.0,0.0,0.0,0.0,0.0,0.0,0.0,0.0
340531213,340530692,0.0,0.0,0.0,0.00061258103,0.0,0.0,0.0,0.0,0.0,0.0,0.0,0.0,0.0,0.009442647,0.0,0.0,nan,0.0,0.0,0.0022713891,0.0,0.0,0.0,0.0,0.0,0.0,0.0,0.0
341036035,341035459,0.0,0.0,0.0,0.000537466,0.0,0.0,0.0,0.0,0.0,0.0,0.0,0.0,0.0,0.009050612,0.0,0.0,nan,0.0,0.0,0.0039299023,0.0,0.0,0.0,0.0,0.0,0.0,0.0,0.0
341532571,341531280,0.0,0.0,0.0,0.0003481906,0.0,0.0,0.0,0.0,0.0,0.0,0.0,0.0,0.0,0.0088239005,0.0,0.0,nan,0.0,0.0,0.0065576583,0.0,0.0,0.0,0.0,0.0,0.0,0.0,0.0
342027734,342027348,0.0,0.0,0.0,0.00024543548,0.0,0.0,0.0,0.0,0.0,0.0,0.0,0.0,0.0,0.010703209,0.0,0.0,nan,0.0,0.0,0.0004330347,0.0,0.0,0.0,0.0,0.0,0.0,0.0,0.0
342537182,342536670,0.0,0.0,0.0,0.00014637322,0.0,0.0,0.0,0.0,0.0,0.0,0.0,0.0,0.0,0.009524051,0.0,0.0,nan,0.0,0.0,0.00028307782,0.0,0.0,0.0,0.0,0.0,0.0,0.0,0.0
343037282,343036773,0.0,0.0,0.0,9.643083e-05,0.0,0.0,0.0,0.0,0.0,0.0,0.0,0.0,0.0,0.012843391,0.0,0.0,nan,0.0,0.0,0.0036008514,0.0,0.0,0.0,0.0,0.0,0.0,0.0,0.0
343533197,343532776,0.0,0.0,0.0,5.850633e-05,0.0,0.0,0.0,0.0,0.0,0.0,0.0,0.0,0.0,0.011659358,0.0,0.0,nan,0.0,0.0,0.004604076,0.0,0.0,0.0,0.0,0.0,0.0,0.0,0.0
344034104,344032923,0.0,0.0,0.0,1.9035218e-05,0.0,0.0,0.0,0.0,0.0,0.0,0.0,0.0,0.0,0.011614591,0.0,0.0,nan,0.0,0.0,0.0061587794,0.0,0.0,0.0,0.0,0.0,0.0,0.0,0.0
344529402,344528916,0.0,0.0,0.0,2.4625577e-05,0.0,0.0,0.0,0.0,0.0,0.0,0.0,0.0,0.0,0.012249299,0.0,0.0,nan,0.0,0.0,0.0059308955,0.0,0.0,0.0,0.0,0.0,0.0,0.0,0.0
345038735,345038215,0.0,0.0,0.0,6.096814e-05,0.0,0.0,0.0,0.0,0.0,0.0,0.0,0.0,0.0,0.016298704,0.0,0.0,nan,0.0,0.0,0.001034925,0.0,0.0,0.0,0.0,0.0,0.0,0.0,0.0
345539060,345538415,0.0,0.0,0.0,9.448778e-05,0.0,0.0,0.0,0.0,0.0,0.0,0.0,0.0,0.0,0.013275496,0.0,0.0,nan,0.0,0.0,0.0001798234,0.0,0.0,0.0,0.0,0.0,0.0,0.0,0.0
346034712,346034330,0.0,0.0,0.0,0.00013815753,0.0,0.0,0.0,0.0,0.0,0.0,0.0,0.0,0.0,0.0127863465,0.0,0.0,nan,0.0,0.0,0.0039303405,0.0,0.0,0.0,0.0,0.0,0.0,0.0,0.0
346539685,346539071,0.0,0.0,0.0,0.00022988328,0.0,0.0,0.0,0.0,0.0,0.0,0.0,0.0,0.0,0.014123237,0.0,0.0,nan,0.0,0.0,0.006330464,0.0,0.0,0.0,0.0,0.0,0.0,0.0,0.0
347039932,347039404,0.0,0.0,0.0,0.0002977572,0.0,0.0,0.0,0.0,0.0,0.0,0.0,0.0,0.0,0.013486797,0.0,0.0,nan,0.0,0.0,0.00081353384,0.0,0.0,0.0,0.0,0.0,0.0,0.0,0.0
347535654,347535220,0.0,0.0,0.0,0.00038298607,0.0,0.0,0.0,0.0,0.0,0.0,0.0,0.0,0.0,0.015697388,0.0,0.0,nan,0.0,0.0,3.9470342e-05,0.0,0.0,0.0,0.0,0.0,0.0,0.0,0.0
348031471,348031042,0.0,0.0,0.0,0.00039211792,0.0,0.0,0.0,0.0,0.0,0.0,0.0,0.0,0.0,0.01563764,0.0,0.0,nan,0.0,0.0,0.0049683945,0.0,0.0,0.0,0.0,0.0,0.0,0.0,0.0
348536313,348535901,0.0,0.0,0.0,0.00032615906,0.0,0.0,0.0,0.0,0.0,0.0,0.0,0.0,0.0,0.012030112,0.0,0.0,nan,0.0,0.0,0.0054358626,0.0,0.0,0.0,0.0,0.0,0.0,0.0,0.0
349032880,349031699,0.0,0.0,0.0,0.00027287687,0.0,0.0,0.0,0.0,0.0,0.0,0.0,0.0,0.0,0.014519337,0.0,0.0,nan,0.0,0.0,0.008840031,0.0,0.0,0.0,0.0,0.0,0.0,0.0,0.0
349537091,349536540,0.0,0.0,0.0,0.00023731194,0.0,0.0,0.0,0.0,0.0,0.0,0.0,0.0,0.0,0.014067941,0.0,0.0,nan,0.0,0.0,0.0136559475,0.0,0.0,0.0,0.0,0.0,0.0,0.0,0.0
350037394,350036860,0.0,0.0,0.0,0.00025880014,0.0,0.0,0.0,0.0,0.0,0.0,0.0,0.0,0.0,0.015425354,0.0,0.0,nan,0.0,0.0,0.02097289,0.0,0.0,0.0,0.0,0.0,0.0,0.0,0.0
350533243,350532681,0.0,0.0,0.0,0.00032371326,0.0,0.0,0.0,0.0,0.0,0.0,0.0,0.0,0.0,0.015648324,0.0,0.0,nan,0.0,0.0,0.041615747,0.0,0.0,0.0,0.0,0.0,0.0,0.0,0.0
351034480,351033054,0.0,0.0,0.0,0.00046106975,0.0,0.0,0.0,0.0,0.0,0.0,0.0,0.0,0.0,0.015738497,0.0,0.0,nan,0.0,0.0,0.053257015,0.0,0.0,0.0,0.0,0.0,0.0,0.0,0.0
351529604,351528875,0.0,0.0,0.0,0.0005387294,0.0,0.0,0.0,0.0,0.0,0.0,0.0,0.0,0.0,0.01798786,0.0,0.0,nan,0.0,0.0,0.053872917,0.0,0.0,0.0,0.0,0.0,0.0,0.0,0.0
352038962,352038171,0.0,0.0,0.0,0.0006663841,0.0,0.0,0.0,0.0,0.0,0.0,0.0,0.0,0.0,0.015775556,0.0,0.0,nan,0.0,0.0,0.0067420076,0.0,0.0,0.0,0.0,0.0,0.0,0.0,0.0
352534517,352534135,0.0,0.0,0.0,0.0007209618,0.0,0.0,0.0,0.0,0.0,0.0,0.0,0.0,0.0,0.017070487,0.0,0.0,nan,0.0,0.0,6.1942586e-07,0.0,0.0,0.0,0.0,0.0,0.0,0.0,0.0
353035023,353034319,0.0,0.0,0.0,0.00071097614,0.0,0.0,0.0,0.0,0.0,0.0,0.0,0.0,0.0,0.018276298,0.0,0.0,nan,0.0,0.0,0.0034210098,0.0,0.0,0.0,0.0,0.0,0.0,0.0,0.0
353539670,353539154,0.0,0.0,0.0,0.0005422822,0.0,0.0,0.0,0.0,0.0,0.0,0.0,0.0,0.0,0.015838712,0.0,0.0,nan,0.0,0.0,0.0030810183,0.0,0.0,0.0,0.0,0.0,0.0,0.0,0.0
354040248,354039564,0.0,0.0,0.0,0.0004206776,0.0,0.0,0.0,0.0,0.0,0.0,0.0,0.0,0.0,0.015785482,0.0,0.0,nan,0.0,0.0,0.004311217,0.0,0.0,0.0,0.0,0.0,0.0,0.0,0.0
354526849,354526459,0.0,0.0,0.0,0.00023434525,0.0,0.0,0.0,0.0,0.0,0.0,0.0,0.0,0.0,0.018129937,0.0,0.0,nan,0.0,0.0,0.0022450609,0.0,0.0,0.0,0.0,0.0,0.0,0.0,0.0
355036120,355035756,0.0,0.0,0.0,0.00018280785,0.0,0.0,0.0,0.0,0.0,0.0,0.0,0.0,0.0,0.01620528,0.0,0.0,nan,0.0,0.0,0.0064173304,0.0,0.0,0.0,0.0,0.0,0.0,0.0,0.0
355536823,355535958,0.0,0.0,0.0,0.0001018596,0.0,0.0,0.0,0.0,0.0,0.0,0.0,0.0,0.0,0.017387912,0.0,0.0,nan,0.0,0.0,0.0011299412,0.0,0.0,0.0,0.0,0.0,0.0,0.0,0.0
356037192,356036334,0.0,0.0,0.0,3.788567e-05,0.0,0.0,0.0,0.0,0.0,0.0,0.0,0.0,0.0,0.015900597,0.0,0.0,nan,0.0,0.0,0.0015622004,0.0,0.0,0.0,0.0,0.0,0.0,0.0,0.0
356537179,356536615,0.0,0.0,0.0,1.906358e-05,0.0,0.0,0.0,0.0,0.0,0.0,0.0,0.0,0.0,0.017288024,0.0,0.0,nan,0.0,0.0,0.0066208993,0.0,0.0,0.0,0.0,0.0,0.0,0.0,0.0
357037366,357036940,0.0,0.0,0.0,5.9827948e-05,0.0,0.0,0.0,0.0,0.0,0.0,0.0,0.0,0.0,0.016381744,0.0,0.0,nan,0.0,0.0,0.0105953645,0.0,0.0,0.0,0.0,0.0,0.0,0.0,0.0
357533357,357532760,0.0,0.0,0.0,7.908215e-05,0.0,0.0,0.0,0.0,0.0,0.0,0.0,0.0,0.0,0.01831012,0.0,0.0,nan,0.0,0.0,0.013717087,0.0,0.0,0.0,0.0,0.0,0.0,0.0,0.0
358033664,358033088,0.0,0.0,0.0,0.00015545181,0.0,0.0,0.0,0.0,0.0,0.0,0.0,0.0,0.0,0.017311804,0.0,0.0,nan,0.0,0.0,0.011112481,0.0,0.0,0.0,0.0,0.0,0.0,0.0,0.0
358525289,358524702,0.0,0.0,0.0,0.00019570478,0.0,0.0,0.0,0.0,0.0,0.0,0.0,0.0,0.0,0.016004216,0.0,0.0,nan,0.0,0.0,0.017919024,0.0,0.0,0.0,0.0,0.0,0.0,0.0,0.0
359034552,359033949,0.0,0.0,0.0,0.00022529243,0.0,0.0,0.0,0.0,0.0,0.0,0.0,0.0,0.0,0.016779654,0.0,0.0,nan,0.0,0.0,0.015227679,0.0,0.0,0.0,0.0,0.0,0.0,0.0,0.0
359534582,359534070,0.0,0.0,0.0,0.0002374502,0.0,0.0,0.0,0.0,0.0,0.0,0.0,0.0,0.0,0.018204901,0.0,0.0,nan,0.0,0.0,0.027759863,0.0,0.0,0.0,0.0,0.0,0.0,0.0,0.0
360030556,360030054,0.0,0.0,0.0,0.00022018598,0.0,0.0,0.0,0.0,0.0,0.0,0.0,0.0,0.0,0.016882323,0.0,0.0,nan,0.0,0.0,0.024275878,0.0,0.0,0.0,0.0,0.0,0.0,0.0,0.0
360539856,360539347,0.0,0.0,0.0,0.0001755946,0.0,0.0,0.0,0.0,0.0,0.0,0.0,0.0,0.0,0.016706154,0.0,0.0,nan,0.0,0.0,0.028846594,0.0,0.0,0.0,0.0,0.0,0.0,0.0,0.0
361026584,361026196,0.0,0.0,0.0,0.00013453254,0.0,0.0,0.0,0.0,0.0,0.0,0.0,0.0,0.0,0.017223915,0.0,0.0,nan,0.0,0.0,0.026001573,0.0,0.0,0.0,0.0,0.0,0.0,0.0,0.0
361536067,361535495,0.0,0.0,0.0,4.8769907e-05,0.0,0.0,0.0,0.0,0.0,0.0,0.0,0.0,0.0,0.014600973,0.0,0.0,nan,0.0,0.0,0.025326835,0.0,0.0,0.0,0.0,0.0,0.0,0.0,0.0
362036397,362035707,0.0,0.0,0.0,6.0064733e-05,0.0,0.0,0.0,0.0,0.0,0.0,0.0,0.0,0.0,0.019456562,0.0,0.0,nan,0.0,0.0,0.014192748,0.0,0.0,0.0,0.0,0.0,0.0,0.0,0.0
362532105,362531607,0.0,0.0,0.0,8.2179926e-05,0.0,0.0,0.0,0.0,0.0,0.0,0.0,0.0,0.0,0.015993422,0.0,0.0,nan,0.0,0.0,0.009179943,0.0,0.0,0.0,0.0,0.0,0.0,0.0,0.0
363036959,363036364,0.0,0.0,0.0,0.00012972289,0.0,0.0,0.0,0.0,0.0,0.0,0.0,0.0,0.0,0.016836181,0.0,0.0,nan,0.0,0.0,0.010070686,0.0,0.0,0.0,0.0,0.0,0.0,0.0,0.0
363540899,363536694,0.0,0.0,0.0,0.00010892346,0.0,0.0,0.0,0.0,0.0,0.0,0.0,0.0,0.0,0.013530212,0.0,0.0,nan,0.0,0.0,0.0,0.0011774894,0.0,0.0,0.0,0.0,0.0,0.0,0.0
364032906,364032517,0.0,0.0,0.0,0.00028949667,0.0,0.0,0.0,0.0,0.0,0.0,0.0,0.0,0.0,0.01790227,0.0,0.0,nan,0.0,0.0,0.0,0.014203841,0.0,0.0,0.0,0.0,0.0,0.0,0.0
364537707,364532881,0.0,0.0,0.0,0.00032005977,0.0,0.0,0.0,0.0,0.0,0.0,0.0,0.0,0.0,0.018783405,0.0,0.0,nan,0.0,0.0,0.0,0.03206023,0.0,0.0,0.0,0.0,0.0,0.0,0.0
365033735,365033167,0.0,0.0,0.0,0.00035931048,0.0,0.0,0.0,0.0,0.0,0.0,0.0,0.0,0.0,0.017854307,0.0,0.0,nan,0.0,0.0,0.0,0.031740163,0.0,0.0,0.0,0.0,0.0,0.0,0.0
365536739,365533723,0.0,0.0,0.0,0.0003715619,0.0,0.0,0.0,0.0,0.0,0.0,0.0,0.0,0.0,0.017344855,0.0,0.0,nan,0.0,0.0,0.0,0.06907302,0.0,0.0,0.0,0.0,0.0,0.0,0.0
366037553,366033819,0.0,0.0,0.0,0.0002803411,0.0,0.0,0.0,0.0,0.0,0.0,0.0,0.0,0.0,0.017413054,0.0,0.0,nan,0.0,0.0,0.0,0.055614267,0.0,0.0,0.0,0.0,0.0,0.0,0.0
366536285,366534143,0.0,0.0,0.0,0.0002642796,0.0,0.0,0.0,0.0,0.0,0.0,0.0,0.0,0.0,0.020229682,0.0,0.0,nan,0.0,0.0,0.0,0.11623914,0.0,0.0,0.0,0.0,0.0,0.0,0.0
367041140,367039142,0.0,0.0,0.0,0.00040376856,0.0,0.0,0.0,0.0,0.0,0.0,0.0,0.0,0.0,0.015559474,0.0,0.0,nan,0.0,0.0,0.0,0.07790308,0.0,0.0,0.0,0.0,0.0,0.0,0.0
368532943,368530944,0.0,0.0,0.0,0.0010685342,0.0,0.0,0.0,0.0,0.0,0.0,0.0,0.0,0.0,0.014617334,0.0,0.0,nan,0.0,0.0,0.0,0.012308239,0.0,0.0,0.0,0.0,0.0,0.0,0.0
369031887,369031386,0.0,0.0,0.0,0.0011575429,0.0,0.0,0.0,0.0,0.0,0.0,0.0,0.0,0.0,0.0127608245,0.0,0.0,nan,0.0,0.0,0.0,0.010706177,0.0,0.0,0.0,0.0,0.0,0.0,0.0
369532113,369531595,0.0,0.0,0.0,0.0011979522,0.0,0.0,0.0,0.0,0.0,0.0,0.0,0.0,0.0,0.01281568,0.0,0.0,nan,0.0,0.0,0.0,0.017302698,0.0,0.0,0.0,0.0,0.0,0.0,0.0
370038946,370036429,0.0,0.0,0.0,0.0011498908,0.0,0.0,0.0,0.0,0.0,0.0,0.0,0.0,0.0,0.01357628,0.0,0.0,nan,0.0,0.0,0.0,0.07860701,0.0,0.0,0.0,0.0,0.0,0.0,0.0
370534444,370532250,0.0,0.0,0.0,0.0010813035,0.0,0.0,0.0,0.0,0.0,0.0,0.0,0.0,0.0,0.015927361,0.0,0.0,nan,0.0,0.0,0.0,0.114001,0.0,0.0,0.0,0.0,0.0,0.0,0.0
371033082,371032576,0.0,0.0,0.0,0.00097154966,0.0,0.0,0.0,0.0,0.0,0.0,0.0,0.0,0.0,0.012662909,0.0,0.0,nan,0.0,0.0,0.018053398,0.0,0.0,0.0,0.0,0.0,0.0,0.0,0.0
371533451,371532942,0.0,0.0,0.0,0.00087845133,0.0,0.0,0.0,0.0,0.0,0.0,0.0,0.0,0.0,0.014116885,0.0,0.0,nan,0.0,0.0,0.022492578,0.0,0.0,0.0,0.0,0.0,0.0,0.0,0.0
372029146,372028774,0.0,0.0,0.0,0.0006742685,0.0,0.0,0.0,0.0,0.0,0.0,0.0,0.0,0.0,0.014361643,0.0,0.0,nan,0.0,0.0,0.06101328,0.0,0.0,0.0,0.0,0.0,0.0,0.0,0.0
372535018,372533599,0.0,0.0,0.0,0.00051775505,0.0,0.0,0.0,0.0,0.0,0.0,0.0,0.0,0.0,0.016318977,0.0,0.0,nan,0.0,0.0,0.09776336,0.0,0.0,0.0,0.0,0.0,0.0,0.0,0.0
373034390,373033879,0.0,0.0,0.0,0.00034922638,0.0,0.0,0.0,0.0,0.0,0.0,0.0,0.0,0.0,0.0173043,0.0,0.0,nan,0.0,0.0,0.1402042,0.0,0.0,0.0,0.0,0.0,0.0,0.0,0.0
373534765,373534211,0.0,0.0,0.0,0.00020617421,0.0,0.0,0.0,0.0,0.0,0.0,0.0,0.0,0.0,0.014615033,0.0,0.0,nan,0.0,0.0,0.05912019,0.0,0.0,0.0,0.0,0.0,0.0,0.0,0.0
374039692,374039041,0.0,0.0,0.0,0.0001548176,0.0,0.0,0.0,0.0,0.0,0.0,0.0,0.0,0.0,0.01744986,0.0,0.0,nan,0.0,0.0,0.128,0.0,0.0,0.0,0.0,0.0,0.0,0.0,0.0
374535657,374535027,0.0,0.0,0.0,0.00010988706,0.0,0.0,0.0,0.0,0.0,0.0,0.0,0.0,0.0,0.019930089,0.0,0.0,nan,0.0,0.0,0.04796451,0.0,0.0,0.0,0.0,0.0,0.0,0.0,0.0
375036396,375035228,0.0,0.0,0.0,0.00014397544,0.0,0.0,0.0,0.0,0.0,0.0,0.0,0.0,0.0,0.01974577,0.0,0.0,nan,0.0,0.0,0.035621416,0.0,0.0,0.0,0.0,0.0,0.0,0.0,0.0
375531547,375531159,0.0,0.0,0.0,0.0004728504,0.0,0.0,0.0,0.0,0.0,0.0,0.0,0.0,0.0,0.021543926,0.0,0.0,nan,0.0,0.0,0.017092062,0.0,0.0,0.0,0.0,0.0,0.0,0.0,0.0
376032054,376031328,0.0,0.0,0.0,0.0007699357,0.0,0.0,0.0,0.0,0.0,0.0,0.0,0.0,0.0,0.02204146,0.0,0.0,nan,0.0,0.0,0.00040842904,0.0,0.0,0.0,0.0,0.0,0.0,0.0,0.0
376527798,376527269,0.0,0.0,0.0,0.0010984743,0.0,0.0,0.0,0.0,0.0,0.0,0.0,0.0,0.0,0.022174593,0.0,0.0,nan,0.0,0.0,0.009753497,0.0,0.0,0.0,0.0,0.0,0.0,0.0,0.0
377037116,377036626,0.0,0.0,0.0,0.0017573223,0.0,0.0,0.0,0.0,0.0,0.0,0.0,0.0,0.0,0.019137794,0.0,0.0,nan,0.0,0.0,0.018130274,0.0,0.0,0.0,0.0,0.0,0.0,0.0,0.0
377533180,377532304,0.0,0.0,0.0,0.0023441224,0.0,0.0,0.0,0.0,0.0,0.0,0.0,0.0,0.0,0.021087322,0.0,0.0,nan,0.0,0.0,0.021072183,0.0,0.0,0.0,0.0,0.0,0.0,0.0,0.0
378037942,378037138,0.0,0.0,0.0,0.0034374734,0.0,0.0,0.0,0.0,0.0,0.0,0.0,0.0,0.0,0.021125466,0.0,0.0,nan,0.0,0.0,0.049851265,0.0,0.0,0.0,0.0,0.0,0.0,0.0,0.0
378537957,378537464,0.0,0.0,0.0,0.004176297,0.0,0.0,0.0,0.0,0.0,0.0,0.0,0.0,0.0,0.021517027,0.0,0.0,nan,0.0,0.0,0.020099256,0.0,0.0,0.0,0.0,0.0,0.0,0.0,0.0
379029303,379028815,0.0,0.0,0.0,0.0050384034,0.0,0.0,0.0,0.0,0.0,0.0,0.0,0.0,0.0,0.019555997,0.0,0.0,nan,0.0,0.0,0.009084038,0.0,0.0,0.0,0.0,0.0,0.0,0.0,0.0
379533972,379533608,0.0,0.0,0.0,0.0056664706,0.0,0.0,0.0,0.0,0.0,0.0,0.0,0.0,0.0,0.022334483,0.0,0.0,nan,0.0,0.0,0.011410778,0.0,0.0,0.0,0.0,0.0,0.0,0.0,0.0
380030107,380029425,0.0,0.0,0.0,0.0061455374,0.0,0.0,0.0,0.0,0.0,0.0,0.0,0.0,0.0,0.020221513,0.0,0.0,nan,0.0,0.0,0.0011450694,0.0,0.0,0.0,0.0,0.0,0.0,0.0,0.0
380526164,380525503,0.0,0.0,0.0,0.0064600017,0.0,0.0,0.0,0.0,0.0,0.0,0.0,0.0,0.0,0.021897795,0.0,0.0,nan,0.0,0.0,0.008814128,0.0,0.0,0.0,0.0,0.0,0.0,0.0,0.0
381039477,381039092,0.0,0.0,0.0,0.006521545,0.0,0.0,0.0,0.0,0.0,0.0,0.0,0.0,0.0,0.021425147,0.0,0.0,nan,0.0,0.0,0.0063381083,0.0,0.0,0.0,0.0,0.0,0.0,0.0,0.0
381535533,381534908,0.0,0.0,0.0,0.0067180237,0.0,0.0,0.0,0.0,0.0,0.0,0.0,0.0,0.0,0.01874344,0.0,0.0,nan,0.0,0.0,0.020792017,0.0,0.0,0.0,0.0,0.0,0.0,0.0,0.0
382031933,382030914,0.0,0.0,0.0,0.0067473855,0.0,0.0,0.0,0.0,0.0,0.0,0.0,0.0,0.0,0.021256445,0.0,0.0,nan,0.0,0.0,0.027640421,0.0,0.0,0.0,0.0,0.0,0.0,0.0,0.0
382531678,382531051,0.0,0.0,0.0,0.006887444,0.0,0.0,0.0,0.0,0.0,0.0,0.0,0.0,0.0,0.020247271,0.0,0.0,nan,0.0,0.0,0.048260435,0.0,0.0,0.0,0.0,0.0,0.0,0.0,0.0
383027417,383027038,0.0,0.0,0.0,0.006996822,0.0,0.0,0.0,0.0,0.0,0.0,0.0,0.0,0.0,0.019829627,0.0,0.0,nan,0.0,0.0,0.024853727,0.0,0.0,0.0,0.0,0.0,0.0,0.0,0.0
383536850,383536391,0.0,0.0,0.0,0.0070167626,0.0,0.0,0.0,0.0,0.0,0.0,0.0,0.0,0.0,0.01674452,0.0,0.0,nan,0.0,0.0,0.055494633,0.0,0.0,0.0,0.0,0.0,0.0,0.0,0.0
384037050,384036534,0.0,0.0,0.0,0.006577143,0.0,0.0,0.0,0.0,0.0,0.0,0.0,0.0,0.0,0.01838714,0.0,0.0,nan,0.0,0.0,0.03541982,0.0,0.0,0.0,0.0,0.0,0.0,0.0,0.0
384533794,384532449,0.0,0.0,0.0,0.006023188,0.0,0.0,0.0,0.0,0.0,0.0,0.0,0.0,0.0,0.017824253,0.0,0.0,nan,0.0,0.0,0.006430115,0.0,0.0,0.0,0.0,0.0,0.0,0.0,0.0
385037625,385037184,0.0,0.0,0.0,0.0051454855,0.0,0.0,0.0,0.0,0.0,0.0,0.0,0.0,0.0,0.016014405,0.0,0.0,nan,0.0,0.0,0.0017371036,0.0,0.0,0.0,0.0,0.0,0.0,0.0,0.0
385537933,385537554,0.0,0.0,0.0,0.004675912,0.0,0.0,0.0,0.0,0.0,0.0,0.0,0.0,0.0,0.018811654,0.0,0.0,nan,0.0,0.0,0.0019226086,0.0,0.0,0.0,0.0,0.0,0.0,0.0,0.0
386029652,386028818,0.0,0.0,0.0,0.0043620653,0.0,0.0,0.0,0.0,0.0,0.0,0.0,0.0,0.0,0.019959528,0.0,0.0,nan,0.0,0.0,0.00040499007,0.0,0.0,0.0,0.0,0.0,0.0,0.0,0.0
386530010,386529189,0.0,0.0,0.0,0.004157265,0.0,0.0,0.0,0.0,0.0,0.0,0.0,0.0,0.0,0.016595036,0.0,0.0,nan,0.0,0.0,0.004659778,0.0,0.0,0.0,0.0,0.0,0.0,0.0,0.0
387025715,387025262,0.0,0.0,0.0,0.0039243745,0.0,0.0,0.0,0.0,0.0,0.0,0.0,0.0,0.0,0.018903628,0.0,0.0,nan,0.0,0.0,0.001556782,0.0,0.0,0.0,0.0,0.0,0.0,0.0,0.0
387534929,387534546,0.0,0.0,0.0,0.0033640629,0.0,0.0,0.0,0.0,0.0,0.0,0.0,0.0,0.0,0.017890722,0.0,0.0,nan,0.0,0.0,0.0004951449,0.0,0.0,0.0,0.0,0.0,0.0,0.0,0.0
388035210,388034626,0.0,0.0,0.0,0.0030997803,0.0,0.0,0.0,0.0,0.0,0.0,0.0,0.0,0.0,0.017669167,0.0,0.0,nan,0.0,0.0,0.019704003,0.0,0.0,0.0,0.0,0.0,0.0,0.0,0.0
388531070,388530667,0.0,0.0,0.0,0.002693789,0.0,0.0,0.0,0.0,0.0,0.0,0.0,0.0,0.0,0.014519157,0.0,0.0,nan,0.0,0.0,0.037146896,0.0,0.0,0.0,0.0,0.0,0.0,0.0,0.0
389032115,389030812,0.0,0.0,0.0,0.0023846345,0.0,0.0,0.0,0.0,0.0,0.0,0.0,0.0,0.0,0.014610245,0.0,0.0,nan,0.0,0.0,0.07493289,0.0,0.0,0.0,0.0,0.0,0.0,0.0,0.0
389527497,389526784,0.0,0.0,0.0,0.0019858987,0.0,0.0,0.0,0.0,0.0,0.0,0.0,0.0,0.0,0.018026404,0.0,0.0,nan,0.0,0.0,0.035790827,0.0,0.0,0.0,0.0,0.0,0.0,0.0,0.0
390036588,390036075,0.0,0.0,0.0,0.001744702,0.0,0.0,0.0,0.0,0.0,0.0,0.0,0.0,0.0,0.0150113,0.0,0.0,nan,0.0,0.0,0.010615302,0.0,0.0,0.0,0.0,0.0,0.0,0.0,0.0
390532239,390531743,0.0,0.0,0.0,0.0015060117,0.0,0.0,0.0,0.0,0.0,0.0,0.0,0.0,0.0,0.016938156,0.0,0.0,nan,0.0,0.0,0.0010057096,0.0,0.0,0.0,0.0,0.0,0.0,0.0,0.0
391032820,391032189,0.0,0.0,0.0,0.0011865647,0.0,0.0,0.0,0.0,0.0,0.0,0.0,0.0,0.0,0.014658643,0.0,0.0,nan,0.0,0.0,1.7485789e-05,0.0,0.0,0.0,0.0,0.0,0.0,0.0,0.0
391534132,391532434,0.0,0.0,0.0,0.0010270178,0.0,0.0,0.0,0.0,0.0,0.0,0.0,0.0,0.0,0.014552864,0.0,0.0,nan,0.0,0.0,2.1134858e-06,0.0,0.0,0.0,0.0,0.0,0.0,0.0,0.0
392037717,392037226,0.0,0.0,0.0,0.0008204162,0.0,0.0,0.0,0.0,0.0,0.0,0.0,0.0,0.0,0.014252555,0.0,0.0,nan,0.0,0.0,0.0021574325,0.0,0.0,0.0,0.0,0.0,0.0,0.0,0.0
392533543,392533037,0.0,0.0,0.0,0.00071862055,0.0,0.0,0.0,0.0,0.0,0.0,0.0,0.0,0.0,0.012044971,0.0,0.0,nan,0.0,0.0,0.0021771358,0.0,0.0,0.0,0.0,0.0,0.0,0.0,0.0
393024810,393024435,0.0,0.0,0.0,0.0006102144,0.0,0.0,0.0,0.0,0.0,0.0,0.0,0.0,0.0,0.01399678,0.0,0.0,nan,0.0,0.0,0.01586211,0.0,0.0,0.0,0.0,0.0,0.0,0.0,0.0
393534277,393533719,0.0,0.0,0.0,0.0004687705,0.0,0.0,0.0,0.0,0.0,0.0,0.0,0.0,0.0,0.015065348,0.0,0.0,nan,0.0,0.0,0.046904467,0.0,0.0,0.0,0.0,0.0,0.0,0.0,0.0
394035382,394034271,0.0,0.0,0.0,0.0003676877,0.0,0.0,0.0,0.0,0.0,0.0,0.0,0.0,0.0,0.015412643,0.0,0.0,nan,0.0,0.0,0.052794863,0.0,0.0,0.0,0.0,0.0,0.0,0.0,0.0
394535273,394534335,0.0,0.0,0.0,0.0002021307,0.0,0.0,0.0,0.0,0.0,0.0,0.0,0.0,0.0,0.016197003,0.0,0.0,nan,0.0,0.0,0.092796534,0.0,0.0,0.0,0.0,0.0,0.0,0.0,0.0
395035021,395034658,0.0,0.0,0.0,0.00011389467,0.0,0.0,0.0,0.0,0.0,0.0,0.0,0.0,0.0,0.016807167,0.0,0.0,nan,0.0,0.0,0.18605496,0.0,0.0,0.0,0.0,0.0,0.0,0.0,0.0
395535621,395534981,0.0,0.0,0.0,0.00018413125,0.0,0.0,0.0,0.0,0.0,0.0,0.0,0.0,0.0,0.020429239,0.0,0.0,nan,0.0,0.0,0.13929208,0.0,0.0,0.0,0.0,0.0,0.0,0.0,0.0
396031332,396030798,0.0,0.0,0.0,0.00026853738,0.0,0.0,0.0,0.0,0.0,0.0,0.0,0.0,0.0,0.01851038,0.0,0.0,nan,0.0,0.0,0.1964266,0.0,0.0,0.0,0.0,0.0,0.0,0.0,0.0
396536831,396535802,0.0,0.0,0.0,0.00034755017,0.0,0.0,0.0,0.0,0.0,0.0,0.0,0.0,0.0,0.02000545,0.0,0.0,nan,0.0,0.0,0.11776098,0.0,0.0,0.0,0.0,0.0,0.0,0.0,0.0
397036581,397035959,0.0,0.0,0.0,0.0004345484,0.0,0.0,0.0,0.0,0.0,0.0,0.0,0.0,0.0,0.023314452,0.0,0.0,nan,0.0,0.0,0.18086118,0.0,0.0,0.0,0.0,0.0,0.0,0.0,0.0
397532465,397531919,0.0,0.0,0.0,0.00041300233,0.0,0.0,0.0,0.0,0.0,0.0,0.0,0.0,0.0,0.024916409,0.0,0.0,nan,0.0,0.0,0.08658354,0.0,0.0,0.0,0.0,0.0,0.0,0.0,0.0
398032619,398032093,0.0,0.0,0.0,0.00027722472,0.0,0.0,0.0,0.0,0.0,0.0,0.0,0.0,0.0,0.021481207,0.0,0.0,nan,0.0,0.0,0.0737668,0.0,0.0,0.0,0.0,0.0,0.0,0.0,0.0
398532898,398532419,0.0,0.0,0.0,0.00016373543,0.0,0.0,0.0,0.0,0.0,0.0,0.0,0.0,0.0,0.022691056,0.0,0.0,nan,0.0,0.0,0.016087094,0.0,0.0,0.0,0.0,0.0,0.0,0.0,0.0
399038120,399037390,0.0,0.0,0.0,0.00018853317,0.0,0.0,0.0,0.0,0.0,0.0,0.0,0.0,0.0,0.024379775,0.0,0.0,nan,0.0,0.0,0.005682447,0.0,0.0,0.0,0.0,0.0,0.0,0.0,0.0
399528956,399528556,0.0,0.0,0.0,0.00020588214,0.0,0.0,0.0,0.0,0.0,0.0,0.0,0.0,0.0,0.023619616,0.0,0.0,nan,0.0,0.0,0.0060005267,0.0,0.0,0.0,0.0,0.0,0.0,0.0,0.0
400029290,400028926,0.0,0.0,0.0,0.00021957609,0.0,0.0,0.0,0.0,0.0,0.0,0.0,0.0,0.0,0.024333658,0.0,0.0,nan,0.0,0.0,0.041966204,0.0,0.0,0.0,0.0,0.0,0.0,0.0,0.0
400534343,400533711,0.0,0.0,0.0,0.0002321124,0.0,0.0,0.0,0.0,0.0,0.0,0.0,0.0,0.0,0.02013931,0.0,0.0,nan,0.0,0.0,0.022819301,0.0,0.0,0.0,0.0,0.0,0.0,0.0,0.0
401035325,401034036,0.0,0.0,0.0,0.000351174,0.0,0.0,0.0,0.0,0.0,0.0,0.0,0.0,0.0,0.02267739,0.0,0.0,nan,0.0,0.0,0.01277278,0.0,0.0,0.0,0.0,0.0,0.0,0.0,0.0
401530694,401530113,0.0,0.0,0.0,0.00047546686,0.0,0.0,0.0,0.0,0.0,0.0,0.0,0.0,0.0,0.023331262,0.0,0.0,nan,0.0,0.0,3.02895e-05,0.0,0.0,0.0,0.0,0.0,0.0,0.0,0.0
402035229,402034742,0.0,0.0,0.0,0.00059823325,0.0,0.0,0.0,0.0,0.0,0.0,0.0,0.0,0.0,0.019316694,0.0,0.0,nan,0.0,0.0,0.012040508,0.0,0.0,0.0,0.0,0.0,0.0,0.0,0.0
402540034,402539520,0.0,0.0,0.0,0.000938399,0.0,0.0,0.0,0.0,0.0,0.0,0.0,0.0,0.0,0.020986317,0.0,0.0,nan,0.0,0.0,0.04671336,0.0,0.0,0.0,0.0,0.0,0.0,0.0,0.0
403036025,403035507,0.0,0.0,0.0,0.0011048288,0.0,0.0,0.0,0.0,0.0,0.0,0.0,0.0,0.0,0.016781913,0.0,0.0,nan,0.0,0.0,0.054724343,0.0,0.0,0.0,0.0,0.0,0.0,0.0,0.0
403536590,403535656,0.0,0.0,0.0,0.0011844077,0.0,0.0,0.0,0.0,0.0,0.0,0.0,0.0,0.0,0.020108294,0.0,0.0,nan,0.0,0.0,0.05848471,0.0,0.0,0.0,0.0,0.0,0.0,0.0,0.0
404032143,404031636,0.0,0.0,0.0,0.0011762207,0.0,0.0,0.0,0.0,0.0,0.0,0.0,0.0,0.0,0.019844325,0.0,0.0,nan,0.0,0.0,0.028136253,0.0,0.0,0.0,0.0,0.0,0.0,0.0,0.0
404532306,404531788,0.0,0.0,0.0,0.0011328488,0.0,0.0,0.0,0.0,0.0,0.0,0.0,0.0,0.0,0.020849477,0.0,0.0,nan,0.0,0.0,0.015362177,0.0,0.0,0.0,0.0,0.0,0.0,0.0,0.0
405032796,405032156,0.0,0.0,0.0,0.0009847024,0.0,0.0,0.0,0.0,0.0,0.0,0.0,0.0,0.0,0.018704396,0.0,0.0,nan,0.0,0.0,0.0009104554,0.0,0.0,0.0,0.0,0.0,0.0,0.0,0.0
405537596,405537032,0.0,0.0,0.0,0.00086015713,0.0,0.0,0.0,0.0,0.0,0.0,0.0,0.0,0.0,0.020111961,0.0,0.0,nan,0.0,0.0,0.001961786,0.0,0.0,0.0,0.0,0.0,0.0,0.0,0.0
406034054,406032757,0.0,0.0,0.0,0.0006893819,0.0,0.0,0.0,0.0,0.0,0.0,0.0,0.0,0.0,0.018388903,0.0,0.0,nan,0.0,0.0,0.008396369,0.0,0.0,0.0,0.0,0.0,0.0,0.0,0.0
406533669,406533156,0.0,0.0,0.0,0.00060080196,0.0,0.0,0.0,0.0,0.0,0.0,0.0,0.0,0.0,0.01903676,0.0,0.0,nan,0.0,0.0,0.005274201,0.0,0.0,0.0,0.0,0.0,0.0,0.0,0.0
407030936,407028893,0.0,0.0,0.0,0.00054535235,0.0,0.0,0.0,0.0,0.0,0.0,0.0,0.0,0.0,0.016448386,0.0,0.0,nan,0.0,0.0,0.0,0.04791541,0.0,0.0,0.0,0.0,0.0,0.0,0.0
407532045,407529260,0.0,0.0,0.0,0.00067350455,0.0,0.0,0.0,0.0,0.0,0.0,0.0,0.0,0.0,0.021127999,0.0,0.0,nan,0.0,0.0,0.0,0.019142052,0.0,0.0,0.0,0.0,0.0,0.0,0.0
408038680,408034047,0.0,0.0,0.0,0.00079223624,0.0,0.0,0.0,0.0,0.0,0.0,0.0,0.0,0.0,0.017167639,0.0,0.0,nan,0.0,0.0,0.0,0.01340136,0.0,0.0,0.0,0.0,0.0,0.0,0.0
408530424,408529863,0.0,0.0,0.0,0.001039326,0.0,0.0,0.0,0.0,0.0,0.0,0.0,0.0,0.0,0.020061621,0.0,0.0,nan,0.0,0.0,0.0,0.009183892,0.0,0.0,0.0,0.0,0.0,0.0,0.0
409039836,409039197,0.0,0.0,0.0,0.0013085288,0.0,0.0,0.0,0.0,0.0,0.0,0.0,0.0,0.0,0.015995063,0.0,0.0,nan,0.0,0.0,0.0,0.036375467,0.0,0.0,0.0,0.0,0.0,0.0,0.0
409539943,409539566,0.0,0.0,0.0,0.0018797419,0.0,0.0,0.0,0.0,0.0,0.0,0.0,0.0,0.0,0.018079055,0.0,0.0,nan,0.0,0.0,0.0,0.07641255,0.0,0.0,0.0,0.0,0.0,0.0,0.0
410037968,410035379,0.0,0.0,0.0,0.0022841368,0.0,0.0,0.0,0.0,0.0,0.0,0.0,0.0,0.0,0.017990157,0.0,0.0,nan,0.0,0.0,0.0,0.11234499,0.0,0.0,0.0,0.0,0.0,0.0,0.0
410535749,410531390,0.0,0.0,0.0,0.0027315922,0.0,0.0,0.0,0.0,0.0,0.0,0.0,0.0,0.0,0.01688084,0.0,0.0,nan,0.0,0.0,0.0,0.12376781,0.0,0.0,0.0,0.0,0.0,0.0,0.0
411033628,411031471,0.0,0.0,0.0,0.0031493453,0.0,0.0,0.0,0.0,0.0,0.0,0.0,0.0,0.0,0.017372333,0.0,0.0,nan,0.0,0.0,0.0,0.17101587,0.0,0.0,0.0,0.0,0.0,0.0,0.0
411529655,411527443,0.0,0.0,0.0,0.0031154153,0.0,0.0,0.0,0.0,0.0,0.0,0.0,0.0,0.0,0.015255942,0.0,0.0,nan,0.0,0.0,0.0,0.11956484,0.0,0.0,0.0,0.0,0.0,0.0,0.0
412037178,412036731,0.0,0.0,0.0,0.003066615,0.0,0.0,0.0,0.0,0.0,0.0,0.0,0.0,0.0,0.021671787,0.0,0.0,nan,0.0,0.0,0.0,0.113994025,0.0,0.0,0.0,0.0,0.0,0.0,0.0
412539458,412536990,0.0,0.0,0.0,0.0027506305,0.0,0.0,0.0,0.0,0.0,0.0,0.0,0.0,0.0,0.016124487,0.0,0.0,nan,0.0,0.0,0.0,0.20466334,0.0,0.0,0.0,0.0,0.0,0.0,0.0
413035611,413032853,0.0,0.0,0.0,0.0024503914,0.0,0.0,0.0,0.0,0.0,0.0,0.0,0.0,0.0,0.019231997,0.0,0.0,nan,0.0,0.0,0.0,0.14308187,0.0,0.0,0.0,0.0,0.0,0.0,0.0
413538239,413537589,0.0,0.0,0.0,0.0026534249,0.0,0.0,0.0,0.0,0.0,0.0,0.0,0.0,0.0,0.019586949,0.0,0.0,nan,0.0,0.0,0.0001615184,0.0,0.0,0.0,0.0,0.0,0.0,0.0,0.0
414033999,414033405,0.0,0.0,0.0,0.0030010098,0.0,0.0,0.0,0.0,0.0,0.0,0.0,0.0,0.0,0.018780133,0.0,0.0,nan,0.0,0.0,0.016183387,0.0,0.0,0.0,0.0,0.0,0.0,0.0,0.0
414534325,414533726,0.0,0.0,0.0,0.00322632,0.0,0.0,0.0,0.0,0.0,0.0,0.0,0.0,0.0,0.021741873,0.0,0.0,nan,0.0,0.0,0.082683586,0.0,0.0,0.0,0.0,0.0,0.0,0.0,0.0
415034583,415034047,0.0,0.0,0.0,0.0034235832,0.0,0.0,0.0,0.0,0.0,0.0,0.0,0.0,0.0,0.015543597,0.0,0.0,nan,0.0,0.0,0.09346511,0.0,0.0,0.0,0.0,0.0,0.0,0.0,0.0
415535827,415534414,0.0,0.0,0.0,0.003977914,0.0,0.0,0.0,0.0,0.0,0.0,0.0,0.0,0.0,0.019586634,0.0,0.0,nan,0.0,0.0,0.03925414,0.0,0.0,0.0,0.0,0.0,0.0,0.0,0.0
416535701,416535012,0.0,0.0,0.0,0.00540962,0.0,0.0,0.0,0.0,0.0,0.0,0.0,0.0,0.0,0.017888708,0.0,0.0,nan,0.0,0.0,0.017043622,0.0,0.0,0.0,0.0,0.0,0.0,0.0,0.0
417035698,417035333,0.0,0.0,0.0,0.0058737574,0.0,0.0,0.0,0.0,0.0,0.0,0.0,0.0,0.0,0.017094282,0.0,0.0,nan,0.0,0.0,0.00430256,0.0,0.0,0.0,0.0,0.0,0.0,0.0,0.0
417532439,417531146,0.0,0.0,0.0,0.006185347,0.0,0.0,0.0,0.0,0.0,0.0,0.0,0.0,0.0,0.015980862,0.0,0.0,nan,0.0,0.0,0.020900737,0.0,0.0,0.0,0.0,0.0,0.0,0.0,0.0
418027716,418027132,0.0,0.0,0.0,0.006322847,0.0,0.0,0.0,0.0,0.0,0.0,0.0,0.0,0.0,0.016117837,0.0,0.0,nan,0.0,0.0,0.07371347,0.0,0.0,0.0,0.0,0.0,0.0,0.0,0.0
418536945,418536424,0.0,0.0,0.0,0.0062885005,0.0,0.0,0.0,0.0,0.0,0.0,0.0,0.0,0.0,0.016608803,0.0,0.0,nan,0.0,0.0,0.033391964,0.0,0.0,0.0,0.0,0.0,0.0,0.0,0.0
419037122,419036618,0.0,0.0,0.0,0.0059106494,0.0,0.0,0.0,0.0,0.0,0.0,0.0,0.0,0.0,0.018321939,0.0,0.0,nan,0.0,0.0,0.014291763,0.0,0.0,0.0,0.0,0.0,0.0,0.0,0.0
419533081,419532529,0.0,0.0,0.0,0.0055710156,0.0,0.0,0.0,0.0,0.0,0.0,0.0,0.0,0.0,0.017412059,0.0,0.0,nan,0.0,0.0,0.002919522,0.0,0.0,0.0,0.0,0.0,0.0,0.0,0.0
420037779,420037266,0.0,0.0,0.0,0.0062983055,0.0,0.0,0.0,0.0,0.0,0.0,0.0,0.0,0.0,0.015717072,0.0,0.0,nan,0.0,0.0,0.007613753,0.0,0.0,0.0,0.0,0.0,0.0,0.0,0.0
420533708,420533074,0.0,0.0,0.0,0.0070415316,0.0,0.0,0.0,0.0,0.0,0.0,0.0,0.0,0.0,0.017159812,0.0,0.0,nan,0.0,0.0,0.018392678,0.0,0.0,0.0,0.0,0.0,0.0,0.0,0.0
421029559,421028887,0.0,0.0,0.0,0.007839264,0.0,0.0,0.0,0.0,0.0,0.0,0.0,0.0,0.0,0.013396211,0.0,0.0,nan,0.0,0.0,0.08060966,0.0,0.0,0.0,0.0,0.0,0.0,0.0,0.0
421529944,421529252,0.0,0.0,0.0,0.008860165,0.0,0.0,0.0,0.0,0.0,0.0,0.0,0.0,0.0,0.014785186,0.0,0.0,nan,0.0,0.0,0.109851465,0.0,0.0,0.0,0.0,0.0,0.0,0.0,0.0
422026747,422025292,0.0,0.0,0.0,0.009338526,0.0,0.0,0.0,0.0,0.0,0.0,0.0,0.0,0.0,0.014689302,0.0,0.0,nan,0.0,0.0,0.098629676,0.0,0.0,0.0,0.0,0.0,0.0,0.0,0.0
422530246,422529850,0.0,0.0,0.0,0.009859037,0.0,0.0,0.0,0.0,0.0,0.0,0.0,0.0,0.0,0.013157328,0.0,0.0,nan,0.0,0.0,0.050973263,0.0,0.0,0.0,0.0,0.0,0.0,0.0,0.0
423035226,423034677,0.0,0.0,0.0,0.010297365,0.0,0.0,0.0,0.0,0.0,0.0,0.0,0.0,0.0,0.015258509,0.0,0.0,nan,0.0,0.0,0.17879497,0.0,0.0,0.0,0.0,0.0,0.0,0.0,0.0
423531211,423530715,0.0,0.0,0.0,0.010474747,0.0,0.0,0.0,0.0,0.0,0.0,0.0,0.0,0.0,0.014542511,0.0,0.0,nan,0.0,0.0,0.55882823,0.0,0.0,0.0,0.0,0.0,0.0,0.0,0.0
424040384,424039976,0.0,0.0,0.0,0.010430214,0.0,0.0,0.0,0.0,0.0,0.0,0.0,0.0,0.0,0.01686778,0.0,0.0,nan,0.0,0.0,0.697258,0.0,0.0,0.0,0.0,0.0,0.0,0.0,0.0
424527600,424526801,0.0,0.0,0.0,0.009769882,0.0,0.0,0.0,0.0,0.0,0.0,0.0,0.0,0.0,0.015757177,0.0,0.0,nan,0.0,0.0,0.558394,0.0,0.0,0.0,0.0,0.0,0.0,0.0,0.0
425037419,425036090,0.0,0.0,0.0,0.008886711,0.0,0.0,0.0,0.0,0.0,0.0,0.0,0.0,0.0,0.01473848,0.0,0.0,nan,0.0,0.0,0.4213068,0.0,0.0,0.0,0.0,0.0,0.0,0.0,0.0
425532244,425531771,0.0,0.0,0.0,0.008052312,0.0,0.0,0.0,0.0,0.0,0.0,0.0,0.0,0.0,0.013633427,0.0,0.0,nan,0.0,0.0,0.31493354,0.0,0.0,0.0,0.0,0.0,0.0,0.0,0.0
426032624,426032194,0.0,0.0,0.0,0.00707861,0.0,0.0,0.0,0.0,0.0,0.0,0.0,0.0,0.0,0.013859031,0.0,0.0,nan,0.0,0.0,0.1906551,0.0,0.0,0.0,0.0,0.0,0.0,0.0,0.0
426533079,426532457,0.0,0.0,0.0,0.0067471312,0.0,0.0,0.0,0.0,0.0,0.0,0.0,0.0,0.0,0.012075606,0.0,0.0,nan,0.0,0.0,0.16338667,0.0,0.0,0.0,0.0,0.0,0.0,0.0,0.0
427029087,427028365,0.0,0.0,0.0,0.0065222345,0.0,0.0,0.0,0.0,0.0,0.0,0.0,0.0,0.0,0.010924572,0.0,0.0,nan,0.0,0.0,0.100898415,0.0,0.0,0.0,0.0,0.0,0.0,0.0,0.0
427529074,427528544,0.0,0.0,0.0,0.0064622485,0.0,0.0,0.0,0.0,0.0,0.0,0.0,0.0,0.0,0.008827664,0.0,0.0,nan,0.0,0.0,0.032871697,0.0,0.0,0.0,0.0,0.0,0.0,0.0,0.0
428029502,428028864,0.0,0.0,0.0,0.006636138,0.0,0.0,0.0,0.0,0.0,0.0,0.0,0.0,0.0,0.0106700575,0.0,0.0,nan,0.0,0.0,0.0013504446,0.0,0.0,0.0,0.0,0.0,0.0,0.0,0.0
428529837,428529186,0.0,0.0,0.0,0.006574811,0.0,0.0,0.0,0.0,0.0,0.0,0.0,0.0,0.0,0.0100955,0.0,0.0,nan,0.0,0.0,0.009421442,0.0,0.0,0.0,0.0,0.0,0.0,0.0,0.0
429034760,429034239,0.0,0.0,0.0,0.0064348415,0.0,0.0,0.0,0.0,0.0,0.0,0.0,0.0,0.0,0.0110396175,0.0,0.0,nan,0.0,0.0,0.0026272917,0.0,0.0,0.0,0.0,0.0,0.0,0.0,0.0
429535530,429534334,0.0,0.0,0.0,0.00598923,0.0,0.0,0.0,0.0,0.0,0.0,0.0,0.0,0.0,0.009089263,0.0,0.0,nan,0.0,0.0,0.004977383,0.0,0.0,0.0,0.0,0.0,0.0,0.0,0.0
430030990,430030364,0.0,0.0,0.0,0.0055261436,0.0,0.0,0.0,0.0,0.0,0.0,0.0,0.0,0.0,0.009597772,0.0,0.0,nan,0.0,0.0,0.027081607,0.0,0.0,0.0,0.0,0.0,0.0,0.0,0.0
430540029,430539641,0.0,0.0,0.0,0.0047971522,0.0,0.0,0.0,0.0,0.0,0.0,0.0,0.0,0.0,0.0070943004,0.0,0.0,nan,0.0,0.0,0.058945563,0.0,0.0,0.0,0.0,0.0,0.0,0.0,0.0
431040418,431039843,0.0,0.0,0.0,0.004295421,0.0,0.0,0.0,0.0,0.0,0.0,0.0,0.0,0.0,0.007973368,0.0,0.0,nan,0.0,0.0,0.058782663,0.0,0.0,0.0,0.0,0.0,0.0,0.0,0.0
431536108,431535746,0.0,0.0,0.0,0.0038123007,0.0,0.0,0.0,0.0,0.0,0.0,0.0,0.0,0.0,0.008446313,0.0,0.0,nan,0.0,0.0,0.05735239,0.0,0.0,0.0,0.0,0.0,0.0,0.0,0.0
432036874,432035930,0.0,0.0,0.0,0.0035432868,0.0,0.0,0.0,0.0,0.0,0.0,0.0,0.0,0.0,0.005373447,0.0,0.0,nan,0.0,0.0,0.08762266,0.0,0.0,0.0,0.0,0.0,0.0,0.0,0.0
432532305,432531863,0.0,0.0,0.0,0.0030938515,0.0,0.0,0.0,0.0,0.0,0.0,0.0,0.0,0.0,0.0048417645,0.0,0.0,nan,0.0,0.0,0.066362865,0.0,0.0,0.0,0.0,0.0,0.0,0.0,0.0
433037010,433036569,0.0,0.0,0.0,0.002523473,0.0,0.0,0.0,0.0,0.0,0.0,0.0,0.0,0.0,0.0033669008,0.0,0.0,nan,0.0,0.0,0.052489888,0.0,0.0,0.0,0.0,0.0,0.0,0.0,0.0
433537391,433536888,0.0,0.0,0.0,0.002148645,0.0,0.0,0.0,0.0,0.0,0.0,0.0,0.0,0.0,0.0056135296,0.0,0.0,nan,0.0,0.0,0.028642299,0.0,0.0,0.0,0.0,0.0,0.0,0.0,0.0
434037667,434037292,0.0,0.0,0.0,0.0016264945,0.0,0.0,0.0,0.0,0.0,0.0,0.0,0.0,0.0,0.0036965003,0.0,0.0,nan,0.0,0.0,0.056232385,0.0,0.0,0.0,0.0,0.0,0.0,0.0,0.0
434529183,434528513,0.0,0.0,0.0,0.0013476037,0.0,0.0,0.0,0.0,0.0,0.0,0.0,0.0,0.0,0.0039121658,0.0,0.0,nan,0.0,0.0,0.0581091,0.0,0.0,0.0,0.0,0.0,0.0,0.0,0.0
435033767,435033360,0.0,0.0,0.0,0.001021712,0.0,0.0,0.0,0.0,0.0,0.0,0.0,0.0,0.0,0.003573879,0.0,0.0,nan,0.0,0.0,0.054229654,0.0,0.0,0.0,0.0,0.0,0.0,0.0,0.0
435534442,435533900,0.0,0.0,0.0,0.00082646596,0.0,0.0,0.0,0.0,0.0,0.0,0.0,0.0,0.0,0.0034411794,0.0,0.0,nan,0.0,0.0,0.034089692,0.0,0.0,0.0,0.0,0.0,0.0,0.0,0.0
436034610,436033977,0.0,0.0,0.0,0.0006731437,0.0,0.0,0.0,0.0,0.0,0.0,0.0,0.0,0.0,0.0034427757,0.0,0.0,nan,0.0,0.0,0.028255852,0.0,0.0,0.0,0.0,0.0,0.0,0.0,0.0
436531039,436530028,0.0,0.0,0.0,0.00048348666,0.0,0.0,0.0,0.0,0.0,0.0,0.0,0.0,0.0,0.001940098,0.0,0.0,nan,0.0,0.0,0.017942231,0.0,0.0,0.0,0.0,0.0,0.0,0.0,0.0
437030676,437030108,0.0,0.0,0.0,0.00039268722,0.0,0.0,0.0,0.0,0.0,0.0,0.0,0.0,0.0,0.0027271828,0.0,0.0,nan,0.0,0.0,0.007251304,0.0,0.0,0.0,0.0,0.0,0.0,0.0,0.0
437540025,437539443,0.0,0.0,0.0,0.0003132848,0.0,0.0,0.0,0.0,0.0,0.0,0.0,0.0,0.0,0.0025720184,0.0,0.0,nan,0.0,0.0,0.00016060921,0.0,0.0,0.0,0.0,0.0,0.0,0.0,0.0
438035929,438035378,0.0,0.0,0.0,0.00025507424,0.0,0.0,0.0,0.0,0.0,0.0,0.0,0.0,0.0,0.0025749858,0.0,0.0,nan,0.0,0.0,0.0007525832,0.0,0.0,0.0,0.0,0.0,0.0,0.0,0.0
438531561,438531065,0.0,0.0,0.0,0.00020188787,0.0,0.0,0.0,0.0,0.0,0.0,0.0,0.0,0.0,0.002788276,0.0,0.0,nan,0.0,0.0,0.0004595641,0.0,0.0,0.0,0.0,0.0,0.0,0.0,0.0
439036866,439035891,0.0,0.0,0.0,0.0001394544,0.0,0.0,0.0,0.0,0.0,0.0,0.0,0.0,0.0,0.0016558055,0.0,0.0,nan,0.0,0.0,0.001968475,0.0,0.0,0.0,0.0,0.0,0.0,0.0,0.0
439532436,439531704,0.0,0.0,0.0,0.00013847694,0.0,0.0,0.0,0.0,0.0,0.0,0.0,0.0,0.0,0.0026767745,0.0,0.0,nan,0.0,0.0,0.012536489,0.0,0.0,0.0,0.0,0.0,0.0,0.0,0.0
440037025,440036528,0.0,0.0,0.0,0.00012816647,0.0,0.0,0.0,0.0,0.0,0.0,0.0,0.0,0.0,0.0023078322,0.0,0.0,nan,0.0,0.0,0.0069656316,0.0,0.0,0.0,0.0,0.0,0.0,0.0,0.0
440528519,440528133,0.0,0.0,0.0,0.00010925761,0.0,0.0,0.0,0.0,0.0,0.0,0.0,0.0,0.0,0.003255918,0.0,0.0,nan,0.0,0.0,0.0010378786,0.0,0.0,0.0,0.0,0.0,0.0,0.0,0.0
441038002,441037427,0.0,0.0,0.0,7.512293e-05,0.0,0.0,0.0,0.0,0.0,0.0,0.0,0.0,0.0,0.005106877,0.0,0.0,nan,0.0,0.0,0.0005625996,0.0,0.0,0.0,0.0,0.0,0.0,0.0,0.0
441534293,441532979,0.0,0.0,0.0,5.8135996e-05,0.0,0.0,0.0,0.0,0.0,0.0,0.0,0.0,0.0,0.0036328023,0.0,0.0,nan,0.0,0.0,0.016703174,0.0,0.0,0.0,0.0,0.0,0.0,0.0,0.0
442033920,442033539,0.0,0.0,0.0,0.00017209793,0.0,0.0,0.0,0.0,0.0,0.0,0.0,0.0,0.0,0.0049426286,0.0,0.0,nan,0.0,0.0,0.035312697,0.0,0.0,0.0,0.0,0.0,0.0,0.0,0.0
442534397,442533659,0.0,0.0,0.0,0.00024598217,0.0,0.0,0.0,0.0,0.0,0.0,0.0,0.0,0.0,0.005931289,0.0,0.0,nan,0.0,0.0,0.045673482,0.0,0.0,0.0,0.0,0.0,0.0,0.0,0.0
443030014,443029635,0.0,0.0,0.0,0.00030267093,0.0,0.0,0.0,0.0,0.0,0.0,0.0,0.0,0.0,0.005199576,0.0,0.0,nan,0.0,0.0,0.045595743,0.0,0.0,0.0,0.0,0.0,0.0,0.0,0.0
443531189,443529742,0.0,0.0,0.0,0.00034090804,0.0,0.0,0.0,0.0,0.0,0.0,0.0,0.0,0.0,0.004567839,0.0,0.0,nan,0.0,0.0,0.03315253,0.0,0.0,0.0,0.0,0.0,0.0,0.0,0.0
444040082,444039076,0.0,0.0,0.0,0.0003403524,0.0,0.0,0.0,0.0,0.0,0.0,0.0,0.0,0.0,0.0048404546,0.0,0.0,nan,0.0,0.0,0.0012561096,0.0,0.0,0.0,0.0,0.0,0.0,0.0,0.0
444535596,444535020,0.0,0.0,0.0,0.00039313693,0.0,0.0,0.0,0.0,0.0,0.0,0.0,0.0,0.0,0.0036684573,0.0,0.0,nan,0.0,0.0,0.0045913244,0.0,0.0,0.0,0.0,0.0,0.0,0.0,0.0
445035824,445035252,0.0,0.0,0.0,0.0004966561,0.0,0.0,0.0,0.0,0.0,0.0,0.0,0.0,0.0,0.0032456655,0.0,0.0,nan,0.0,0.0,0.035598926,0.0,0.0,0.0,0.0,0.0,0.0,0.0,0.0
445531552,445531165,0.0,0.0,0.0,0.0005954333,0.0,0.0,0.0,0.0,0.0,0.0,0.0,0.0,0.0,0.0065366975,0.0,0.0,nan,0.0,0.0,0.08023691,0.0,0.0,0.0,0.0,0.0,0.0,0.0,0.0
446036202,446035840,0.0,0.0,0.0,0.0006347322,0.0,0.0,0.0,0.0,0.0,0.0,0.0,0.0,0.0,0.006977343,0.0,0.0,nan,0.0,0.0,0.0746924,0.0,0.0,0.0,0.0,0.0,0.0,0.0,0.0
446536696,446536159,0.0,0.0,0.0,0.00069925154,0.0,0.0,0.0,0.0,0.0,0.0,0.0,0.0,0.0,0.0088964505,0.0,0.0,nan,0.0,0.0,0.09051559,0.0,0.0,0.0,0.0,0.0,0.0,0.0,0.0
447037019,447036498,0.0,0.0,0.0,0.00080318813,0.0,0.0,0.0,0.0,0.0,0.0,0.0,0.0,0.0,0.008242352,0.0,0.0,nan,0.0,0.0,0.06802751,0.0,0.0,0.0,0.0,0.0,0.0,0.0,0.0
447537573,447537084,0.0,0.0,0.0,0.0009103049,0.0,0.0,0.0,0.0,0.0,0.0,0.0,0.0,0.0,0.011218394,0.0,0.0,nan,0.0,0.0,0.07405097,0.0,0.0,0.0,0.0,0.0,0.0,0.0,0.0
448037640,448037128,0.0,0.0,0.0,0.0010220269,0.0,0.0,0.0,0.0,0.0,0.0,0.0,0.0,0.0,0.014044779,0.0,0.0,nan,0.0,0.0,0.077539995,0.0,0.0,0.0,0.0,0.0,0.0,0.0,0.0
448534179,448533131,0.0,0.0,0.0,0.0009940632,0.0,0.0,0.0,0.0,0.0,0.0,0.0,0.0,0.0,0.012633755,0.0,0.0,nan,0.0,0.0,0.062827334,0.0,0.0,0.0,0.0,0.0,0.0,0.0,0.0
449034021,449033242,0.0,0.0,0.0,0.0009053088,0.0,0.0,0.0,0.0,0.0,0.0,0.0,0.0,0.0,0.010888799,0.0,0.0,nan,0.0,0.0,0.08103311,0.0,0.0,0.0,0.0,0.0,0.0,0.0,0.0
449529676,449529228,0.0,0.0,0.0,0.00076348527,0.0,0.0,0.0,0.0,0.0,0.0,0.0,0.0,0.0,0.013317189,0.0,0.0,nan,0.0,0.0,0.06903989,0.0,0.0,0.0,0.0,0.0,0.0,0.0,0.0
450030068,450029367,0.0,0.0,0.0,0.0006261577,0.0,0.0,0.0,0.0,0.0,0.0,0.0,0.0,0.0,0.0133060375,0.0,0.0,nan,0.0,0.0,0.07545157,0.0,0.0,0.0,0.0,0.0,0.0,0.0,0.0
450526478,450525334,0.0,0.0,0.0,0.00040261864,0.0,0.0,0.0,0.0,0.0,0.0,0.0,0.0,0.0,0.01459443,0.0,0.0,nan,0.0,0.0,0.067114465,0.0,0.0,0.0,0.0,0.0,0.0,0.0,0.0
451035921,451034614,0.0,0.0,0.0,0.000365367,0.0,0.0,0.0,0.0,0.0,0.0,0.0,0.0,0.0,0.014550981,0.0,0.0,nan,0.0,0.0,0.042467043,0.0,0.0,0.0,0.0,0.0,0.0,0.0,0.0
451535499,451534827,0.0,0.0,0.0,0.0003912425,0.0,0.0,0.0,0.0,0.0,0.0,0.0,0.0,0.0,0.014703281,0.0,0.0,nan,0.0,0.0,0.010185876,0.0,0.0,0.0,0.0,0.0,0.0,0.0,0.0
452040169,452039655,0.0,0.0,0.0,0.0003859927,0.0,0.0,0.0,0.0,0.0,0.0,0.0,0.0,0.0,0.013835352,0.0,0.0,nan,0.0,0.0,0.0010767553,0.0,0.0,0.0,0.0,0.0,0.0,0.0,0.0
452531620,452530954,0.0,0.0,0.0,0.0003683525,0.0,0.0,0.0,0.0,0.0,0.0,0.0,0.0,0.0,0.015850095,0.0,0.0,nan,0.0,0.0,0.0047367876,0.0,0.0,0.0,0.0,0.0,0.0,0.0,0.0
453036313,453035824,0.0,0.0,0.0,0.0003565273,0.0,0.0,0.0,0.0,0.0,0.0,0.0,0.0,0.0,0.014797681,0.0,0.0,nan,0.0,0.0,0.027269892,0.0,0.0,0.0,0.0,0.0,0.0,0.0,0.0
453532630,453531637,0.0,0.0,0.0,0.00032574683,0.0,0.0,0.0,0.0,0.0,0.0,0.0,0.0,0.0,0.013200972,0.0,0.0,nan,0.0,0.0,0.035182066,0.0,0.0,0.0,0.0,0.0,0.0,0.0,0.0
454037085,454036657,0.0,0.0,0.0,0.00032458722,0.0,0.0,0.0,0.0,0.0,0.0,0.0,0.0,0.0,0.014120566,0.0,0.0,nan,0.0,0.0,0.056735232,0.0,0.0,0.0,0.0,0.0,0.0,0.0,0.0
454537373,454536730,0.0,0.0,0.0,0.00034510798,0.0,0.0,0.0,0.0,0.0,0.0,0.0,0.0,0.0,0.013687274,0.0,0.0,nan,0.0,0.0,0.08738392,0.0,0.0,0.0,0.0,0.0,0.0,0.0,0.0
455037414,455037047,0.0,0.0,0.0,0.00034107684,0.0,0.0,0.0,0.0,0.0,0.0,0.0,0.0,0.0,0.012541702,0.0,0.0,nan,0.0,0.0,0.110844724,0.0,0.0,0.0,0.0,0.0,0.0,0.0,0.0
455534145,455532857,0.0,0.0,0.0,0.00033384314,0.0,0.0,0.0,0.0,0.0,0.0,0.0,0.0,0.0,0.01346537,0.0,0.0,nan,0.0,0.0,0.13834494,0.0,0.0,0.0,0.0,0.0,0.0,0.0,0.0
456029349,456028843,0.0,0.0,0.0,0.00029025177,0.0,0.0,0.0,0.0,0.0,0.0,0.0,0.0,0.0,0.013916905,0.0,0.0,nan,0.0,0.0,0.20678027,0.0,0.0,0.0,0.0,0.0,0.0,0.0,0.0
456529550,456529029,0.0,0.0,0.0,0.00023334993,0.0,0.0,0.0,0.0,0.0,0.0,0.0,0.0,0.0,0.012595128,0.0,0.0,nan,0.0,0.0,0.25836772,0.0,0.0,0.0,0.0,0.0,0.0,0.0,0.0
457034304,457033809,0.0,0.0,0.0,0.00015481772,0.0,0.0,0.0,0.0,0.0,0.0,0.0,0.0,0.0,0.011601496,0.0,0.0,nan,0.0,0.0,0.32014912,0.0,0.0,0.0,0.0,0.0,0.0,0.0,0.0
457539267,457538634,0.0,0.0,0.0,0.00023010182,0.0,0.0,0.0,0.0,0.0,0.0,0.0,0.0,0.0,0.012034037,0.0,0.0,nan,0.0,0.0,0.35934302,0.0,0.0,0.0,0.0,0.0,0.0,0.0,0.0
458039589,458038995,0.0,0.0,0.0,0.0002766518,0.0,0.0,0.0,0.0,0.0,0.0,0.0,0.0,0.0,0.011168594,0.0,0.0,nan,0.0,0.0,0.36139607,0.0,0.0,0.0,0.0,0.0,0.0,0.0,0.0
458535357,458534805,0.0,0.0,0.0,0.00026058318,0.0,0.0,0.0,0.0,0.0,0.0,0.0,0.0,0.0,0.009994181,0.0,0.0,nan,0.0,0.0,0.0,1.1075187,0.0,0.0,0.0,0.0,0.0,0.0,0.0
459031289,459030851,0.0,0.0,0.0,0.0002251343,0.0,0.0,0.0,0.0,0.0,0.0,0.0,0.0,0.0,0.00853627,0.0,0.0,nan,0.0,0.0,0.0,1.1436558,0.0,0.0,0.0,0.0,0.0,0.0,0.0
459531293,459530886,0.0,0.0,0.0,0.0002184885,0.0,0.0,0.0,0.0,0.0,0.0,0.0,0.0,0.0,0.0104194805,0.0,0.0,nan,0.0,0.0,0.0,1.0860941,0.0,0.0,0.0,0.0,0.0,0.0,0.0
460027789,460026954,0.0,0.0,0.0,0.00382625,0.0,0.0,0.0,0.0,0.0,0.0,0.0,0.0,0.0,0.008073503,0.0,0.0,nan,0.0,0.0,0.0,0.67276114,0.0,0.0,0.0,0.0,0.0,0.0,0.0
460534163,460531519,0.0,0.0,0.0,0.021346686,0.0,0.0,0.0,0.0,0.0,0.0,0.0,0.0,0.0,0.0075077666,0.0,0.0,nan,0.0,0.0,0.0,0.6698811,0.0,0.0,0.0,0.0,0.0,0.0,0.0
461037060,461036388,0.0,0.0,0.0,0.03187701,0.0,0.0,0.0,0.0,0.0,0.0,0.0,0.0,0.0,0.0064276624,0.0,0.0,nan,0.0,0.0,0.0,0.6517588,0.0,0.0,0.0,0.0,0.0,0.0,0.0
461534336,461532334,0.0,0.0,0.0,0.042576868,0.0,0.0,0.0,0.0,0.0,0.0,0.0,0.0,0.0,0.0059558298,0.0,0.0,nan,0.0,0.0,0.0,0.6656498,0.0,0.0,0.0,0.0,0.0,0.0,0.0
462032995,462032470,0.0,0.0,0.0,0.060799338,0.0,0.0,0.0,0.0,0.0,0.0,0.0,0.0,0.0,0.0038170868,0.0,0.0,nan,0.0,0.0,0.0,0.6019482,0.0,0.0,0.0,0.0,0.0,0.0,0.0
462531029,462528416,0.0,0.0,0.0,0.07591083,0.0,0.0,0.0,0.0,0.0,0.0,0.0,0.0,0.0,0.0031370027,0.0,0.0,nan,0.0,0.0,0.0,0.20163453,0.0,0.0,0.0,0.0,0.0,0.0,0.0
463030848,463028595,0.0,0.0,0.0,0.09083488,0.0,0.0,0.0,0.0,0.0,0.0,0.0,0.0,0.0,0.0019651104,0.0,0.0,nan,0.0,0.0,0.0,0.16155669,0.0,0.0,0.0,0.0,0.0,0.0,0.0
463524953,463524511,0.0,0.0,0.0,0.0956886,0.0,0.0,0.0,0.0,0.0,0.0,0.0,0.0,0.0,0.0014041148,0.0,0.0,nan,0.0,0.0,0.0,0.061804216,0.0,0.0,0.0,0.0,0.0,0.0,0.0
464031919,464029227,0.0,0.0,0.0,0.0856212,0.0,0.0,0.0,0.0,0.0,0.0,0.0,0.0,0.0,0.0006327355,0.0,0.0,nan,0.0,0.0,0.0,0.100792445,0.0,0.0,0.0,0.0,0.0,0.0,0.0
464538922,464534051,0.0,0.0,0.0,0.07504882,0.0,0.0,0.0,0.0,0.0,0.0,0.0,0.0,0.0,0.0010862729,0.0,0.0,nan,0.0,0.0,0.0,0.08925319,0.0,0.0,0.0,0.0,0.0,0.0,0.0
465034773,465034369,0.0,0.0,0.0,0.06628305,0.0,0.0,0.0,0.0,0.0,0.0,0.0,0.0,0.0,0.0004785928,0.0,0.0,nan,0.0,0.0,0.0107221035,0.0,0.0,0.0,0.0,0.0,0.0,0.0,0.0
465535685,465534684,0.0,0.0,0.0,0.06491808,0.0,0.0,0.0,0.0,0.0,0.0,0.0,0.0,0.0,0.0019233505,0.0,0.0,nan,0.0,0.0,0.0065484084,0.0,0.0,0.0,0.0,0.0,0.0,0.0,0.0
466031178,466030493,0.0,0.0,0.0,0.06405875,0.0,0.0,0.0,0.0,0.0,0.0,0.0,0.0,0.0,0.0018689416,0.0,0.0,nan,0.0,0.0,0.001391164,0.0,0.0,0.0,0.0,0.0,0.0,0.0,0.0
466526897,466526522,0.0,0.0,0.0,0.061710376,0.0,0.0,0.0,0.0,0.0,0.0,0.0,0.0,0.0,0.0003840329,0.0,0.0,nan,0.0,0.0,0.021086833,0.0,0.0,0.0,0.0,0.0,0.0,0.0,0.0
467036172,467035807,0.0,0.0,0.0,0.05945644,0.0,0.0,0.0,0.0,0.0,0.0,0.0,0.0,0.0,0.0004884504,0.0,0.0,nan,0.0,0.0,0.05683435,0.0,0.0,0.0,0.0,0.0,0.0,0.0,0.0
467536958,467535949,0.0,0.0,0.0,0.055664558,0.0,0.0,0.0,0.0,0.0,0.0,0.0,0.0,0.0,0.0002335506,0.0,0.0,nan,0.0,0.0,0.06307479,0.0,0.0,0.0,0.0,0.0,0.0,0.0,0.0
468032476,468031911,0.0,0.0,0.0,0.05366975,0.0,0.0,0.0,0.0,0.0,0.0,0.0,0.0,0.0,0.00016361568,0.0,0.0,nan,0.0,0.0,0.057430338,0.0,0.0,0.0,0.0,0.0,0.0,0.0,0.0
468532718,468532073,0.0,0.0,0.0,0.050688375,0.0,0.0,0.0,0.0,0.0,0.0,0.0,0.0,0.0,0.00025133745,0.0,0.0,nan,0.0,0.0,0.042739566,0.0,0.0,0.0,0.0,0.0,0.0,0.0,0.0
469037443,469036942,0.0,0.0,0.0,0.04624403,0.0,0.0,0.0,0.0,0.0,0.0,0.0,0.0,0.0,0.00012535363,0.0,0.0,nan,0.0,0.0,0.007163894,0.0,0.0,0.0,0.0,0.0,0.0,0.0,0.0
469537780,469537279,0.0,0.0,0.0,0.043707453,0.0,0.0,0.0,0.0,0.0,0.0,0.0,0.0,0.0,1.555992e-05,0.0,0.0,nan,0.0,0.0,0.038840078,0.0,0.0,0.0,0.0,0.0,0.0,0.0,0.0
470034175,470033022,0.0,0.0,0.0,0.040053833,0.0,0.0,0.0,0.0,0.0,0.0,0.0,0.0,0.0,8.392354e-06,0.0,0.0,nan,0.0,0.0,0.16557384,0.0,0.0,0.0,0.0,0.0,0.0,0.0,0.0
470529426,470528830,0.0,0.0,0.0,0.038463905,0.0,0.0,0.0,0.0,0.0,0.0,0.0,0.0,0.0,0.0002399701,0.0,0.0,nan,0.0,0.0,0.0964178,0.0,0.0,0.0,0.0,0.0,0.0,0.0,0.0
471029582,471029147,0.0,0.0,0.0,0.036580473,0.0,0.0,0.0,0.0,0.0,0.0,0.0,0.0,0.0,0.00011970427,0.0,0.0,nan,0.0,0.0,0.021020863,0.0,0.0,0.0,0.0,0.0,0.0,0.0,0.0
471534514,471533969,0.0,0.0,0.0,0.035397105,0.0,0.0,0.0,0.0,0.0,0.0,0.0,0.0,0.0,7.738764e-06,0.0,0.0,nan,0.0,0.0,0.0003429453,0.0,0.0,0.0,0.0,0.0,0.0,0.0,0.0
473040024,473039430,0.0,0.0,0.0,0.031413935,0.0,0.0,0.0,0.0,0.0,0.0,0.0,0.0,0.0,0.00016902706,0.0,0.0,nan,0.0,0.0,0.59684265,0.0,0.0,0.0,0.0,0.0,0.0,0.0,0.0
473535754,473535369,0.0,0.0,0.0,0.030664999,0.0,0.0,0.0,0.0,0.0,0.0,0.0,0.0,0.0,0.0006047197,0.0,0.0,nan,0.0,0.0,0.955478,0.0,0.0,0.0,0.0,0.0,0.0,0.0,0.0
474036183,474035547,0.0,0.0,0.0,0.031010533,0.0,0.0,0.0,0.0,0.0,0.0,0.0,0.0,0.0,0.0012417895,0.0,0.0,nan,0.0,0.0,0.23423122,0.0,0.0,0.0,0.0,0.0,0.0,0.0,0.0
474532881,474531474,0.0,0.0,0.0,0.030747468,0.0,0.0,0.0,0.0,0.0,0.0,0.0,0.0,0.0,0.00087032915,0.0,0.0,nan,0.0,0.0,0.13599454,0.0,0.0,0.0,0.0,0.0,0.0,0.0,0.0
475032504,475031717,0.0,0.0,0.0,0.030505499,0.0,0.0,0.0,0.0,0.0,0.0,0.0,0.0,0.0,0.0012475416,0.0,0.0,nan,0.0,0.0,0.26519975,0.0,0.0,0.0,0.0,0.0,0.0,0.0,0.0
475537003,475536494,0.0,0.0,0.0,0.029886931,0.0,0.0,0.0,0.0,0.0,0.0,0.0,0.0,0.0,0.0013422129,0.0,0.0,nan,0.0,0.0,0.18337815,0.0,0.0,0.0,0.0,0.0,0.0,0.0,0.0
476037355,476036896,0.0,0.0,0.0,0.02939918,0.0,0.0,0.0,0.0,0.0,0.0,0.0,0.0,0.0,0.0024478538,0.0,0.0,nan,0.0,0.0,0.27716193,0.0,0.0,0.0,0.0,0.0,0.0,0.0,0.0
476528506,476528107,0.0,0.0,0.0,0.028909916,0.0,0.0,0.0,0.0,0.0,0.0,0.0,0.0,0.0,0.0029146294,0.0,0.0,nan,0.0,0.0,0.5695627,0.0,0.0,0.0,0.0,0.0,0.0,0.0,0.0
477034416,477032970,0.0,0.0,0.0,0.02957441,0.0,0.0,0.0,0.0,0.0,0.0,0.0,0.0,0.0,0.002207575,0.0,0.0,nan,0.0,0.0,0.8158242,0.0,0.0,0.0,0.0,0.0,0.0,0.0,0.0
477533864,477533480,0.0,0.0,0.0,0.030714018,0.0,0.0,0.0,0.0,0.0,0.0,0.0,0.0,0.0,0.0033764222,0.0,0.0,nan,0.0,0.0,0.6234257,0.0,0.0,0.0,0.0,0.0,0.0,0.0,0.0
478034204,478033563,0.0,0.0,0.0,0.03134441,0.0,0.0,0.0,0.0,0.0,0.0,0.0,0.0,0.0,0.0041847597,0.0,0.0,nan,0.0,0.0,0.13202949,0.0,0.0,0.0,0.0,0.0,0.0,0.0,0.0
478529930,478529552,0.0,0.0,0.0,0.031057706,0.0,0.0,0.0,0.0,0.0,0.0,0.0,0.0,0.0,0.0031817497,0.0,0.0,nan,0.0,0.0,0.020436933,0.0,0.0,0.0,0.0,0.0,0.0,0.0,0.0
479039326,479038841,0.0,0.0,0.0,0.029174343,0.0,0.0,0.0,0.0,0.0,0.0,0.0,0.0,0.0,0.0019887623,0.0,0.0,nan,0.0,0.0,0.10768637,0.0,0.0,0.0,0.0,0.0,0.0,0.0,0.0
479539885,479539062,0.0,0.0,0.0,0.027243141,0.0,0.0,0.0,0.0,0.0,0.0,0.0,0.0,0.0,0.0009858912,0.0,0.0,nan,0.0,0.0,0.23041128,0.0,0.0,0.0,0.0,0.0,0.0,0.0,0.0
480035683,480035001,0.0,0.0,0.0,0.023677198,0.0,0.0,0.0,0.0,0.0,0.0,0.0,0.0,0.0,0.0011776064,0.0,0.0,nan,0.0,0.0,0.23912616,0.0,0.0,0.0,0.0,0.0,0.0,0.0,0.0
480531186,480530677,0.0,0.0,0.0,0.021431886,0.0,0.0,0.0,0.0,0.0,0.0,0.0,0.0,0.0,7.438885e-05,0.0,0.0,nan,0.0,0.0,0.088383935,0.0,0.0,0.0,0.0,0.0,0.0,0.0,0.0
481031574,481031025,0.0,0.0,0.0,0.01930312,0.0,0.0,0.0,0.0,0.0,0.0,0.0,0.0,0.0,1.1998719e-10,0.0,0.0,nan,0.0,0.0,0.079431914,0.0,0.0,0.0,0.0,0.0,0.0,0.0,0.0
481536132,481535769,0.0,0.0,0.0,0.016206501,0.0,0.0,0.0,0.0,0.0,0.0,0.0,0.0,0.0,0.0002455499,0.0,0.0,nan,0.0,0.0,0.005618811,0.0,0.0,0.0,0.0,0.0,0.0,0.0,0.0
482036467,482036087,0.0,0.0,0.0,0.014408279,0.0,0.0,0.0,0.0,0.0,0.0,0.0,0.0,0.0,0.00014926946,0.0,0.0,nan,0.0,0.0,0.026745787,0.0,0.0,0.0,0.0,0.0,0.0,0.0,0.0
482536942,482536448,0.0,0.0,0.0,0.0122503145,0.0,0.0,0.0,0.0,0.0,0.0,0.0,0.0,0.0,0.00041280358,0.0,0.0,nan,0.0,0.0,0.011316096,0.0,0.0,0.0,0.0,0.0,0.0,0.0,0.0
483032823,483032252,0.0,0.0,0.0,0.010930556,0.0,0.0,0.0,0.0,0.0,0.0,0.0,0.0,0.0,0.0009194245,0.0,0.0,nan,0.0,0.0,0.12099161,0.0,0.0,0.0,0.0,0.0,0.0,0.0,0.0
483537748,483537029,0.0,0.0,0.0,0.009730546,0.0,0.0,0.0,0.0,0.0,0.0,0.0,0.0,0.0,8.738717e-05,0.0,0.0,nan,0.0,0.0,0.050978493,0.0,0.0,0.0,0.0,0.0,0.0,0.0,0.0
484033685,484033045,0.0,0.0,0.0,0.008116908,0.0,0.0,0.0,0.0,0.0,0.0,0.0,0.0,0.0,0.00056233094,0.0,0.0,nan,0.0,0.0,0.016859205,0.0,0.0,0.0,0.0,0.0,0.0,0.0,0.0
484533923,484533152,0.0,0.0,0.0,0.0073225074,0.0,0.0,0.0,0.0,0.0,0.0,0.0,0.0,0.0,0.0005570855,0.0,0.0,nan,0.0,0.0,3.452484e-05,0.0,0.0,0.0,0.0,0.0,0.0,0.0,0.0
485038407,485038020,0.0,0.0,0.0,0.00612762,0.0,0.0,0.0,0.0,0.0,0.0,0.0,0.0,0.0,0.0009403565,0.0,0.0,nan,0.0,0.0,0.035316635,0.0,0.0,0.0,0.0,0.0,0.0,0.0,0.0
485538943,485538387,0.0,0.0,0.0,0.0052453117,0.0,0.0,0.0,0.0,0.0,0.0,0.0,0.0,0.0,0.0013626784,0.0,0.0,nan,0.0,0.0,0.03549944,0.0,0.0,0.0,0.0,0.0,0.0,0.0,0.0
486039336,486038604,0.0,0.0,0.0,0.004675606,0.0,0.0,0.0,0.0,0.0,0.0,0.0,0.0,0.0,0.0009895765,0.0,0.0,nan,0.0,0.0,0.021376444,0.0,0.0,0.0,0.0,0.0,0.0,0.0,0.0
