timestamp,timestamp_last_signal,rssi,rc_lost_frame_count,rc_total_frame_count,rc_ppm_frame_length,values[0],values[1],values[2],values[3],values[4],values[5],values[6],values[7],values[8],values[9],values[10],values[11],values[12],values[13],values[14],values[15],values[16],values[17],channel_count,rc_failsafe,rc_lost,input_source
293533613,293533613,41,0,0,0,1495,1496,1065,1932,1933,1933,1065,1153,1065,1057,1542,1542,1514,1514,1514,1514,998,998,18,0,0,4
293555856,293555856,41,0,0,0,1495,1496,1065,1932,1933,1933,1065,1153,1065,1057,1542,1542,1514,1514,1514,1514,998,998,18,0,0,4
294032857,294032857,41,0,0,0,1495,1497,1065,1498,1933,1933,1065,1153,1065,1057,1542,1542,1514,1514,1514,1514,998,998,18,0,0,4
294523479,294523479,41,0,0,0,1495,1496,1098,1498,1933,1933,1065,1153,1065,1057,1542,1542,1514,1514,1514,1514,998,998,18,0,0,4
295036009,295036009,41,0,0,0,1495,1497,1124,1498,1933,1933,1065,1153,1065,1057,1542,1542,1514,1514,1514,1514,998,998,18,0,0,4
295531661,295531661,41,0,0,0,1495,1496,1147,1498,1933,1933,1065,1153,1065,1057,1542,1542,1514,1514,1514,1514,998,998,18,0,0,4
296031907,296031907,41,0,0,0,1495,1495,1168,1498,1933,1933,1065,1153,1065,1057,1542,1542,1514,1514,1514,1514,998,998,18,0,0,4
296530517,296530517,41,0,0,0,1497,1480,1182,1498,1933,1933,1065,1153,1065,1057,1542,1542,1514,1514,1514,1514,998,998,18,0,0,4
297029808,297029808,41,0,0,0,1496,1495,1188,1498,1933,1933,1065,1153,1065,1057,1542,1542,1514,1514,1514,1514,998,998,18,0,0,4
297530382,297530382,41,0,0,0,1498,1488,1210,1498,1933,1933,1065,1153,1065,1057,1542,1542,1514,1514,1514,1514,998,998,18,0,0,4
298035638,298035638,41,0,0,0,1520,1489,1203,1498,1933,1933,1065,1153,1065,1057,1542,1542,1514,1514,1514,1514,998,998,18,0,0,4
298528501,298528501,41,0,0,0,1540,1465,1203,1498,1933,1933,1065,1153,1065,1057,1542,1542,1514,1514,1514,1514,998,998,18,0,0,4
299027575,299027575,41,0,0,0,1503,1415,1177,1498,1933,1933,1065,1153,1065,1057,1542,1542,1514,1514,1514,1514,998,998,18,0,0,4
299523625,299523625,41,0,0,0,1556,1407,1194,1498,1933,1933,1065,1153,1065,1057,1542,1542,1514,1514,1514,1514,998,998,18,0,0,4
300020609,300020609,41,0,0,0,1496,1430,1211,1498,1933,1933,1065,1153,1065,1057,1542,1542,1514,1514,1514,1514,998,998,18,0,0,4
300520035,300520035,41,0,0,0,1527,1423,1203,1498,1933,1933,1065,1153,1065,1057,1542,1542,1514,1514,1514,1514,998,998,18,0,0,4
301023492,301023492,41,0,0,0,1511,1433,1199,1498,1933,1933,1065,1153,1065,1057,1542,1542,1514,1514,1514,1514,998,998,18,0,0,4
301518378,301518378,41,0,0,0,1530,1485,1202,1498,1933,1933,1065,1153,1065,1057,1542,1542,1514,1514,1514,1514,998,998,18,0,0,4
302016469,302016469,41,0,0,0,1494,1496,1202,1498,1933,1933,1065,1153,1065,1057,1542,1542,1514,1514,1514,1514,998,998,18,0,0,4
302517003,302517003,41,0,0,0,1468,1499,1204,1498,1933,1933,1065,1153,1065,1057,1542,1542,1514,1514,1514,1514,998,998,18,0,0,4
303032305,303032305,41,0,0,0,1496,1496,1199,1499,1933,1933,1065,1153,1065,1057,1542,1542,1514,1514,1514,1514,998,998,18,0,0,4
303527753,303527753,41,0,0,0,1497,1475,1215,1500,1933,1933,1065,1153,1065,1057,1542,1542,1514,1514,1514,1514,998,998,18,0,0,4
304027143,304027143,41,0,0,0,1496,1444,1201,1503,1933,1933,1065,1153,1065,1057,1542,1542,1514,1514,1514,1514,998,998,18,0,0,4
304531542,304531542,41,0,0,0,1496,1452,1201,1507,1933,1933,1065,1153,1065,1057,1542,1542,1514,1514,1514,1514,998,998,18,0,0,4
305022852,305022852,41,0,0,0,1496,1460,1214,1550,1933,1933,1065,1153,1065,1057,1542,1542,1514,1514,1514,1514,998,998,18,0,0,4
305524086,305524086,41,0,0,0,1498,1458,1194,1498,1933,1933,1065,1153,1065,1057,1542,1542,1514,1514,1514,1514,998,998,18,0,0,4
306022759,306022759,41,0,0,0,1498,1467,1220,1498,1933,1933,1065,1153,1065,1057,1542,1542,1514,1514,1514,1514,998,998,18,0,0,4
306523635,306523635,41,0,0,0,1498,1456,1203,1504,1933,1933,1065,1153,1065,1057,1542,1542,1514,1514,1514,1514,998,998,18,0,0,4
307027123,307027123,41,0,0,0,1486,1463,1208,1525,1933,1933,1065,1153,1065,1057,1542,1542,1514,1514,1514,1514,998,998,18,0,0,4
307528808,307528808,41,0,0,0,1495,1439,1206,1522,1933,1933,1065,1153,1065,1057,1542,1542,1514,1514,1514,1514,998,998,18,0,0,4
308025413,308025413,41,0,0,0,1497,1418,1218,1503,1933,1933,1065,1153,1065,1057,1542,1542,1514,1514,1514,1514,998,998,18,0,0,4
308519988,308519988,41,0,0,0,1497,1415,1189,1498,1933,1933,1065,1153,1065,1057,1542,1542,1514,1514,1514,1514,998,998,18,0,0,4
309023443,309023443,41,0,0,0,1497,1410,1198,1498,1933,1933,1065,1153,1065,1057,1542,1542,1514,1514,1514,1514,998,998,18,0,0,4
309536109,309536109,41,0,0,0,1497,1411,1215,1498,1933,1933,1065,1153,1065,1057,1542,1542,1514,1514,1514,1514,998,998,18,0,0,4
310035943,310035943,41,0,0,0,1498,1422,1204,1518,1933,1933,1065,1153,1065,1057,1542,1542,1514,1514,1514,1514,998,998,18,0,0,4
310535151,310535151,41,0,0,0,1498,1431,1202,1510,1933,1933,1065,1153,1065,1057,1542,1542,1514,1514,1514,1514,998,998,18,0,0,4
311035704,311035704,41,0,0,0,1513,1422,1218,1532,1933,1933,1065,1153,1065,1057,1542,1542,1514,1514,1514,1514,998,998,18,0,0,4
312027570,312027570,41,0,0,0,1500,1428,1185,1504,1933,1933,1065,1153,1065,1057,1542,1542,1514,1514,1514,1514,998,998,18,0,0,4
312523520,312523520,41,0,0,0,1521,1423,1206,1510,1933,1933,1065,1153,1065,1057,1542,1542,1514,1514,1514,1514,998,998,18,0,0,4
313031533,313031533,41,0,0,0,1522,1429,1214,1519,1933,1933,1065,1153,1065,1057,1542,1542,1514,1514,1514,1514,998,998,18,0,0,4
313527757,313527757,41,0,0,0,1508,1440,1199,1499,1933,1933,1065,1153,1065,1057,1542,1542,1514,1514,1514,1514,998,998,18,0,0,4
314028631,314028631,41,0,0,0,1502,1453,1219,1497,1933,1933,1065,1153,1065,1057,1542,1542,1514,1514,1514,1514,998,998,18,0,0,4
314525291,314525291,41,0,0,0,1497,1445,1207,1498,1933,1933,1065,1153,1065,1057,1542,1542,1514,1514,1514,1514,998,998,18,0,0,4
315025277,315025277,41,0,0,0,1496,1444,1208,1498,1933,1933,1065,1153,1065,1057,1542,1542,1514,1514,1514,1514,998,998,18,0,0,4
315524835,315524835,41,0,0,0,1455,1455,1213,1498,1933,1933,1065,1153,1065,1057,1542,1542,1514,1514,1514,1514,998,998,18,0,0,4
316025657,316025657,41,0,0,0,1460,1452,1207,1498,1933,1933,1065,1153,1065,1057,1542,1542,1514,1514,1514,1514,998,998,18,0,0,4
316522776,316522776,41,0,0,0,1497,1426,1228,1498,1933,1933,1065,1153,1065,1057,1542,1542,1514,1514,1514,1514,998,998,18,0,0,4
317022298,317022298,41,0,0,0,1513,1444,1187,1498,1933,1933,1065,1153,1065,1057,1542,1542,1514,1514,1514,1514,998,998,18,0,0,4
317518590,317518590,41,0,0,0,1530,1440,1212,1498,1933,1933,1065,1153,1065,1057,1542,1542,1514,1514,1514,1514,998,998,18,0,0,4
318037852,318037852,41,0,0,0,1523,1432,1221,1497,1933,1933,1065,1153,1065,1057,1542,1542,1514,1514,1514,1514,998,998,18,0,0,4
318516011,318516011,41,0,0,0,1520,1425,1203,1497,1933,1933,1065,1153,1065,1057,1542,1542,1514,1514,1514,1514,998,998,18,0,0,4
319035269,319035269,41,0,0,0,1509,1422,1188,1497,1933,1933,1065,1153,1065,1057,1542,1542,1514,1514,1514,1514,998,998,18,0,0,4
319531153,319531153,41,0,0,0,1505,1419,1205,1497,1933,1933,1065,1153,1065,1057,1542,1542,1514,1514,1514,1514,998,998,18,0,0,4
320022911,320022911,41,0,0,0,1502,1420,1210,1497,1933,1933,1065,1153,1065,1057,1542,1542,1514,1514,1514,1514,998,998,18,0,0,4
320536712,320536712,41,0,0,0,1501,1418,1195,1484,1933,1933,1065,1153,1065,1057,1542,1542,1514,1514,1514,1514,998,998,18,0,0,4
321033703,321033703,41,0,0,0,1495,1426,1207,1467,1933,1933,1065,1153,1065,1057,1542,1542,1514,1514,1514,1514,998,998,18,0,0,4
321529590,321529590,41,0,0,0,1498,1431,1203,1483,1933,1933,1065,1153,1065,1057,1542,1542,1514,1514,1514,1514,998,998,18,0,0,4
322028838,322028838,41,0,0,0,1495,1437,1191,1497,1933,1933,1065,1153,1065,1057,1542,1542,1514,1514,1514,1514,998,998,18,0,0,4
322528542,322528542,41,0,0,0,1497,1440,1214,1493,1933,1933,1065,1153,1065,1057,1542,1542,1514,1514,1514,1514,998,998,18,0,0,4
323024808,323024808,41,0,0,0,1498,1433,1182,1473,1933,1933,1065,1153,1065,1057,1542,1542,1514,1514,1514,1514,998,998,18,0,0,4
323518181,323518181,41,0,0,0,1497,1427,1207,1482,1933,1933,1065,1153,1065,1057,1542,1542,1514,1514,1514,1514,998,998,18,0,0,4
324016496,324016496,41,0,0,0,1502,1437,1219,1493,1933,1933,1065,1153,1065,1057,1542,1542,1514,1514,1514,1514,998,998,18,0,0,4
324517468,324517468,41,0,0,0,1519,1434,1207,1492,1933,1933,1065,1153,1065,1057,1542,1542,1514,1514,1514,1514,998,998,18,0,0,4
325038294,325038294,41,0,0,0,1522,1428,1203,1491,1933,1933,1065,1153,1065,1057,1542,1542,1514,1514,1514,1514,998,998,18,0,0,4
325515952,325515952,41,0,0,0,1528,1436,1210,1492,1933,1933,1065,1153,1065,1057,1542,1542,1514,1514,1514,1514,998,998,18,0,0,4
326025813,326025813,41,0,0,0,1505,1432,1203,1492,1933,1933,1065,1153,1065,1057,1542,1542,1514,1514,1514,1514,998,998,18,0,0,4
326528332,326528332,41,0,0,0,1521,1423,1185,1496,1933,1933,1065,1153,1065,1057,1542,1542,1514,1514,1514,1514,998,998,18,0,0,4
327027584,327027584,41,0,0,0,1518,1429,1218,1497,1933,1933,1065,1153,1065,1057,1542,1542,1514,1514,1514,1514,998,998,18,0,0,4
327521351,327521351,41,0,0,0,1533,1422,1200,1493,1933,1933,1065,1153,1065,1057,1542,1542,1514,1514,1514,1514,998,998,18,0,0,4
328037867,328037867,41,0,0,0,1530,1422,1205,1497,1933,1933,1065,1153,1065,1057,1542,1542,1514,1514,1514,1514,998,998,18,0,0,4
328533707,328533707,41,0,0,0,1522,1432,1215,1497,1933,1933,1065,1153,1065,1057,1542,1542,1514,1514,1514,1514,998,998,18,0,0,4
329012794,329012794,41,0,0,0,1421,1472,1206,1497,1933,1933,1065,1153,1065,1057,1542,1542,1514,1514,1514,1514,998,998,18,0,0,4
329530318,329530318,41,0,0,0,1498,1441,1202,1494,1933,1933,1065,1153,1065,1057,1542,1542,1514,1514,1514,1514,998,998,18,0,0,4
330025152,330025152,41,0,0,0,1497,1437,1227,1496,1933,1933,1065,1153,1065,1057,1542,1542,1514,1514,1514,1514,998,998,18,0,0,4
330524733,330524733,41,0,0,0,1513,1429,1209,1497,1933,1933,1065,1153,1065,1057,1542,1542,1514,1514,1514,1514,998,998,18,0,0,4
331022589,331022589,41,0,0,0,1498,1433,1184,1497,1933,1933,1065,1153,1065,1057,1542,1542,1514,1514,1514,1514,998,998,18,0,0,4
331519365,331519365,41,0,0,0,1527,1433,1207,1493,1933,1933,1065,1153,1065,1057,1542,1542,1514,1514,1514,1514,998,998,18,0,0,4
332020159,332020159,41,0,0,0,1498,1440,1222,1498,1933,1933,1065,1153,1065,1057,1542,1542,1514,1514,1514,1514,998,998,18,0,0,4
332523029,332523029,41,0,0,0,1522,1423,1205,1497,1933,1933,1065,1153,1065,1057,1542,1542,1514,1514,1514,1514,998,998,18,0,0,4
333020816,333020816,41,0,0,0,1498,1437,1209,1495,1933,1933,1065,1153,1065,1057,1542,1542,1514,1514,1514,1514,998,998,18,0,0,4
333529352,333529352,41,0,0,0,1508,1428,1199,1492,1933,1933,1065,1153,1065,1057,1542,1542,1514,1514,1514,1514,998,998,18,0,0,4
334009825,334009825,41,0,0,0,1497,1438,1202,1463,1933,1933,1065,1153,1065,1057,1542,1542,1514,1514,1514,1514,998,998,18,0,0,4
334533211,334533211,41,0,0,0,1508,1439,1218,1475,1933,1933,1065,1153,1065,1057,1542,1542,1514,1514,1514,1514,998,998,18,0,0,4
335026089,335026089,41,0,0,0,1525,1445,1183,1492,1933,1933,1065,1153,1065,1057,1542,1542,1514,1514,1514,1514,998,998,18,0,0,4
335519108,335519108,41,0,0,0,1507,1461,1236,1498,1933,1933,1065,1153,1065,1057,1542,1542,1514,1514,1514,1514,998,998,18,0,0,4
336021214,336021214,41,0,0,0,1503,1446,1179,1498,1933,1933,1065,1153,1065,1057,1542,1542,1514,1514,1514,1514,998,998,18,0,0,4
336518950,336518950,41,0,0,0,1519,1437,1196,1497,1933,1933,1065,1153,1065,1057,1542,1542,1514,1514,1514,1514,998,998,18,0,0,4
337035797,337035797,41,0,0,0,1503,1437,1207,1497,1933,1933,1065,1153,1065,1057,1542,1542,1514,1514,1514,1514,998,998,18,0,0,4
337535145,337535145,41,0,0,0,1509,1432,1232,1497,1933,1933,1065,1153,1065,1057,1542,1542,1514,1514,1514,1514,998,998,18,0,0,4
338035364,338035364,41,0,0,0,1513,1438,1206,1497,1933,1933,1065,1153,1065,1057,1542,1542,1514,1514,1514,1514,998,998,18,0,0,4
338537469,338537469,41,0,0,0,1512,1445,1208,1497,1933,1933,1065,1153,1065,1057,1542,1542,1514,1514,1514,1514,998,998,18,0,0,4
339012956,339012956,41,0,0,0,1495,1431,1207,1493,1933,1933,1065,1153,1065,1057,1542,1542,1514,1514,1514,1514,998,998,18,0,0,4
339513877,339513877,41,0,0,0,1495,1435,1220,1492,1933,1933,1065,1153,1065,1057,1542,1542,1514,1514,1514,1514,998,998,18,0,0,4
340030582,340030582,41,0,0,0,1495,1408,1188,1497,1933,1933,1065,1153,1065,1057,1542,1542,1514,1514,1514,1514,998,998,18,0,0,4
340531241,340531241,41,0,0,0,1497,1402,1245,1497,1933,1933,1065,1153,1065,1057,1542,1542,1514,1514,1514,1514,998,998,18,0,0,4
341031293,341031293,41,0,0,0,1496,1421,1206,1497,1933,1933,1065,1153,1065,1057,1542,1542,1514,1514,1514,1514,998,998,18,0,0,4
341528641,341528641,41,0,0,0,1497,1443,1182,1498,1933,1933,1065,1153,1065,1057,1542,1542,1514,1514,1514,1514,998,998,18,0,0,4
342024941,342024941,41,0,0,0,1510,1425,1204,1495,1933,1933,1065,1153,1065,1057,1542,1542,1514,1514,1514,1514,998,998,18,0,0,4
342523151,342523151,41,0,0,0,1506,1433,1206,1498,1933,1933,1065,1153,1065,1057,1542,1542,1514,1514,1514,1514,998,998,18,0,0,4
343021371,343021371,41,0,0,0,1497,1428,1203,1498,1933,1933,1065,1153,1065,1057,1542,1542,1514,1514,1514,1514,998,998,18,0,0,4
343519495,343519495,41,0,0,0,1496,1415,1213,1498,1933,1933,1065,1153,1065,1057,1542,1542,1514,1514,1514,1514,998,998,18,0,0,4
344020160,344020160,41,0,0,0,1497,1415,1185,1498,1933,1933,1065,1153,1065,1057,1542,1542,1514,1514,1514,1514,998,998,18,0,0,4
344520640,344520640,41,0,0,0,1496,1417,1206,1498,1933,1933,1065,1153,1065,1057,1542,1542,1514,1514,1514,1514,998,998,18,0,0,4
345021139,345021139,41,0,0,0,1496,1429,1208,1498,1933,1933,1065,1153,1065,1057,1542,1542,1514,1514,1514,1514,998,998,18,0,0,4
345523919,345523919,41,0,0,0,1507,1413,1204,1498,1933,1933,1065,1153,1065,1057,1542,1542,1514,1514,1514,1514,998,998,18,0,0,4
346019436,346019436,41,0,0,0,1497,1413,1207,1497,1933,1933,1065,1153,1065,1057,1542,1542,1514,1514,1514,1514,998,998,18,0,0,4
346535609,346535609,41,0,0,0,1497,1413,1234,1498,1933,1933,1065,1153,1065,1057,1542,1542,1514,1514,1514,1514,998,998,18,0,0,4
347031583,347031583,41,0,0,0,1518,1419,1206,1497,1933,1933,1065,1153,1065,1057,1542,1542,1514,1514,1514,1514,998,998,18,0,0,4
347530130,347530130,41,0,0,0,1534,1430,1220,1497,1933,1933,1065,1153,1065,1057,1542,1542,1514,1514,1514,1514,998,998,18,0,0,4
348019454,348019454,41,0,0,0,1545,1430,1223,1498,1933,1933,1065,1153,1065,1057,1542,1542,1514,1514,1514,1514,998,998,18,0,0,4
348517497,348517497,41,0,0,0,1508,1408,1206,1497,1933,1933,1065,1153,1065,1057,1542,1542,1514,1514,1514,1514,998,998,18,0,0,4
349034162,349034162,41,0,0,0,1505,1408,1191,1493,1933,1933,1065,1153,1065,1057,1542,1542,1514,1514,1514,1514,998,998,18,0,0,4
349524762,349524762,41,0,0,0,1501,1402,1219,1496,1933,1933,1065,1153,1065,1057,1542,1542,1514,1514,1514,1514,998,998,18,0,0,4
350027735,350027735,41,0,0,0,1503,1401,1220,1493,1933,1933,1065,1153,1065,1057,1542,1542,1514,1514,1514,1514,998,998,18,0,0,4
350527048,350527048,41,0,0,0,1493,1412,1202,1498,1933,1933,1065,1153,1065,1057,1542,1542,1514,1514,1514,1514,998,998,18,0,0,4
351022580,351022580,41,0,0,0,1497,1406,1214,1498,1933,1933,1065,1153,1065,1057,1542,1542,1514,1514,1514,1514,998,998,18,0,0,4
351521870,351521870,41,0,0,0,1497,1415,1230,1505,1933,1933,1065,1153,1065,1057,1542,1542,1514,1514,1514,1514,998,998,18,0,0,4
352018163,352018163,41,0,0,0,1494,1433,1199,1524,1933,1933,1065,1153,1065,1057,1542,1542,1514,1514,1514,1514,998,998,18,0,0,4
352530566,352530566,41,0,0,0,1496,1482,1193,1498,1933,1933,1065,1153,1065,1057,1542,1542,1514,1514,1514,1514,998,998,18,0,0,4
353029864,353029864,41,0,0,0,1498,1452,1212,1505,1933,1933,1065,1153,1065,1057,1542,1542,1514,1514,1514,1514,998,998,18,0,0,4
353529120,353529120,41,0,0,0,1499,1456,1205,1501,1933,1933,1065,1153,1065,1057,1542,1542,1514,1514,1514,1514,998,998,18,0,0,4
354027243,354027243,41,0,0,0,1512,1472,1206,1520,1933,1933,1065,1153,1065,1057,1542,1542,1514,1514,1514,1514,998,998,18,0,0,4
354527900,354527900,41,0,0,0,1514,1456,1218,1526,1933,1933,1065,1153,1065,1057,1542,1542,1514,1514,1514,1514,998,998,18,0,0,4
355025329,355025329,41,0,0,0,1522,1442,1202,1535,1933,1933,1065,1153,1065,1057,1542,1542,1514,1514,1514,1514,998,998,18,0,0,4
355523643,355523643,41,0,0,0,1554,1453,1214,1498,1933,1933,1065,1153,1065,1057,1542,1542,1514,1514,1514,1514,998,998,18,0,0,4
356029446,356029446,41,0,0,0,1537,1433,1208,1500,1933,1933,1065,1153,1065,1057,1542,1542,1514,1514,1514,1514,998,998,18,0,0,4
356523274,356523274,41,0,0,0,1533,1431,1196,1498,1933,1933,1065,1153,1065,1057,1542,1542,1514,1514,1514,1514,998,998,18,0,0,4
357021258,357021258,41,0,0,0,1497,1431,1194,1492,1933,1933,1065,1153,1065,1057,1542,1542,1514,1514,1514,1514,998,998,18,0,0,4
357520108,357520108,41,0,0,0,1496,1433,1222,1490,1933,1933,1065,1153,1065,1057,1542,1542,1514,1514,1514,1514,998,998,18,0,0,4
358014813,358014813,41,0,0,0,1495,1433,1218,1491,1933,1933,1065,1153,1065,1057,1542,1542,1514,1514,1514,1514,998,998,18,0,0,4
358534212,358534212,41,0,0,0,1495,1424,1203,1486,1933,1933,1065,1153,1065,1057,1542,1542,1514,1514,1514,1514,998,998,18,0,0,4
359035625,359035625,41,0,0,0,1495,1413,1192,1478,1933,1933,1065,1153,1065,1057,1542,1542,1514,1514,1514,1514,998,998,18,0,0,4
359535872,359535872,41,0,0,0,1495,1411,1228,1490,1933,1933,1065,1153,1065,1057,1542,1542,1514,1514,1514,1514,998,998,18,0,0,4
360032662,360032662,41,0,0,0,1495,1408,1215,1486,1933,1933,1065,1153,1065,1057,1542,1542,1514,1514,1514,1514,998,998,18,0,0,4
360532975,360532975,41,0,0,0,1452,1433,1202,1480,1933,1933,1065,1153,1065,1057,1542,1542,1514,1514,1514,1514,998,998,18,0,0,4
361025520,361025520,41,0,0,0,1485,1420,1231,1465,1933,1933,1065,1153,1065,1057,1542,1542,1514,1514,1514,1514,998,998,18,0,0,4
361520876,361520876,41,0,0,0,1478,1415,1192,1493,1933,1933,1065,1153,1065,1057,1542,1542,1514,1514,1514,1514,998,998,18,0,0,4
362020193,362020193,41,0,0,0,1464,1418,1230,1473,1933,1933,1065,1153,1065,1057,1542,1542,1514,1514,1514,1514,998,998,18,0,0,4
362525379,362525379,41,0,0,0,1446,1420,1221,1467,1933,1933,1065,1153,1065,1057,1542,1542,1514,1514,1514,1514,998,998,18,0,0,4
363032498,363032498,41,0,0,0,1403,1487,1208,1450,1933,1933,1065,1153,1065,1057,1542,1542,1514,1514,1514,1514,998,998,18,0,0,4
363522549,363522549,41,0,0,0,1498,1463,1190,1442,1933,1933,1065,1153,1065,1057,1542,1542,1514,1514,1514,1514,998,998,18,0,0,4
364033665,364033665,41,0,0,0,1497,1413,1199,1463,1933,1933,1065,1153,1065,1057,1542,1542,1514,1514,1514,1514,998,998,18,0,0,4
364528880,364528880,41,0,0,0,1479,1433,1207,1461,1933,1933,1065,1153,1065,1057,1542,1542,1514,1514,1514,1514,998,998,18,0,0,4
365030539,365030539,41,0,0,0,1412,1478,1209,1460,1933,1933,1065,1153,1065,1057,1542,1542,1514,1514,1514,1514,998,998,18,0,0,4
365512634,365512634,41,0,0,0,1498,1447,1217,1443,1933,1933,1065,1153,1065,1057,1542,1542,1514,1514,1514,1514,998,998,18,0,0,4
366015387,366015387,41,0,0,0,1496,1440,1207,1472,1933,1933,1065,1153,1065,1057,1542,1542,1514,1514,1514,1514,998,998,18,0,0,4
366519973,366519973,41,0,0,0,1498,1456,1234,1458,1933,1933,1065,1153,1065,1057,1542,1542,1514,1514,1514,1514,998,998,18,0,0,4
367019272,367019272,41,0,0,0,1487,1439,1202,1442,1933,1933,1065,1153,1065,1057,1542,1542,1514,1514,1514,1514,998,998,18,0,0,4
368021934,368021934,41,0,0,0,1495,1439,1207,1440,1933,1933,1065,1153,1065,1057,1542,1542,1514,1514,1514,1514,998,998,18,0,0,4
368522704,368522704,41,0,0,0,1526,1468,1205,1458,1933,1933,1065,1153,1065,1057,1542,1542,1514,1514,1514,1514,998,998,18,0,0,4
369020529,369020529,41,0,0,0,1494,1437,1220,1444,1933,1933,1065,1153,1065,1057,1542,1542,1514,1514,1514,1514,998,998,18,0,0,4
369535770,369535770,41,0,0,0,1433,1453,1205,1443,1933,1933,1065,1153,1065,1057,1542,1542,1514,1514,1514,1514,998,998,18,0,0,4
370021854,370021854,41,0,0,0,1496,1413,1183,1460,1933,1933,1065,1153,1065,1057,1542,1542,1514,1514,1514,1514,998,998,18,0,0,4
370518972,370518972,41,0,0,0,1496,1433,1212,1478,1933,1933,1065,1153,1065,1057,1542,1542,1514,1514,1514,1514,998,998,18,0,0,4
371033111,371033111,41,0,0,0,1497,1456,1204,1523,1933,1933,1065,1153,1065,1057,1542,1542,1514,1514,1514,1514,998,998,18,0,0,4
371530868,371530868,41,0,0,0,1497,1459,1235,1507,1933,1933,1065,1153,1065,1057,1542,1542,1514,1514,1514,1514,998,998,18,0,0,4
372026846,372026846,41,0,0,0,1523,1444,1205,1498,1933,1933,1065,1153,1065,1057,1542,1542,1514,1514,1514,1514,998,998,18,0,0,4
372521683,372521683,41,0,0,0,1535,1444,1204,1509,1933,1933,1065,1153,1065,1057,1542,1542,1514,1514,1514,1514,998,998,18,0,0,4
373027142,373027142,41,0,0,0,1554,1448,1207,1502,1933,1933,1065,1153,1065,1057,1542,1542,1514,1514,1514,1514,998,998,18,0,0,4
373523272,373523272,41,0,0,0,1535,1436,1230,1498,1933,1933,1065,1153,1065,1057,1542,1542,1514,1514,1514,1514,998,998,18,0,0,4
374029553,374029553,41,0,0,0,1509,1460,1195,1497,1933,1933,1065,1153,1065,1057,1542,1542,1514,1514,1514,1514,998,998,18,0,0,4
374515212,374515212,41,0,0,0,1524,1468,1214,1499,1933,1933,1065,1153,1065,1057,1542,1542,1514,1514,1514,1514,998,998,18,0,0,4
375014583,375014583,41,0,0,0,1495,1486,1215,1534,1933,1933,1065,1153,1065,1057,1542,1542,1514,1514,1514,1514,998,998,18,0,0,4
375517319,375517319,41,0,0,0,1501,1475,1220,1512,1933,1933,1065,1153,1065,1057,1542,1542,1514,1514,1514,1514,998,998,18,0,0,4
376032081,376032081,41,0,0,0,1538,1475,1210,1501,1933,1933,1065,1153,1065,1057,1542,1542,1514,1514,1514,1514,998,998,18,0,0,4
376527300,376527300,41,0,0,0,1548,1487,1215,1498,1933,1933,1065,1153,1065,1057,1542,1542,1514,1514,1514,1514,998,998,18,0,0,4
377029877,377029877,41,0,0,0,1553,1447,1213,1500,1933,1933,1065,1153,1065,1057,1542,1542,1514,1514,1514,1514,998,998,18,0,0,4
377519025,377519025,41,0,0,0,1545,1448,1225,1498,1933,1933,1065,1153,1065,1057,1542,1542,1514,1514,1514,1514,998,998,18,0,0,4
378019079,378019079,41,0,0,0,1523,1423,1195,1498,1933,1933,1065,1153,1065,1057,1542,1542,1514,1514,1514,1514,998,998,18,0,0,4
378533308,378533308,41,0,0,0,1538,1421,1222,1498,1933,1933,1065,1153,1065,1057,1542,1542,1514,1514,1514,1514,998,998,18,0,0,4
379035897,379035897,41,0,0,0,1512,1441,1228,1503,1933,1933,1065,1153,1065,1057,1542,1542,1514,1514,1514,1514,998,998,18,0,0,4
379517468,379517468,41,0,0,0,1497,1441,1212,1508,1933,1933,1065,1153,1065,1057,1542,1542,1514,1514,1514,1514,998,998,18,0,0,4
380018046,380018046,41,0,0,0,1497,1445,1216,1499,1933,1933,1065,1153,1065,1057,1542,1542,1514,1514,1514,1514,998,998,18,0,0,4
380520625,380520625,41,0,0,0,1528,1453,1191,1498,1933,1933,1065,1153,1065,1057,1542,1542,1514,1514,1514,1514,998,998,18,0,0,4
381018908,381018908,41,0,0,0,1540,1446,1233,1498,1933,1933,1065,1153,1065,1057,1542,1542,1514,1514,1514,1514,998,998,18,0,0,4
381535558,381535558,41,0,0,0,1522,1462,1203,1498,1933,1933,1065,1153,1065,1057,1542,1542,1514,1514,1514,1514,998,998,18,0,0,4
382016301,382016301,41,0,0,0,1528,1451,1198,1499,1933,1933,1065,1153,1065,1057,1542,1542,1514,1514,1514,1514,998,998,18,0,0,4
382519705,382519705,41,0,0,0,1506,1448,1209,1498,1933,1933,1065,1153,1065,1057,1542,1542,1514,1514,1514,1514,998,998,18,0,0,4
383022249,383022249,41,0,0,0,1488,1441,1220,1502,1933,1933,1065,1153,1065,1057,1542,1542,1514,1514,1514,1514,998,998,18,0,0,4
383516534,383516534,41,0,0,0,1480,1450,1190,1498,1933,1933,1065,1153,1065,1057,1542,1542,1514,1514,1514,1514,998,998,18,0,0,4
384015961,384015961,41,0,0,0,1492,1465,1210,1512,1933,1933,1065,1153,1065,1057,1542,1542,1514,1514,1514,1514,998,998,18,0,0,4
384516275,384516275,41,0,0,0,1500,1456,1201,1507,1933,1933,1065,1153,1065,1057,1542,1542,1514,1514,1514,1514,998,998,18,0,0,4
385015614,385015614,41,0,0,0,1530,1459,1215,1543,1933,1933,1065,1153,1065,1057,1542,1542,1514,1514,1514,1514,998,998,18,0,0,4
385518659,385518659,41,0,0,0,1539,1440,1187,1513,1933,1933,1065,1153,1065,1057,1542,1542,1514,1514,1514,1514,998,998,18,0,0,4
386032015,386032015,41,0,0,0,1497,1440,1218,1498,1933,1933,1065,1153,1065,1057,1542,1542,1514,1514,1514,1514,998,998,18,0,0,4
386531313,386531313,41,0,0,0,1519,1423,1203,1497,1933,1933,1065,1153,1065,1057,1542,1542,1514,1514,1514,1514,998,998,18,0,0,4
387027084,387027084,41,0,0,0,1526,1403,1210,1497,1933,1933,1065,1153,1065,1057,1542,1542,1514,1514,1514,1514,998,998,18,0,0,4
387522343,387522343,41,0,0,0,1523,1402,1219,1498,1933,1933,1065,1153,1065,1057,1542,1542,1514,1514,1514,1514,998,998,18,0,0,4
388020189,388020189,41,0,0,0,1498,1402,1218,1498,1933,1933,1065,1153,1065,1057,1542,1542,1514,1514,1514,1514,998,998,18,0,0,4
388523893,388523893,41,0,0,0,1511,1391,1209,1498,1933,1933,1065,1153,1065,1057,1542,1542,1514,1514,1514,1514,998,998,18,0,0,4
389015059,389015059,41,0,0,0,1502,1412,1206,1497,1933,1933,1065,1153,1065,1057,1542,1542,1514,1514,1514,1514,998,998,18,0,0,4
389536009,389536009,41,0,0,0,1520,1405,1228,1497,1933,1933,1065,1153,1065,1057,1542,1542,1514,1514,1514,1514,998,998,18,0,0,4
390035639,390035639,41,0,0,0,1502,1409,1219,1498,1933,1933,1065,1153,1065,1057,1542,1542,1514,1514,1514,1514,998,998,18,0,0,4
390530738,390530738,41,0,0,0,1505,1437,1192,1497,1933,1933,1065,1153,1065,1057,1542,1542,1514,1514,1514,1514,998,998,18,0,0,4
391031073,391031073,41,0,0,0,1505,1438,1219,1497,1933,1933,1065,1153,1065,1057,1542,1542,1514,1514,1514,1514,998,998,18,0,0,4
391524932,391524932,41,0,0,0,1496,1467,1212,1498,1933,1933,1065,1153,1065,1057,1542,1542,1514,1514,1514,1514,998,998,18,0,0,4
392034569,392034569,41,0,0,0,1496,1447,1207,1498,1933,1933,1065,1153,1065,1057,1542,1542,1514,1514,1514,1514,998,998,18,0,0,4
392527944,392527944,41,0,0,0,1496,1447,1211,1504,1933,1933,1065,1153,1065,1057,1542,1542,1514,1514,1514,1514,998,998,18,0,0,4
393018392,393018392,41,0,0,0,1497,1433,1222,1501,1933,1933,1065,1153,1065,1057,1542,1542,1514,1514,1514,1514,998,998,18,0,0,4
393517317,393517317,41,0,0,0,1458,1443,1204,1530,1933,1933,1065,1153,1065,1057,1542,1542,1514,1514,1514,1514,998,998,18,0,0,4
394035409,394035409,41,0,0,0,1456,1440,1214,1507,1933,1933,1065,1153,1065,1057,1542,1542,1514,1514,1514,1514,998,998,18,0,0,4
394536670,394536670,41,0,0,0,1446,1456,1227,1498,1933,1933,1065,1153,1065,1057,1542,1542,1514,1514,1514,1514,998,998,18,0,0,4
395036699,395036699,41,0,0,0,1480,1443,1214,1497,1933,1933,1065,1153,1065,1057,1542,1542,1514,1514,1514,1514,998,998,18,0,0,4
395516391,395516391,41,0,0,0,1495,1437,1215,1496,1933,1933,1065,1153,1065,1057,1542,1542,1514,1514,1514,1514,998,998,18,0,0,4
396035331,396035331,41,0,0,0,1492,1433,1220,1488,1933,1933,1065,1153,1065,1057,1542,1542,1514,1514,1514,1514,998,998,18,0,0,4
396533394,396533394,41,0,0,0,1495,1417,1214,1492,1933,1933,1065,1153,1065,1057,1542,1542,1514,1514,1514,1514,998,998,18,0,0,4
397030449,397030449,41,0,0,0,1484,1402,1241,1494,1933,1933,1065,1153,1065,1057,1542,1542,1514,1514,1514,1514,998,998,18,0,0,4
397532493,397532493,41,0,0,0,1497,1397,1219,1496,1933,1933,1065,1153,1065,1057,1542,1542,1514,1514,1514,1514,998,998,18,0,0,4
398034507,398034507,41,0,0,0,1495,1397,1201,1487,1933,1933,1065,1153,1065,1057,1542,1542,1514,1514,1514,1514,998,998,18,0,0,4
398534425,398534425,41,0,0,0,1494,1388,1215,1483,1933,1933,1065,1153,1065,1057,1542,1542,1514,1514,1514,1514,998,998,18,0,0,4
399030514,399030514,41,0,0,0,1495,1396,1230,1483,1933,1933,1065,1153,1065,1057,1542,1542,1514,1514,1514,1514,998,998,18,0,0,4
399533636,399533636,41,0,0,0,1495,1397,1199,1487,1933,1933,1065,1153,1065,1057,1542,1542,1514,1514,1514,1514,998,998,18,0,0,4
400022541,400022541,41,0,0,0,1476,1413,1222,1490,1933,1933,1065,1153,1065,1057,1542,1542,1514,1514,1514,1514,998,998,18,0,0,4
400517896,400517896,41,0,0,0,1460,1418,1227,1493,1933,1933,1065,1153,1065,1057,1542,1542,1514,1514,1514,1514,998,998,18,0,0,4
401035350,401035350,41,0,0,0,1397,1447,1209,1497,1933,1933,1065,1153,1065,1057,1542,1542,1514,1514,1514,1514,998,998,18,0,0,4
401532644,401532644,41,0,0,0,1480,1421,1200,1497,1933,1933,1065,1153,1065,1057,1542,1542,1514,1514,1514,1514,998,998,18,0,0,4
402033865,402033865,41,0,0,0,1497,1402,1211,1498,1933,1933,1065,1153,1065,1057,1542,1542,1514,1514,1514,1514,998,998,18,0,0,4
402514856,402514856,41,0,0,0,1525,1403,1242,1498,1933,1933,1065,1153,1065,1057,1542,1542,1514,1514,1514,1514,998,998,18,0,0,4
403035539,403035539,41,0,0,0,1520,1407,1202,1498,1933,1933,1065,1153,1065,1057,1542,1542,1514,1514,1514,1514,998,998,18,0,0,4
403533653,403533653,41,0,0,0,1496,1412,1213,1498,1933,1933,1065,1153,1065,1057,1542,1542,1514,1514,1514,1514,998,998,18,0,0,4
404033600,404033600,41,0,0,0,1495,1431,1219,1497,1933,1933,1065,1153,1065,1057,1542,1542,1514,1514,1514,1514,998,998,18,0,0,4
404533709,404533709,41,0,0,0,1497,1431,1240,1497,1933,1933,1065,1153,1065,1057,1542,1542,1514,1514,1514,1514,998,998,18,0,0,4
405030683,405030683,41,0,0,0,1495,1399,1203,1491,1933,1933,1065,1153,1065,1057,1542,1542,1514,1514,1514,1514,998,998,18,0,0,4
405530252,405530252,41,0,0,0,1488,1425,1207,1475,1933,1933,1065,1153,1065,1057,1542,1542,1514,1514,1514,1514,998,998,18,0,0,4
406025135,406025135,41,0,0,0,1458,1448,1237,1465,1933,1933,1065,1153,1065,1057,1542,1542,1514,1514,1514,1514,998,998,18,0,0,4
406524660,406524660,41,0,0,0,1480,1422,1206,1458,1933,1933,1065,1153,1065,1057,1542,1542,1514,1514,1514,1514,998,998,18,0,0,4
407024107,407024107,41,0,0,0,1446,1449,1230,1448,1933,1933,1065,1153,1065,1057,1542,1542,1514,1514,1514,1514,998,998,18,0,0,4
407517476,407517476,41,0,0,0,1466,1447,1219,1444,1933,1933,1065,1153,1065,1057,1542,1542,1514,1514,1514,1514,998,998,18,0,0,4
408019462,408019462,41,0,0,0,1455,1437,1200,1457,1933,1933,1065,1153,1065,1057,1542,1542,1514,1514,1514,1514,998,998,18,0,0,4
408529451,408529451,41,0,0,0,1478,1434,1215,1443,1933,1933,1065,1153,1065,1057,1542,1542,1514,1514,1514,1514,998,998,18,0,0,4
409017763,409017763,41,0,0,0,1466,1431,1223,1439,1933,1933,1065,1153,1065,1057,1542,1542,1514,1514,1514,1514,998,998,18,0,0,4
409532078,409532078,41,0,0,0,1429,1458,1228,1422,1933,1933,1065,1153,1065,1057,1542,1542,1514,1514,1514,1514,998,998,18,0,0,4
410024689,410024689,41,0,0,0,1403,1495,1216,1428,1933,1933,1065,1153,1065,1057,1542,1542,1514,1514,1514,1514,998,998,18,0,0,4
410515233,410515233,41,0,0,0,1493,1438,1218,1428,1933,1933,1065,1153,1065,1057,1542,1542,1514,1514,1514,1514,998,998,18,0,0,4
411024820,411024820,41,0,0,0,1495,1422,1229,1459,1933,1933,1065,1153,1065,1057,1542,1542,1514,1514,1514,1514,998,998,18,0,0,4
411529712,411529712,41,0,0,0,1498,1408,1187,1461,1933,1933,1065,1153,1065,1057,1542,1542,1514,1514,1514,1514,998,998,18,0,0,4
412029973,412029973,41,0,0,0,1498,1414,1218,1452,1933,1933,1065,1153,1065,1057,1542,1542,1514,1514,1514,1514,998,998,18,0,0,4
412522384,412522384,41,0,0,0,1496,1413,1220,1462,1933,1933,1065,1153,1065,1057,1542,1542,1514,1514,1514,1514,998,998,18,0,0,4
413016664,413016664,41,0,0,0,1502,1423,1195,1483,1933,1933,1065,1153,1065,1057,1542,1542,1514,1514,1514,1514,998,998,18,0,0,4
413534769,413534769,41,0,0,0,1510,1402,1250,1498,1933,1933,1065,1153,1065,1057,1542,1542,1514,1514,1514,1514,998,998,18,0,0,4
414026752,414026752,41,0,0,0,1541,1407,1206,1507,1933,1933,1065,1153,1065,1057,1542,1542,1514,1514,1514,1514,998,998,18,0,0,4
414528346,414528346,41,0,0,0,1562,1408,1238,1501,1933,1933,1065,1153,1065,1057,1542,1542,1514,1514,1514,1514,998,998,18,0,0,4
415026374,415026374,41,0,0,0,1555,1412,1200,1498,1933,1933,1065,1153,1065,1057,1542,1542,1514,1514,1514,1514,998,998,18,0,0,4
415529674,415529674,41,0,0,0,1556,1407,1230,1498,1933,1933,1065,1153,1065,1057,1542,1542,1514,1514,1514,1514,998,998,18,0,0,4
416532037,416532037,41,0,0,0,1497,1423,1212,1497,1933,1933,1065,1153,1065,1057,1542,1542,1514,1514,1514,1514,998,998,18,0,0,4
417024394,417024394,41,0,0,0,1496,1433,1211,1498,1933,1933,1065,1153,1065,1057,1542,1542,1514,1514,1514,1514,998,998,18,0,0,4
417535214,417535214,41,0,0,0,1513,1435,1216,1498,1933,1933,1065,1153,1065,1057,1542,1542,1514,1514,1514,1514,998,998,18,0,0,4
418018552,418018552,41,0,0,0,1513,1440,1219,1499,1933,1933,1065,1153,1065,1057,1542,1542,1514,1514,1514,1514,998,998,18,0,0,4
418521824,418521824,41,0,0,0,1540,1428,1213,1498,1933,1933,1065,1153,1065,1057,1542,1542,1514,1514,1514,1514,998,998,18,0,0,4
419017155,419017155,41,0,0,0,1549,1433,1188,1510,1933,1933,1065,1153,1065,1057,1542,1542,1514,1514,1514,1514,998,998,18,0,0,4
419517573,419517573,41,0,0,0,1539,1428,1232,1498,1933,1933,1065,1153,1065,1057,1542,1542,1514,1514,1514,1514,998,998,18,0,0,4
420021320,420021320,41,0,0,0,1543,1432,1203,1498,1933,1933,1065,1153,1065,1057,1542,1542,1514,1514,1514,1514,998,998,18,0,0,4
420516505,420516505,41,0,0,0,1542,1431,1230,1497,1933,1933,1065,1153,1065,1057,1542,1542,1514,1514,1514,1514,998,998,18,0,0,4
421033735,421033735,41,0,0,0,1524,1451,1199,1497,1933,1933,1065,1153,1065,1057,1542,1542,1514,1514,1514,1514,998,998,18,0,0,4
421514809,421514809,41,0,0,0,1532,1435,1202,1497,1933,1933,1065,1153,1065,1057,1542,1542,1514,1514,1514,1514,998,998,18,0,0,4
422034219,422034219,41,0,0,0,1538,1448,1207,1497,1933,1933,1065,1153,1065,1057,1542,1542,1514,1514,1514,1514,998,998,18,0,0,4
422535641,422535641,41,0,0,0,1545,1438,1225,1497,1933,1933,1065,1153,1065,1057,1542,1542,1514,1514,1514,1514,998,998,18,0,0,4
423036540,423036540,41,0,0,0,1527,1441,1185,1497,1933,1933,1065,1153,1065,1057,1542,1542,1514,1514,1514,1514,998,998,18,0,0,4
423518560,423518560,41,0,0,0,1532,1438,1226,1497,1933,1933,1065,1153,1065,1057,1542,1542,1514,1514,1514,1514,998,998,18,0,0,4
424020154,424020154,41,0,0,0,1407,1457,1222,1498,1933,1933,1065,1153,1065,1057,1542,1542,1514,1514,1514,1514,998,998,18,0,0,4
424519906,424519906,41,0,0,0,1480,1448,1221,1503,1933,1933,1065,1153,1065,1057,1542,1542,1514,1514,1514,1514,998,998,18,0,0,4
425021488,425021488,41,0,0,0,1513,1448,1213,1543,1933,1933,1065,1153,1065,1057,1542,1542,1514,1514,1514,1514,998,998,18,0,0,4
425519249,425519249,41,0,0,0,1555,1440,1217,1523,1933,1933,1065,1153,1065,1057,1542,1542,1514,1514,1514,1514,998,998,18,0,0,4
426036894,426036894,41,0,0,0,1553,1445,1252,1500,1933,1933,1065,1153,1065,1057,1542,1542,1514,1514,1514,1514,998,998,18,0,0,4
426534646,426534646,41,0,0,0,1522,1432,1221,1498,1933,1933,1065,1153,1065,1057,1542,1542,1514,1514,1514,1514,998,998,18,0,0,4
427030421,427030421,41,0,0,0,1546,1425,1222,1498,1933,1933,1065,1153,1065,1057,1542,1542,1514,1514,1514,1514,998,998,18,0,0,4
427523430,427523430,41,0,0,0,1518,1400,1207,1525,1933,1933,1065,1153,1065,1057,1542,1542,1514,1514,1514,1514,998,998,18,0,0,4
428022500,428022500,41,0,0,0,1467,1404,1232,1525,1933,1933,1065,1153,1065,1057,1542,1542,1514,1514,1514,1514,998,998,18,0,0,4
428523875,428523875,41,0,0,0,1498,1403,1231,1509,1933,1933,1065,1153,1065,1057,1542,1542,1514,1514,1514,1514,998,998,18,0,0,4
429022857,429022857,41,0,0,0,1495,1413,1191,1497,1933,1933,1065,1153,1065,1057,1542,1542,1514,1514,1514,1514,998,998,18,0,0,4
429537451,429537451,41,0,0,0,1500,1415,1228,1498,1933,1933,1065,1153,1065,1057,1542,1542,1514,1514,1514,1514,998,998,18,0,0,4
430018161,430018161,41,0,0,0,1495,1422,1249,1498,1933,1933,1065,1153,1065,1057,1542,1542,1514,1514,1514,1514,998,998,18,0,0,4
430517638,430517638,41,0,0,0,1535,1428,1209,1498,1933,1933,1065,1153,1065,1057,1542,1542,1514,1514,1514,1514,998,998,18,0,0,4
431018346,431018346,41,0,0,0,1543,1418,1205,1498,1933,1933,1065,1153,1065,1057,1542,1542,1514,1514,1514,1514,998,998,18,0,0,4
431520837,431520837,41,0,0,0,1461,1425,1240,1500,1933,1933,1065,1153,1065,1057,1542,1542,1514,1514,1514,1514,998,998,18,0,0,4
432022097,432022097,41,0,0,0,1542,1426,1211,1498,1933,1933,1065,1153,1065,1057,1542,1542,1514,1514,1514,1514,998,998,18,0,0,4
432524689,432524689,41,0,0,0,1497,1420,1218,1507,1933,1933,1065,1153,1065,1057,1542,1542,1514,1514,1514,1514,998,998,18,0,0,4
433027587,433027587,41,0,0,0,1495,1401,1188,1512,1933,1933,1065,1153,1065,1057,1542,1542,1514,1514,1514,1514,998,998,18,0,0,4
433521398,433521398,41,0,0,0,1495,1405,1219,1521,1933,1933,1065,1153,1065,1057,1542,1542,1514,1514,1514,1514,998,998,18,0,0,4
434021099,434021099,41,0,0,0,1498,1403,1237,1509,1933,1933,1065,1153,1065,1057,1542,1542,1514,1514,1514,1514,998,998,18,0,0,4
434524971,434524971,41,0,0,0,1494,1405,1242,1498,1933,1933,1065,1153,1065,1057,1542,1542,1514,1514,1514,1514,998,998,18,0,0,4
435026499,435026499,41,0,0,0,1555,1400,1215,1498,1933,1933,1065,1153,1065,1057,1542,1542,1514,1514,1514,1514,998,998,18,0,0,4
435522235,435522235,41,0,0,0,1498,1387,1190,1522,1933,1933,1065,1153,1065,1057,1542,1542,1514,1514,1514,1514,998,998,18,0,0,4
436021472,436021472,41,0,0,0,1499,1402,1232,1530,1933,1933,1065,1153,1065,1057,1542,1542,1514,1514,1514,1514,998,998,18,0,0,4
436522906,436522906,41,0,0,0,1523,1389,1227,1500,1933,1933,1065,1153,1065,1057,1542,1542,1514,1514,1514,1514,998,998,18,0,0,4
437026403,437026403,41,0,0,0,1496,1409,1194,1497,1933,1933,1065,1153,1065,1057,1542,1542,1514,1514,1514,1514,998,998,18,0,0,4
437522617,437522617,41,0,0,0,1499,1411,1198,1497,1933,1933,1065,1153,1065,1057,1542,1542,1514,1514,1514,1514,998,998,18,0,0,4
438019485,438019485,41,0,0,0,1497,1428,1218,1498,1933,1933,1065,1153,1065,1057,1542,1542,1514,1514,1514,1514,998,998,18,0,0,4
438515035,438515035,41,0,0,0,1517,1422,1217,1509,1933,1933,1065,1153,1065,1057,1542,1542,1514,1514,1514,1514,998,998,18,0,0,4
439015330,439015330,41,0,0,0,1495,1437,1237,1515,1933,1933,1065,1153,1065,1057,1542,1542,1514,1514,1514,1514,998,998,18,0,0,4
439531626,439531626,41,0,0,0,1437,1441,1217,1502,1933,1933,1065,1153,1065,1057,1542,1542,1514,1514,1514,1514,998,998,18,0,0,4
440016722,440016722,41,0,0,0,1430,1455,1206,1497,1933,1933,1065,1153,1065,1057,1542,1542,1514,1514,1514,1514,998,998,18,0,0,4
440538327,440538327,41,0,0,0,1496,1423,1210,1498,1933,1933,1065,1153,1065,1057,1542,1542,1514,1514,1514,1514,998,998,18,0,0,4
441017609,441017609,41,0,0,0,1482,1428,1253,1498,1933,1933,1065,1153,1065,1057,1542,1542,1514,1514,1514,1514,998,998,18,0,0,4
441535602,441535602,41,0,0,0,1496,1394,1219,1499,1933,1933,1065,1153,1065,1057,1542,1542,1514,1514,1514,1514,998,998,18,0,0,4
442035364,442035364,41,0,0,0,1498,1397,1201,1498,1933,1933,1065,1153,1065,1057,1542,1542,1514,1514,1514,1514,998,998,18,0,0,4
442517497,442517497,41,0,0,0,1497,1383,1209,1498,1933,1933,1065,1153,1065,1057,1542,1542,1514,1514,1514,1514,998,998,18,0,0,4
443028833,443028833,41,0,0,0,1496,1394,1215,1498,1933,1933,1065,1153,1065,1057,1542,1542,1514,1514,1514,1514,998,998,18,0,0,4
443518292,443518292,41,0,0,0,1495,1402,1198,1498,1933,1933,1065,1153,1065,1057,1542,1542,1514,1514,1514,1514,998,998,18,0,0,4
444025264,444025264,41,0,0,0,1496,1417,1268,1498,1933,1933,1065,1153,1065,1057,1542,1542,1514,1514,1514,1514,998,998,18,0,0,4
444521396,444521396,41,0,0,0,1522,1421,1182,1498,1933,1933,1065,1153,1065,1057,1542,1542,1514,1514,1514,1514,998,998,18,0,0,4
445020633,445020633,41,0,0,0,1520,1414,1193,1510,1933,1933,1065,1153,1065,1057,1542,1542,1514,1514,1514,1514,998,998,18,0,0,4
445536300,445536300,41,0,0,0,1534,1387,1232,1518,1933,1933,1065,1153,1065,1057,1542,1542,1514,1514,1514,1514,998,998,18,0,0,4
446018425,446018425,41,0,0,0,1490,1405,1213,1511,1933,1933,1065,1153,1065,1057,1542,1542,1514,1514,1514,1514,998,998,18,0,0,4
446529050,446529050,41,0,0,0,1489,1397,1234,1498,1933,1933,1065,1153,1065,1057,1542,1542,1514,1514,1514,1514,998,998,18,0,0,4
447029331,447029331,41,0,0,0,1507,1386,1220,1498,1933,1933,1065,1153,1065,1057,1542,1542,1514,1514,1514,1514,998,998,18,0,0,4
447529920,447529920,41,0,0,0,1470,1452,1218,1498,1933,1933,1065,1153,1065,1057,1542,1542,1514,1514,1514,1514,998,998,18,0,0,4
448026497,448026497,41,0,0,0,1478,1412,1220,1498,1933,1933,1065,1153,1065,1057,1542,1542,1514,1514,1514,1514,998,998,18,0,0,4
448525982,448525982,41,0,0,0,1461,1465,1227,1498,1933,1933,1065,1153,1065,1057,1542,1542,1514,1514,1514,1514,998,998,18,0,0,4
449021406,449021406,41,0,0,0,1490,1433,1238,1498,1933,1933,1065,1153,1065,1057,1542,1542,1514,1514,1514,1514,998,998,18,0,0,4
449517138,449517138,41,0,0,0,1473,1452,1200,1498,1933,1933,1065,1153,1065,1057,1542,1542,1514,1514,1514,1514,998,998,18,0,0,4
450018125,450018125,41,0,0,0,1496,1423,1226,1497,1933,1933,1065,1153,1065,1057,1542,1542,1514,1514,1514,1514,998,998,18,0,0,4
450519203,450519203,41,0,0,0,1495,1427,1230,1498,1933,1933,1065,1153,1065,1057,1542,1542,1514,1514,1514,1514,998,998,18,0,0,4
451013985,451013985,41,0,0,0,1495,1427,1180,1497,1933,1933,1065,1153,1065,1057,1542,1542,1514,1514,1514,1514,998,998,18,0,0,4
451532789,451532789,41,0,0,0,1495,1430,1192,1496,1933,1933,1065,1153,1065,1057,1542,1542,1514,1514,1514,1514,998,998,18,0,0,4
452024109,452024109,41,0,0,0,1495,1423,1248,1496,1933,1933,1065,1153,1065,1057,1542,1542,1514,1514,1514,1514,998,998,18,0,0,4
452523905,452523905,41,0,0,0,1495,1408,1218,1497,1933,1933,1065,1153,1065,1057,1542,1542,1514,1514,1514,1514,998,998,18,0,0,4
453019917,453019917,41,0,0,0,1492,1422,1196,1488,1933,1933,1065,1153,1065,1057,1542,1542,1514,1514,1514,1514,998,998,18,0,0,4
453533933,453533933,41,0,0,0,1470,1434,1227,1497,1933,1933,1065,1153,1065,1057,1542,1542,1514,1514,1514,1514,998,998,18,0,0,4
454029356,454029356,41,0,0,0,1495,1407,1206,1487,1933,1933,1065,1153,1065,1057,1542,1542,1514,1514,1514,1514,998,998,18,0,0,4
454531321,454531321,41,0,0,0,1495,1432,1230,1488,1933,1933,1065,1153,1065,1057,1542,1542,1514,1514,1514,1514,998,998,18,0,0,4
455031537,455031537,41,0,0,0,1498,1414,1202,1491,1933,1933,1065,1153,1065,1057,1542,1542,1514,1514,1514,1514,998,998,18,0,0,4
455526075,455526075,41,0,0,0,1495,1412,1202,1497,1933,1933,1065,1153,1065,1057,1542,1542,1514,1514,1514,1514,998,998,18,0,0,4
456020294,456020294,41,0,0,0,1495,1398,1240,1478,1933,1933,1065,1153,1065,1057,1542,1542,1514,1514,1514,1514,998,998,18,0,0,4
456518826,456518826,41,0,0,0,1496,1405,1202,1493,1933,1933,1065,1153,1065,1057,1542,1542,1514,1514,1514,1514,998,998,18,0,0,4
457018315,457018315,41,0,0,0,1478,1431,1237,1472,1933,1933,1065,1153,1065,1057,1542,1542,1514,1514,1514,1514,998,998,18,0,0,4
457519308,457519308,41,0,0,0,1485,1446,1197,1452,1933,1933,1065,1153,1065,1057,1542,1542,1514,1514,1514,1514,998,998,18,0,0,4
458021576,458021576,41,0,0,0,1460,1447,1229,1447,1933,1933,1065,1153,1065,1057,1542,1542,1514,1514,1514,1514,998,998,18,0,0,4
458521656,458521656,41,0,0,0,1470,1445,1223,1448,1933,1933,1065,1153,1065,1057,1542,1542,1514,1514,1514,1514,998,998,18,0,0,4
459020022,459020022,41,0,0,0,1480,1433,1240,1460,1933,1933,1065,1153,1065,1057,1542,1542,1514,1514,1514,1514,998,998,18,0,0,4
459519267,459519267,41,0,0,0,1478,1417,1203,1457,1933,1933,1065,1153,1065,1057,1542,1542,1514,1514,1514,1514,998,998,18,0,0,4
460021322,460021322,41,0,0,0,1475,1414,1235,1456,1933,1933,1065,1153,1065,1057,1542,1542,1514,1514,1514,1514,998,998,18,0,0,4
460535555,460535555,41,0,0,0,1495,1386,1212,1475,1933,1933,1065,1153,1065,1057,1542,1542,1514,1514,1514,1514,998,998,18,0,0,4
461024550,461024550,41,0,0,0,1471,1385,1220,1455,1933,1933,1065,1153,1065,1057,1542,1542,1514,1514,1514,1514,998,998,18,0,0,4
461518213,461518213,41,0,0,0,1455,1387,1192,1441,1933,1933,1065,1153,1065,1057,1542,1542,1514,1514,1514,1514,998,998,18,0,0,4
462034833,462034833,41,0,0,0,1415,1387,1240,1455,1933,1933,1065,1153,1065,1057,1542,1542,1514,1514,1514,1514,998,998,18,0,0,4
462520603,462520603,41,0,0,0,1452,1366,1226,1465,1933,1933,1065,1153,1065,1057,1542,1542,1514,1514,1514,1514,998,998,18,0,0,4
463032186,463032186,41,0,0,0,1478,1352,1182,1475,1933,1933,1065,1153,1065,1057,1542,1542,1514,1514,1514,1514,998,998,18,0,0,4
463534751,463534751,41,0,0,0,1496,1338,1235,1470,1933,1933,1065,1153,1065,1057,1542,1542,1514,1514,1514,1514,998,998,18,0,0,4
464036608,464036608,41,0,0,0,1498,1352,1238,1475,1933,1933,1065,1153,1065,1057,1542,1542,1514,1514,1514,1514,998,998,18,0,0,4
464529443,464529443,41,0,0,0,1502,1342,1203,1463,1933,1933,1065,1153,1065,1057,1542,1542,1514,1514,1514,1514,998,998,18,0,0,4
465038699,465038699,41,0,0,0,1521,1345,1218,1460,1933,1933,1065,1153,1065,1057,1542,1542,1514,1514,1514,1514,998,998,18,0,0,4
465518528,465518528,41,0,0,0,1495,1370,1228,1474,1933,1933,1065,1153,1065,1057,1542,1542,1514,1514,1514,1514,998,998,18,0,0,4
466035584,466035584,41,0,0,0,1457,1380,1232,1471,1933,1933,1065,1153,1065,1057,1542,1542,1514,1514,1514,1514,998,998,18,0,0,4
466533416,466533416,41,0,0,0,1496,1376,1218,1464,1933,1933,1065,1153,1065,1057,1542,1542,1514,1514,1514,1514,998,998,18,0,0,4
467034652,467034652,41,0,0,0,1503,1412,1239,1485,1933,1933,1065,1153,1065,1057,1542,1542,1514,1514,1514,1514,998,998,18,0,0,4
467530160,467530160,41,0,0,0,1505,1408,1210,1485,1933,1933,1065,1153,1065,1057,1542,1542,1514,1514,1514,1514,998,998,18,0,0,4
468030991,468030991,41,0,0,0,1498,1402,1240,1488,1933,1933,1065,1153,1065,1057,1542,1542,1514,1514,1514,1514,998,998,18,0,0,4
468528828,468528828,41,0,0,0,1525,1397,1221,1477,1933,1933,1065,1153,1065,1057,1542,1542,1514,1514,1514,1514,998,998,18,0,0,4
469022036,469022036,41,0,0,0,1518,1402,1260,1472,1933,1933,1065,1153,1065,1057,1542,1542,1514,1514,1514,1514,998,998,18,0,0,4
469527352,469527352,41,0,0,0,1543,1390,1189,1473,1933,1933,1065,1153,1065,1057,1542,1542,1514,1514,1514,1514,998,998,18,0,0,4
470029450,470029450,41,0,0,0,1550,1428,1202,1485,1933,1933,1065,1153,1065,1057,1542,1542,1514,1514,1514,1514,998,998,18,0,0,4
470524813,470524813,41,0,0,0,1540,1422,1210,1495,1933,1933,1065,1153,1065,1057,1542,1542,1514,1514,1514,1514,998,998,18,0,0,4
471020735,471020735,41,0,0,0,1510,1418,1225,1493,1933,1933,1065,1153,1065,1057,1542,1542,1514,1514,1514,1514,998,998,18,0,0,4
471537320,471537320,41,0,0,0,1496,1431,1225,1492,1933,1933,1065,1153,1065,1057,1542,1542,1514,1514,1514,1514,998,998,18,0,0,4
473017560,473017560,41,0,0,0,1559,1435,1243,1498,1933,1933,1065,1153,1065,1057,1542,1542,1514,1514,1514,1514,998,998,18,0,0,4
473515489,473515489,41,0,0,0,1524,1422,1232,1498,1933,1933,1065,1153,1065,1057,1542,1542,1514,1514,1514,1514,998,998,18,0,0,4
474034221,474034221,41,0,0,0,1552,1420,1245,1497,1933,1933,1065,1153,1065,1057,1542,1542,1514,1514,1514,1514,998,998,18,0,0,4
474530231,474530231,41,0,0,0,1496,1410,1208,1481,1933,1933,1065,1153,1065,1057,1542,1542,1514,1514,1514,1514,998,998,18,0,0,4
475027357,475027357,41,0,0,0,1525,1408,1220,1483,1933,1933,1065,1153,1065,1057,1542,1542,1514,1514,1514,1514,998,998,18,0,0,4
475533883,475533883,41,0,0,0,1497,1413,1231,1469,1933,1933,1065,1153,1065,1057,1542,1542,1514,1514,1514,1514,998,998,18,0,0,4
476016443,476016443,41,0,0,0,1552,1402,1195,1489,1933,1933,1065,1153,1065,1057,1542,1542,1514,1514,1514,1514,998,998,18,0,0,4
476535655,476535655,41,0,0,0,1550,1442,1238,1498,1933,1933,1065,1153,1065,1057,1542,1542,1514,1514,1514,1514,998,998,18,0,0,4
477035756,477035756,41,0,0,0,1552,1437,1238,1498,1933,1933,1065,1153,1065,1057,1542,1542,1514,1514,1514,1514,998,998,18,0,0,4
477535286,477535286,41,0,0,0,1496,1437,1222,1497,1933,1933,1065,1153,1065,1057,1542,1542,1514,1514,1514,1514,998,998,18,0,0,4
478034229,478034229,41,0,0,0,1492,1424,1218,1477,1933,1933,1065,1153,1065,1057,1542,1542,1514,1514,1514,1514,998,998,18,0,0,4
478537393,478537393,41,0,0,0,1496,1408,1242,1475,1933,1933,1065,1153,1065,1057,1542,1542,1514,1514,1514,1514,998,998,18,0,0,4
479018956,479018956,41,0,0,0,1495,1423,1222,1485,1933,1933,1065,1153,1065,1057,1542,1542,1514,1514,1514,1514,998,998,18,0,0,4
479535214,479535214,41,0,0,0,1499,1450,1227,1485,1933,1933,1065,1153,1065,1057,1542,1542,1514,1514,1514,1514,998,998,18,0,0,4
480012498,480012498,41,0,0,0,1499,1455,1216,1495,1933,1933,1065,1153,1065,1057,1542,1542,1514,1514,1514,1514,998,998,18,0,0,4
480530602,480530602,41,0,0,0,1495,1470,1209,1496,1933,1933,1065,1153,1065,1057,1542,1542,1514,1514,1514,1514,998,998,18,0,0,4
481029883,481029883,41,0,0,0,1497,1453,1237,1498,1933,1933,1065,1153,1065,1057,1542,1542,1514,1514,1514,1514,998,998,18,0,0,4
481525387,481525387,41,0,0,0,1507,1455,1209,1496,1933,1933,1065,1153,1065,1057,1542,1542,1514,1514,1514,1514,998,998,18,0,0,4
482018680,482018680,41,0,0,0,1500,1411,1206,1498,1933,1933,1065,1153,1065,1057,1542,1542,1514,1514,1514,1514,998,998,18,0,0,4
482516896,482516896,41,0,0,0,1499,1413,1245,1498,1933,1933,1065,1153,1065,1057,1542,1542,1514,1514,1514,1514,998,998,18,0,0,4
483031564,483031564,41,0,0,0,1510,1443,1209,1498,1933,1933,1065,1153,1065,1057,1542,1542,1514,1514,1514,1514,998,998,18,0,0,4
483534131,483534131,41,0,0,0,1534,1434,1235,1500,1933,1933,1065,1153,1065,1057,1542,1542,1514,1514,1514,1514,998,998,18,0,0,4
484020227,484020227,41,0,0,0,1505,1412,1202,1499,1933,1933,1065,1153,1065,1057,1542,1542,1514,1514,1514,1514,998,998,18,0,0,4
484520292,484520292,41,0,0,0,1472,1418,1198,1497,1933,1933,1065,1153,1065,1057,1542,1542,1514,1514,1514,1514,998,998,18,0,0,4
485023246,485023246,41,0,0,0,1450,1413,1222,1498,1933,1933,1065,1153,1065,1057,1542,1542,1514,1514,1514,1514,998,998,18,0,0,4
485518749,485518749,41,0,0,0,1448,1415,1218,1492,1933,1933,1065,1153,1065,1057,1542,1542,1514,1514,1514,1514,998,998,18,0,0,4
486012809,486012809,41,0,0,0,1495,1391,1213,1491,1933,1933,1065,1153,1065,1057,1542,1542,1514,1514,1514,1514,998,998,18,0,0,4
486535557,486535557,41,0,0,0,1468,1412,1182,1492,1933,1933,1065,1153,1065,1057,1542,1542,1514,1514,1514,1514,998,998,18,0,0,4
487035966,487035966,41,0,0,0,1487,1431,1233,1491,1933,1933,1065,1153,1065,1057,1542,1542,1514,1514,1514,1514,998,998,18,0,0,4
487530815,487530815,41,0,0,0,1496,1444,1242,1494,1933,1933,1065,1153,1065,1057,1542,1542,1514,1514,1514,1514,998,998,18,0,0,4
488024975,488024975,41,0,0,0,1460,1498,1218,1492,1933,1933,1065,1153,1065,1057,1542,1542,1514,1514,1514,1514,998,998,18,0,0,4
488518233,488518233,41,0,0,0,1450,1496,1222,1462,1933,1933,1065,1153,1065,1057,1542,1542,1514,1514,1514,1514,998,998,18,0,0,4
489019089,489019089,41,0,0,0,1422,1547,1223,1487,1933,1933,1065,1153,1065,1057,1542,1542,1514,1514,1514,1514,998,998,18,0,0,4
489517832,489517832,41,0,0,0,1498,1527,1229,1496,1933,1933,1065,1153,1065,1057,1542,1542,1514,1514,1514,1514,998,998,18,0,0,4
490021221,490021221,41,0,0,0,1498,1495,1215,1488,1933,1933,1065,1153,1065,1057,1542,1542,1514,1514,1514,1514,998,998,18,0,0,4
490516702,490516702,41,0,0,0,1507,1471,1227,1485,1933,1933,1065,1153,1065,1057,1542,1542,1514,1514,1514,1514,998,998,18,0,0,4
491035219,491035219,41,0,0,0,1496,1460,1245,1473,1933,1933,1065,1153,1065,1057,1542,1542,1514,1514,1514,1514,998,998,18,0,0,4
491534779,491534779,41,0,0,0,1496,1432,1201,1482,1933,1933,1065,1153,1065,1057,1542,1542,1514,1514,1514,1514,998,998,18,0,0,4
492032409,492032409,41,0,0,0,1495,1409,1248,1478,1933,1933,1065,1153,1065,1057,1542,1542,1514,1514,1514,1514,998,998,18,0,0,4
492533032,492533032,41,0,0,0,1496,1388,1210,1478,1933,1933,1065,1153,1065,1057,1542,1542,1514,1514,1514,1514,998,998,18,0,0,4
493022893,493022893,41,0,0,0,1503,1422,1212,1485,1933,1933,1065,1153,1065,1057,1542,1542,1514,1514,1514,1514,998,998,18,0,0,4
493522352,493522352,41,0,0,0,1495,1413,1249,1484,1933,1933,1065,1153,1065,1057,1542,1542,1514,1514,1514,1514,998,998,18,0,0,4
494021638,494021638,41,0,0,0,1453,1497,1207,1473,1933,1933,1065,1153,1065,1057,1542,1542,1514,1514,1514,1514,998,998,18,0,0,4
494522653,494522653,41,0,0,0,1469,1497,1251,1483,1933,1933,1065,1153,1065,1057,1542,1542,1514,1514,1514,1514,998,998,18,0,0,4
495019554,495019554,41,0,0,0,1510,1497,1200,1489,1933,1933,1065,1153,1065,1057,1542,1542,1514,1514,1514,1514,998,998,18,0,0,4
495519633,495519633,41,0,0,0,1536,1498,1249,1484,1933,1933,1065,1153,1065,1057,1542,1542,1514,1514,1514,1514,998,998,18,0,0,4
496037092,496037092,41,0,0,0,1523,1496,1213,1492,1933,1933,1065,1153,1065,1057,1542,1542,1514,1514,1514,1514,998,998,18,0,0,4
496512926,496512926,41,0,0,0,1495,1457,1246,1493,1933,1933,1065,1153,1065,1057,1542,1542,1514,1514,1514,1514,998,998,18,0,0,4
497035548,497035548,41,0,0,0,1495,1458,1203,1497,1933,1933,1065,1153,1065,1057,1542,1542,1514,1514,1514,1514,998,998,18,0,0,4
497532710,497532710,41,0,0,0,1495,1393,1244,1493,1933,1933,1065,1153,1065,1057,1542,1542,1514,1514,1514,1514,998,998,18,0,0,4
498033989,498033989,41,0,0,0,1495,1382,1205,1494,1933,1933,1065,1153,1065,1057,1542,1542,1514,1514,1514,1514,998,998,18,0,0,4
498524763,498524763,41,0,0,0,1472,1357,1243,1498,1933,1933,1065,1153,1065,1057,1542,1542,1514,1514,1514,1514,998,998,18,0,0,4
499013918,499013918,41,0,0,0,1465,1373,1228,1498,1933,1933,1065,1153,1065,1057,1542,1542,1514,1514,1514,1514,998,998,18,0,0,4
499534876,499534876,41,0,0,0,1441,1366,1211,1498,1933,1933,1065,1153,1065,1057,1542,1542,1514,1514,1514,1514,998,998,18,0,0,4
500013015,500013015,41,0,0,0,1462,1362,1214,1493,1933,1933,1065,1153,1065,1057,1542,1542,1514,1514,1514,1514,998,998,18,0,0,4
500513625,500513625,41,0,0,0,1470,1361,1224,1483,1933,1933,1065,1153,1065,1057,1542,1542,1514,1514,1514,1514,998,998,18,0,0,4
501012965,501012965,41,0,0,0,1495,1418,1233,1439,1933,1933,1065,1153,1065,1057,1542,1542,1514,1514,1514,1514,998,998,18,0,0,4
501515889,501515889,41,0,0,0,1422,1470,1223,1468,1933,1933,1065,1153,1065,1057,1542,1542,1514,1514,1514,1514,998,998,18,0,0,4
502016313,502016313,41,0,0,0,1496,1463,1245,1452,1933,1933,1065,1153,1065,1057,1542,1542,1514,1514,1514,1514,998,998,18,0,0,4
502518433,502518433,41,0,0,0,1495,1402,1212,1467,1933,1933,1065,1153,1065,1057,1542,1542,1514,1514,1514,1514,998,998,18,0,0,4
503034977,503034977,41,0,0,0,1471,1468,1247,1445,1933,1933,1065,1153,1065,1057,1542,1542,1514,1514,1514,1514,998,998,18,0,0,4
503534248,503534248,41,0,0,0,1489,1430,1217,1424,1933,1933,1065,1153,1065,1057,1542,1542,1514,1514,1514,1514,998,998,18,0,0,4
504028307,504028307,41,0,0,0,1437,1487,1236,1421,1933,1933,1065,1153,1065,1057,1542,1542,1514,1514,1514,1514,998,998,18,0,0,4
504522534,504522534,41,0,0,0,1490,1417,1218,1435,1933,1933,1065,1153,1065,1057,1542,1542,1514,1514,1514,1514,998,998,18,0,0,4
505020922,505020922,41,0,0,0,1480,1415,1252,1443,1933,1933,1065,1153,1065,1057,1542,1542,1514,1514,1514,1514,998,998,18,0,0,4
505529677,505529677,41,0,0,0,1495,1389,1211,1457,1933,1933,1065,1153,1065,1057,1542,1542,1514,1514,1514,1514,998,998,18,0,0,4
506036165,506036165,41,0,0,0,1495,1394,1216,1473,1933,1933,1065,1153,1065,1057,1542,1542,1514,1514,1514,1514,998,998,18,0,0,4
506528496,506528496,41,0,0,0,1496,1392,1217,1467,1933,1933,1065,1153,1065,1057,1542,1542,1514,1514,1514,1514,998,998,18,0,0,4
507032319,507032319,41,0,0,0,1497,1380,1238,1435,1933,1933,1065,1153,1065,1057,1542,1542,1514,1514,1514,1514,998,998,18,0,0,4
507528620,507528620,41,0,0,0,1503,1400,1204,1450,1933,1933,1065,1153,1065,1057,1542,1542,1514,1514,1514,1514,998,998,18,0,0,4
508029289,508029289,41,0,0,0,1537,1408,1229,1468,1933,1933,1065,1153,1065,1057,1542,1542,1514,1514,1514,1514,998,998,18,0,0,4
508526211,508526211,41,0,0,0,1533,1408,1217,1477,1933,1933,1065,1153,1065,1057,1542,1542,1514,1514,1514,1514,998,998,18,0,0,4
509036615,509036615,41,0,0,0,1510,1408,1230,1475,1933,1933,1065,1153,1065,1057,1542,1542,1514,1514,1514,1514,998,998,18,0,0,4
509535707,509535707,41,0,0,0,1537,1414,1222,1498,1933,1933,1065,1153,1065,1057,1542,1542,1514,1514,1514,1514,998,998,18,0,0,4
510034992,510034992,41,0,0,0,1539,1440,1203,1498,1933,1933,1065,1153,1065,1057,1542,1542,1514,1514,1514,1514,998,998,18,0,0,4
510533301,510533301,41,0,0,0,1553,1437,1207,1512,1933,1933,1065,1153,1065,1057,1542,1542,1514,1514,1514,1514,998,998,18,0,0,4
511024185,511024185,41,0,0,0,1541,1446,1229,1510,1933,1933,1065,1153,1065,1057,1542,1542,1514,1514,1514,1514,998,998,18,0,0,4
511526660,511526660,41,0,0,0,1494,1447,1205,1507,1933,1933,1065,1153,1065,1057,1542,1542,1514,1514,1514,1514,998,998,18,0,0,4
512025994,512025994,41,0,0,0,1500,1448,1237,1498,1933,1933,1065,1153,1065,1057,1542,1542,1514,1514,1514,1514,998,998,18,0,0,4
512523293,512523293,41,0,0,0,1529,1442,1212,1498,1933,1933,1065,1153,1065,1057,1542,1542,1514,1514,1514,1514,998,998,18,0,0,4
513024596,513024596,41,0,0,0,1549,1425,1221,1498,1933,1933,1065,1153,1065,1057,1542,1542,1514,1514,1514,1514,998,998,18,0,0,4
513537920,513537920,41,0,0,0,1536,1435,1232,1498,1933,1933,1065,1153,1065,1057,1542,1542,1514,1514,1514,1514,998,998,18,0,0,4
514031834,514031834,41,0,0,0,1497,1401,1220,1498,1933,1933,1065,1153,1065,1057,1542,1542,1514,1514,1514,1514,998,998,18,0,0,4
514523615,514523615,41,0,0,0,1442,1434,1202,1498,1933,1933,1065,1153,1065,1057,1542,1542,1514,1514,1514,1514,998,998,18,0,0,4
515027169,515027169,41,0,0,0,1535,1428,1245,1501,1933,1933,1065,1153,1065,1057,1542,1542,1514,1514,1514,1514,998,998,18,0,0,4
515521074,515521074,41,0,0,0,1534,1444,1213,1507,1933,1933,1065,1153,1065,1057,1542,1542,1514,1514,1514,1514,998,998,18,0,0,4
516025269,516025269,41,0,0,0,1556,1440,1257,1500,1933,1933,1065,1153,1065,1057,1542,1542,1514,1514,1514,1514,998,998,18,0,0,4
516524036,516524036,41,0,0,0,1497,1440,1209,1506,1933,1933,1065,1153,1065,1057,1542,1542,1514,1514,1514,1514,998,998,18,0,0,4
517024026,517024026,41,0,0,0,1549,1409,1210,1512,1933,1933,1065,1153,1065,1057,1542,1542,1514,1514,1514,1514,998,998,18,0,0,4
517519577,517519577,41,0,0,0,1530,1442,1254,1510,1933,1933,1065,1153,1065,1057,1542,1542,1514,1514,1514,1514,998,998,18,0,0,4
518022500,518022500,41,0,0,0,1543,1445,1220,1530,1933,1933,1065,1153,1065,1057,1542,1542,1514,1514,1514,1514,998,998,18,0,0,4
518524483,518524483,41,0,0,0,1548,1447,1231,1528,1933,1933,1065,1153,1065,1057,1542,1542,1514,1514,1514,1514,998,998,18,0,0,4
519021142,519021142,41,0,0,0,1548,1443,1216,1523,1933,1933,1065,1153,1065,1057,1542,1542,1514,1514,1514,1514,998,998,18,0,0,4
519518427,519518427,41,0,0,0,1536,1438,1217,1526,1933,1933,1065,1153,1065,1057,1542,1542,1514,1514,1514,1514,998,998,18,0,0,4
520019914,520019914,41,0,0,0,1535,1452,1220,1547,1933,1933,1065,1153,1065,1057,1542,1542,1514,1514,1514,1514,998,998,18,0,0,4
520535169,520535169,41,0,0,0,1536,1450,1230,1547,1933,1933,1065,1153,1065,1057,1542,1542,1514,1514,1514,1514,998,998,18,0,0,4
521018527,521018527,41,0,0,0,1538,1450,1238,1530,1933,1933,1065,1153,1065,1057,1542,1542,1514,1514,1514,1514,998,998,18,0,0,4
521517443,521517443,41,0,0,0,1528,1458,1201,1552,1933,1933,1065,1153,1065,1057,1542,1542,1514,1514,1514,1514,998,998,18,0,0,4
522034993,522034993,41,0,0,0,1504,1468,1198,1553,1933,1933,1065,1153,1065,1057,1542,1542,1514,1514,1514,1514,998,998,18,0,0,4
522535957,522535957,41,0,0,0,1502,1493,1253,1552,1933,1933,1065,1153,1065,1057,1542,1542,1514,1514,1514,1514,998,998,18,0,0,4
523015438,523015438,41,0,0,0,1524,1492,1242,1545,1933,1933,1065,1153,1065,1057,1542,1542,1514,1514,1514,1514,998,998,18,0,0,4
523517585,523517585,41,0,0,0,1497,1497,1240,1498,1933,1933,1065,1153,1065,1057,1542,1542,1514,1514,1514,1514,998,998,18,0,0,4
524033925,524033925,41,0,0,0,1495,1502,1220,1498,1933,1933,1065,1153,1065,1057,1542,1542,1514,1514,1514,1514,998,998,18,0,0,4
524526463,524526463,41,0,0,0,1478,1498,1240,1502,1933,1933,1065,1153,1065,1057,1542,1542,1514,1514,1514,1514,998,998,18,0,0,4
525022553,525022553,41,0,0,0,1441,1495,1214,1522,1933,1933,1065,1153,1065,1057,1542,1542,1514,1514,1514,1514,998,998,18,0,0,4
525524854,525524854,41,0,0,0,1495,1488,1240,1499,1933,1933,1065,1153,1065,1057,1542,1542,1514,1514,1514,1514,998,998,18,0,0,4
526022330,526022330,41,0,0,0,1494,1455,1228,1498,1933,1933,1065,1153,1065,1057,1542,1542,1514,1514,1514,1514,998,998,18,0,0,4
526521625,526521625,41,0,0,0,1410,1444,1218,1499,1933,1933,1065,1153,1065,1057,1542,1542,1514,1514,1514,1514,998,998,18,0,0,4
527021082,527021082,41,0,0,0,1389,1398,1227,1502,1933,1933,1065,1153,1065,1057,1542,1542,1514,1514,1514,1514,998,998,18,0,0,4
527522210,527522210,41,0,0,0,1435,1424,1245,1500,1933,1933,1065,1153,1065,1057,1542,1542,1514,1514,1514,1514,998,998,18,0,0,4
528023225,528023225,41,0,0,0,1483,1422,1222,1498,1933,1933,1065,1153,1065,1057,1542,1542,1514,1514,1514,1514,998,998,18,0,0,4
528522575,528522575,41,0,0,0,1462,1443,1223,1497,1933,1933,1065,1153,1065,1057,1542,1542,1514,1514,1514,1514,998,998,18,0,0,4
529022107,529022107,41,0,0,0,1471,1437,1239,1498,1933,1933,1065,1153,1065,1057,1542,1542,1514,1514,1514,1514,998,998,18,0,0,4
529517394,529517394,41,0,0,0,1420,1459,1215,1498,1933,1933,1065,1153,1065,1057,1542,1542,1514,1514,1514,1514,998,998,18,0,0,4
530036609,530036609,41,0,0,0,1466,1449,1245,1497,1933,1933,1065,1153,1065,1057,1542,1542,1514,1514,1514,1514,998,998,18,0,0,4
530515972,530515972,41,0,0,0,1477,1440,1216,1497,1933,1933,1065,1153,1065,1057,1542,1542,1514,1514,1514,1514,998,998,18,0,0,4
531034008,531034008,41,0,0,0,1462,1433,1222,1498,1933,1933,1065,1153,1065,1057,1542,1542,1514,1514,1514,1514,998,998,18,0,0,4
531533544,531533544,41,0,0,0,1453,1428,1246,1498,1933,1933,1065,1153,1065,1057,1542,1542,1514,1514,1514,1514,998,998,18,0,0,4
