timestamp,timestamp_sample,vibe[0],vibe[1],vibe[2],output_tracking_error[0],output_tracking_error[1],output_tracking_error[2],control_mode_flags,filter_fault_flags,pos_horiz_accuracy,pos_vert_accuracy,mag_test_ratio,vel_test_ratio,pos_test_ratio,hgt_test_ratio,tas_test_ratio,hagl_test_ratio,beta_test_ratio,time_slip,accel_device_id,gyro_device_id,baro_device_id,mag_device_id,gps_check_fail_flags,innovation_check_flags,solution_status_flags,reset_count_vel_ne,reset_count_vel_d,reset_count_pos_ne,reset_count_pod_d,reset_count_quat,pre_flt_fail_innov_heading,pre_flt_fail_innov_vel_horiz,pre_flt_fail_innov_vel_vert,pre_flt_fail_innov_height,pre_flt_fail_mag_field_disturbed,health_flags,timeout_flags
293533453,293532518,1.3581891e-10,1.7988677e-05,0.0007260008,0.0023162323,0.0036662666,0.020727327,67109395,0,0.3107901,0.503542,0.1789437,0.0,0.033101548,0.0064619966,0.0,0.0,0.0,0.004993,3932170,3932170,3997730,396825,0,0,229,1,0,1,0,3,0,0,0,0,0,0,0
293733071,293732236,6.9020845e-10,5.815921e-05,0.002876761,0.0018488746,0.0025421693,0.017377893,531,0,0.3093617,0.50209373,0.14126632,0.0,0.03317139,0.009141038,0.0,0.0,0.0,0.004993,3932170,3932170,3997730,396825,0,0,229,1,0,1,0,3,0,0,0,0,0,0,0
293932900,293931961,8.4814816e-10,6.219869e-05,0.0038118581,0.0016985859,0.0031715361,0.021776577,531,0,0.30793938,0.50066286,0.14046176,0.0,0.033272777,0.0059246244,0.0,0.0,0.0,0.004993,3932170,3932170,3997730,396825,0,0,229,1,0,1,0,3,0,0,0,0,0,0,0
294132602,294131685,8.589057e-10,6.1216924e-05,0.004556008,0.0019058605,0.005599173,0.033614542,531,0,0.30652362,0.5043997,0.14398375,0.0,0.033477727,0.0342637,0.0,0.0,0.0,0.004993,3932170,3932170,3997730,396825,0,0,229,1,0,1,0,3,0,0,0,0,0,0,0
294332202,294331428,1.0151765e-09,6.328423e-05,0.005499815,0.0018544602,0.0057838354,0.035196703,531,0,0.3051145,0.5029396,0.14776565,0.0,0.03363428,0.020800259,0.0,0.0,0.0,0.004993,3932170,3932170,3997730,396825,0,0,229,1,0,1,0,3,0,0,0,0,0,0,0
294532082,294531133,1.1161498e-09,6.4242864e-05,0.0052935337,0.001914466,0.0064771906,0.038099714,531,0,0.3037127,0.5014903,0.12607668,0.0,0.033772536,0.022988567,0.0,0.0,0.0,0.004993,3932170,3932170,3997730,396825,0,0,229,1,0,1,0,3,0,0,0,0,0,0,0
294731781,294730856,2.5747537e-09,6.821505e-05,0.0056891292,0.0016863937,0.004884012,0.028410288,659,0,0.33267027,0.5052287,0.12971294,0.0,0.001863324,0.021874312,0.0,0.0,0.0,0.004993,3932170,3932170,3997730,396825,0,0,229,1,0,1,0,3,0,0,0,0,0,0,0
294931291,294930580,7.555361e-09,9.011945e-05,0.006181371,0.0013667446,0.0042903326,0.018809574,659,0,0.36416435,0.50375766,0.098923765,0.0,0.0022349104,0.0039809817,0.0,0.0,0.0,0.004993,3932170,3932170,3997730,396825,0,0,229,1,0,1,0,3,0,0,0,0,0,0,0
295136200,295135298,3.4535336e-08,0.00013808817,0.007391555,0.0012642727,0.004699463,0.018518614,659,0,0.39818484,0.50227803,0.09757268,0.0,0.0026073996,0.010081624,0.0,0.0,0.0,0.004993,3932170,3932170,3997730,396825,0,0,229,1,0,1,0,3,0,0,0,0,0,0,0
295335733,295335022,5.090636e-08,0.00017560614,0.008486709,0.0012965457,0.0046820017,0.015905842,659,0,0.43474436,0.50084454,0.08943211,0.0,0.0030620522,0.013447195,0.0,0.0,0.0,0.004993,3932170,3932170,3997730,396825,0,0,229,1,0,1,0,3,0,0,0,0,0,0,0
295535748,295534746,6.996834e-08,0.00019069015,0.00856262,0.0011753517,0.0042675845,0.0104688695,659,0,0.4738506,0.5045837,0.05972383,0.0,0.0035477304,0.0023500065,0.0,0.0,0.0,0.004993,3932170,3932170,3997730,396825,0,0,229,1,0,1,0,3,0,0,0,0,0,0,0
295735375,295734470,6.593836e-08,0.00018255309,0.007835903,0.0009710456,0.00439799,0.009996869,659,0,0.5155073,0.5031388,0.07224733,0.0,0.004081953,0.005287903,0.0,0.0,0.0,0.004993,3932170,3932170,3997730,396825,0,0,229,1,0,1,0,3,0,0,0,0,0,0,0
295935044,295934195,6.5771495e-08,0.00017561404,0.0077944775,0.0008666989,0.0042386744,0.009247374,659,0,0.5597271,0.50170994,0.05495004,0.0,0.004637344,0.00811399,0.0,0.0,0.0,0.004993,3932170,3932170,3997730,396825,0,0,229,1,0,1,0,3,0,0,0,0,0,0,0
296134832,296133919,9.0592344e-08,0.0001827731,0.007726655,0.0008810672,0.0034551031,0.0084537165,659,0,0.60710317,0.5002511,0.07516116,0.0,0.004637344,0.012616694,0.0,0.0,0.0,0.004993,3932170,3932170,3997730,396825,0,0,229,1,0,1,0,3,0,0,0,0,0,0,0
296334441,296333650,9.0467424e-08,0.00017782094,0.0067849522,0.00070771837,0.0030591073,0.0076504713,659,0,0.6566407,0.5039797,0.06261549,0.0,0.005111902,0.01941167,0.0,0.0,0.0,0.004993,3932170,3932170,3997730,396825,0,0,229,1,0,1,0,3,0,0,0,0,0,0,0
296733969,296733096,6.419172e-08,0.00014430707,0.005034011,0.00030175323,0.002215961,0.010404672,659,0,0.7635394,0.5010774,0.010873416,0.0,0.0055697546,0.021309702,0.0,0.0,0.0,0.004993,3932170,3932170,3997730,396825,0,0,229,1,0,1,0,3,0,0,0,0,0,0,0
296933674,296932816,6.559663e-08,0.00013787886,0.004322786,0.00048152378,0.00243068,0.012262693,659,0,0.82094514,0.49964347,0.05818437,0.0,0.0058523994,0.015417505,0.0,0.0,0.0,0.004993,3932170,3932170,3997730,396825,0,0,229,1,0,1,0,3,0,0,0,0,0,0,0
297133478,297132541,6.975278e-08,0.00012639967,0.003910259,0.0012005625,0.0023205532,0.0046083913,659,0,0.8809454,0.50334394,0.13728526,0.0,0.006328765,0.009845922,0.0,0.0,0.0,0.004993,3932170,3932170,3997730,396825,0,0,229,1,0,1,0,3,0,0,0,0,0,0,0
297333201,297332266,6.0550384e-08,0.000113966336,0.003503989,0.0018013407,0.0038712455,0.017265685,659,0,0.9434166,0.50185466,0.16747493,0.0,0.0068546506,0.0231387,0.0,0.0,0.0,0.004993,3932170,3932170,3997730,396825,0,0,229,1,0,1,0,3,0,0,0,0,0,0,0
297532801,297531990,6.5199664e-08,0.000104675535,0.0031085513,0.0019312898,0.004571761,0.022052567,659,0,1.0083116,0.5003803,0.13527618,0.0,0.0072974334,0.0114542805,0.0,0.0,0.0,0.004993,3932170,3932170,3997730,396825,0,0,229,1,0,1,0,3,0,0,0,0,0,0,0
297732730,297731714,5.2067275e-08,0.000102188635,0.0029774196,0.0016472393,0.0034364683,0.016967505,659,0,1.0756359,0.5040448,0.115383506,0.0,0.0075100614,0.021875417,0.0,0.0,0.0,0.004993,3932170,3932170,3997730,396825,0,0,229,1,0,1,0,3,0,0,0,0,0,0,0
297932229,297931446,4.939147e-08,9.928396e-05,0.002980865,0.0016417415,0.0031407112,0.015551967,659,0,1.1454507,0.50254625,0.15544377,0.0,0.007490744,0.016440356,0.0,0.0,0.0,0.004993,3932170,3932170,3997730,396825,0,0,229,1,0,1,0,3,0,0,0,0,0,0,0
298131968,298131197,3.696191e-08,8.8197914e-05,0.0027404502,0.0021658805,0.003956216,0.018010657,659,0,1.2176692,0.5010709,0.21461235,0.0,0.007288438,0.020825807,0.0,0.0,0.0,0.004993,3932170,3932170,3997730,396825,0,0,229,1,0,1,0,3,0,0,0,0,0,0,0
298331925,298330889,2.79967e-08,7.4294265e-05,0.0022972606,0.0033324978,0.0064310087,0.025272958,659,0,1.2920871,0.49958983,0.30458957,0.0,0.006888302,0.023777228,0.0,0.0,0.0,0.004993,3932170,3932170,3997730,396825,0,0,229,1,0,1,0,3,0,0,0,0,0,0,0
298731109,298730385,2.0526024e-08,5.9891903e-05,0.0020139602,0.004627108,0.008095641,0.027664762,659,0,1.446568,0.50178957,0.41656747,0.0,0.009411201,0.018382892,0.0,0.0,0.0,0.004993,3932170,3932170,3997730,396825,0,0,229,1,0,1,0,3,0,0,0,0,0,0,0
298930971,298930062,1.94818e-08,5.7562138e-05,0.0019262824,0.005578919,0.010183571,0.0333135,659,0,1.5262663,0.50029826,0.46252176,0.0,0.010882678,0.030410623,0.0,0.0,0.0,0.004993,3932170,3932170,3997730,396825,0,0,229,1,0,1,0,3,0,0,0,0,0,0,0
299135624,299134780,2.1024855e-08,5.605337e-05,0.001704818,0.005745531,0.010401943,0.030746618,659,0,1.6073378,0.4988318,0.482686,0.0,0.01218571,0.00811496,0.0,0.0,0.0,0.004993,3932170,3932170,3997730,396825,0,0,229,1,0,1,0,3,0,0,0,0,0,0,0
299335464,299334504,2.1108896e-08,5.746032e-05,0.0016139965,0.006560356,0.010752717,0.032481473,659,0,1.689468,0.5025163,0.5169968,0.0,0.01334037,0.026634207,0.0,0.0,0.0,0.004993,3932170,3932170,3997730,396825,0,0,229,1,0,1,0,3,0,0,0,0,0,0,0
299534948,299534229,1.8222247e-08,5.4635973e-05,0.0014637965,0.0062994873,0.008884034,0.026244285,659,0,1.7722709,0.5010762,0.5094887,0.0,0.014005504,0.01738655,0.0,0.0,0.0,0.004993,3932170,3932170,3997730,396825,0,0,229,1,0,1,0,3,0,0,0,0,0,0,0
299734842,299733954,2.1158954e-08,4.910941e-05,0.0013550872,0.006707293,0.010140982,0.031770278,659,0,1.855495,0.49960798,0.5309778,0.0,0.014077585,0.0165253,0.0,0.0,0.0,0.004993,3932170,3932170,3997730,396825,0,0,165,1,0,1,0,3,0,0,0,0,0,0,0
299934633,299933680,2.2256792e-08,5.486427e-05,0.0014311747,0.0065986295,0.010330698,0.035497144,659,0,1.9389054,0.49816614,0.5087144,0.0,0.013321139,0.029672805,0.0,0.0,0.0,0.004993,3932170,3932170,3997730,396825,0,0,165,1,0,1,0,3,0,0,0,0,0,0,0
300134168,300133405,2.466807e-08,4.9434584e-05,0.0014006377,0.006334284,0.008942485,0.030973382,659,0,2.0223053,0.5018291,0.5219768,0.0,0.011892068,0.021934686,0.0,0.0,0.0,0.004993,3932170,3932170,3997730,396825,0,0,165,1,0,1,0,3,0,0,0,0,0,0,0
300334191,300333128,2.1048493e-08,4.5780518e-05,0.0012960137,0.0066898502,0.009204608,0.031151678,659,0,2.105415,0.500371,0.52625304,0.0,0.011646798,0.025208935,0.0,0.0,0.0,0.004993,3932170,3932170,3997730,396825,0,0,165,1,0,1,0,3,0,0,0,0,0,0,0
300533599,300532895,1.8247725e-08,4.2785497e-05,0.0012250763,0.006570855,0.007704576,0.020431092,659,0,2.214605,0.49894422,0.5533024,0.0,0.011646798,0.015437495,0.0,0.0,0.0,0.004993,3932170,3932170,3997730,396825,0,0,165,1,0,1,0,3,0,0,0,0,0,0,0
300733466,300732577,1.5530846e-08,3.8979917e-05,0.0011936194,0.0065655764,0.0069618574,0.017387057,659,0,2.299243,0.5026286,0.5616747,0.0,0.014117938,0.025064249,0.0,0.0,0.0,0.004993,3932170,3932170,3997730,396825,0,0,165,1,0,1,0,3,0,0,0,0,0,0,0
300933252,300932302,1.3067463e-08,3.8296996e-05,0.0011851628,0.007287012,0.008392186,0.020660877,659,0,2.3827274,0.50118756,0.58097017,0.0,0.016625877,0.025488272,0.0,0.0,0.0,0.004993,3932170,3932170,3997730,396825,0,0,165,1,0,1,0,3,0,0,0,0,0,0,0
301132814,301132027,1.27098385e-08,3.8332888e-05,0.0012150231,0.007260277,0.008667041,0.022929186,659,0,2.4647317,0.4997811,0.6081393,0.0,0.019385383,0.020424725,0.0,0.0,0.0,0.004993,3932170,3932170,3997730,396825,0,0,165,1,0,1,0,3,0,0,0,0,0,0,0
301332623,301331753,1.0832289e-08,3.6485057e-05,0.0011172096,0.0073078303,0.007758047,0.019300586,659,0,2.5448692,0.49838224,0.6286308,0.0,0.022357777,0.016823135,0.0,0.0,0.0,0.004993,3932170,3932170,3997730,396825,0,0,165,1,0,1,0,3,0,0,0,0,0,0,0
301532428,301531477,1.2007678e-08,3.6812264e-05,0.0010438802,0.008146492,0.009680109,0.024448285,659,0,2.622774,0.5020922,0.65324587,0.0,0.025340816,0.022656072,0.0,0.0,0.0,0.004993,3932170,3932170,3997730,396825,0,0,165,1,0,1,0,3,0,0,0,0,0,0,0
301731969,301731202,1.3114339e-08,3.7148002e-05,0.0010207914,0.008157329,0.009133621,0.024714172,659,0,2.698168,0.500705,0.6822242,0.0,0.028342834,0.020351933,0.0,0.0,0.0,0.004993,3932170,3932170,3997730,396825,0,0,165,1,0,1,0,3,0,0,0,0,0,0,0
301931906,301930926,1.1673601e-08,3.841135e-05,0.0010093336,0.008975151,0.011770212,0.031930715,659,0,2.7707822,0.4993201,0.72151124,0.0,0.03121438,0.010802155,0.0,0.0,0.0,0.004993,3932170,3932170,3997730,396825,0,0,165,1,0,1,0,3,0,0,0,0,0,0,0
302131699,302130657,1.1079627e-08,3.7985665e-05,0.0010203074,0.00888146,0.012110161,0.034973077,659,0,2.840364,0.49794993,0.7316803,0.0,0.034001105,0.010993189,0.0,0.0,0.0,0.004993,3932170,3932170,3997730,396825,0,0,165,1,0,1,0,3,0,0,0,0,0,0,0
302331158,302330377,1.03475415e-08,3.6611025e-05,0.0009886537,0.008623638,0.011392308,0.036415298,659,0,2.9067044,0.5016842,0.7179036,0.0,0.036536526,0.017135061,0.0,0.0,0.0,0.004993,3932170,3932170,3997730,396825,0,0,165,1,0,1,0,3,0,0,0,0,0,0,0
302735644,302734820,1.038095e-08,3.4839923e-05,0.000992183,0.008864384,0.013953176,0.04936536,659,0,3.029055,0.49896532,0.7299209,0.0,0.04005591,0.015285747,0.0,0.0,0.0,0.004993,3932170,3932170,3997730,396825,0,0,165,1,0,1,0,3,0,0,0,0,0,0,0
302935572,302934545,1.0839191e-08,3.454523e-05,0.0009807592,0.009392796,0.015607074,0.051501576,659,0,3.0851824,0.49766937,0.73355865,0.0,0.04085422,0.012168443,0.0,0.0,0.0,0.004993,3932170,3932170,3997730,396825,0,0,165,1,0,1,0,3,0,0,0,0,0,0,0
303134972,303134269,9.081497e-09,3.3639368e-05,0.0010019761,0.008984126,0.014307543,0.050773393,659,0,3.1376026,0.5014975,0.7214912,0.0,0.041320894,0.0111552505,0.0,0.0,0.0,0.004993,3932170,3932170,3997730,396825,0,0,165,1,0,1,0,3,0,0,0,0,0,0,0
303334711,303333995,8.002412e-09,3.2437812e-05,0.0010230556,0.008574292,0.013828185,0.052132208,659,0,3.1862516,0.5002066,0.71500313,0.0,0.041535877,0.007944743,0.0,0.0,0.0,0.004993,3932170,3932170,3997730,396825,0,0,165,1,0,1,0,3,0,0,0,0,0,0,0
303534563,303533723,7.9359905e-09,3.474322e-05,0.0011487087,0.008912012,0.014858362,0.05465224,659,0,3.231217,0.49894142,0.69412917,0.0,0.04152426,0.015576452,0.0,0.0,0.0,0.004993,3932170,3932170,3997730,396825,0,0,165,1,0,1,0,3,0,0,0,0,0,0,0
303734264,303733444,8.8380165e-09,3.5465127e-05,0.0012021875,0.008500632,0.015143645,0.058153115,659,0,3.2726316,0.49771976,0.7055344,0.0,0.041211482,0.018507823,0.0,0.0,0.0,0.004993,3932170,3932170,3997730,396825,0,0,165,1,0,1,0,3,0,0,0,0,0,0,0
303933938,303933169,8.313209e-09,3.330356e-05,0.0011836378,0.00802815,0.014016325,0.060060542,659,0,3.3105316,0.5016263,0.691027,0.0,0.04068691,0.00012821949,0.0,0.0,0.0,0.004993,3932170,3932170,3997730,396825,0,0,165,1,0,1,0,3,0,0,0,0,0,0,0
304133828,304132964,7.565013e-09,3.1683565e-05,0.0011388501,0.008439856,0.014780542,0.061816715,659,0,3.3449125,0.50040656,0.6776456,0.0,0.04004022,0.019659834,0.0,0.0,0.0,0.004993,3932170,3932170,3997730,396825,0,0,165,1,0,1,0,3,0,0,0,0,0,0,0
304333430,304332620,7.676437e-09,3.199253e-05,0.0011087159,0.0079321945,0.014066102,0.064544536,659,0,3.3758523,0.4992249,0.65821207,0.0,0.03931489,0.0023650273,0.0,0.0,0.0,0.004993,3932170,3932170,3997730,396825,0,0,165,1,0,1,0,3,0,0,0,0,0,0,0
304733150,304732071,7.461159e-09,3.2609747e-05,0.0010239318,0.00785817,0.014389208,0.06985785,659,0,3.4279122,0.5019847,0.63818353,0.0,0.03780066,0.012301394,0.0,0.0,0.0,0.004993,3932170,3932170,3997730,396825,0,0,165,1,0,1,0,3,0,0,0,0,0,0,0
304932562,304931795,5.918306e-09,3.1966007e-05,0.00095853367,0.0072819265,0.0037308447,0.008268999,659,0,3.5572166,0.50081706,0.61372375,0.0,0.03780066,0.010761419,0.0,0.0,0.0,0.004993,3932170,3932170,3997730,396825,0,0,165,1,0,1,0,3,0,0,0,0,0,0,0
305132556,305131520,9.5074e-09,3.395173e-05,0.0010358569,0.0072392616,0.0038661908,0.0108918855,659,0,3.5781856,0.49965546,0.56091446,0.0,0.03702792,0.004293533,0.0,0.0,0.0,0.004993,3932170,3932170,3997730,396825,0,0,165,1,0,1,0,3,0,0,0,0,0,0,0
305332015,305331245,1.4406863e-08,3.434003e-05,0.0010566994,0.006803062,0.0029470564,0.014273778,659,0,3.5964136,0.5036975,0.58865094,0.0,0.03625417,0.0045277053,0.0,0.0,0.0,0.004993,3932170,3932170,3997730,396825,0,0,165,1,0,1,0,3,0,0,0,0,0,0,0
305531747,305530971,1.850414e-08,3.7191596e-05,0.0011630717,0.0066954806,0.0027082886,0.016879745,659,0,3.6120493,0.50260574,0.5828941,0.0,0.03547337,0.00075005466,0.0,0.0,0.0,0.004993,3932170,3932170,3997730,396825,0,0,165,1,0,1,0,3,0,0,0,0,0,0,0
305731638,305730696,1.7072773e-08,4.022695e-05,0.001464622,0.007312566,0.0047493083,0.012429523,659,0,3.625154,0.5015112,0.5867653,0.0,0.034694243,0.0075357095,0.0,0.0,0.0,0.004993,3932170,3932170,3997730,396825,0,0,165,1,0,1,0,3,0,0,0,0,0,0,0
305931252,305930420,1.3902519e-08,4.553449e-05,0.0017414659,0.0068164617,0.0038509024,0.014174404,659,0,3.635883,0.50043255,0.5505322,0.0,0.033904385,0.0035461143,0.0,0.0,0.0,0.004993,3932170,3932170,3997730,396825,0,0,165,1,0,1,0,3,0,0,0,0,0,0,0
306131063,306130148,1.2861112e-08,4.9551243e-05,0.0019715521,0.0069632037,0.0043831957,0.015178964,659,0,3.6445212,0.50455654,0.55381805,0.0,0.033152435,0.0092501845,0.0,0.0,0.0,0.004993,3932170,3932170,3997730,396825,0,0,165,1,0,1,0,3,0,0,0,0,0,0,0
306335734,306334864,1.2084256e-08,4.5799185e-05,0.0018869061,0.00646803,0.0038350779,0.015080468,659,0,3.6517715,0.5035366,0.5279999,0.0,0.032337483,0.0020101208,0.0,0.0,0.0,0.004993,3932170,3932170,3997730,396825,0,0,165,1,0,1,0,3,0,0,0,0,0,0,0
306735283,306734315,1.1785627e-08,4.2419026e-05,0.0016130103,0.006279826,0.003097583,0.014424599,659,0,3.6612537,0.5015567,0.51474565,0.0,0.030759953,0.0049765804,0.0,0.0,0.0,0.004993,3932170,3932170,3997730,396825,0,0,165,1,0,1,0,3,0,0,0,0,0,0,0
306934816,306934040,1.07282565e-08,3.8758022e-05,0.0014614859,0.005964205,0.0028331394,0.015398134,659,0,3.6637156,0.50582325,0.5180285,0.0,0.029950188,0.0071317255,0.0,0.0,0.0,0.004993,3932170,3932170,3997730,396825,0,0,165,1,0,1,0,3,0,0,0,0,0,0,0
307134725,307133765,8.989471e-09,3.5954978e-05,0.0012467481,0.0062021217,0.0036068514,0.015330806,659,0,3.6648374,0.50484735,0.4830031,0.0,0.029172089,0.011409445,0.0,0.0,0.0,0.004993,3932170,3932170,3997730,396825,0,0,165,1,0,1,0,3,0,0,0,0,0,0,0
307334323,307333491,7.774794e-09,3.3591918e-05,0.0011360045,0.0058353506,0.003247122,0.016228454,659,0,3.664748,0.503886,0.48715332,0.0,0.028405333,0.014930634,0.0,0.0,0.0,0.004993,3932170,3932170,3997730,396825,0,0,165,1,0,1,0,3,0,0,0,0,0,0,0
307533968,307533216,8.665522e-09,3.1776326e-05,0.0011377761,0.0055994163,0.0031323063,0.017612848,659,0,3.6634886,0.5082119,0.4717766,0.0,0.027623774,0.006471984,0.0,0.0,0.0,0.004993,3932170,3932170,3997730,396825,0,0,165,1,0,1,0,3,0,0,0,0,0,0,0
307733836,307732944,1.0331302e-08,3.1354724e-05,0.0010274627,0.0057977354,0.0032390929,0.018732954,659,0,3.6611562,0.5072057,0.4677504,0.0,0.026867608,0.0015499243,0.0,0.0,0.0,0.004993,3932170,3932170,3997730,396825,0,0,165,1,0,1,0,3,0,0,0,0,0,0,0
307933513,307932668,1.2931261e-08,3.6370355e-05,0.0013417434,0.0056359675,0.003514271,0.020841897,659,0,3.6579797,0.50623393,0.4639075,0.0,0.026163725,0.012957311,0.0,0.0,0.0,0.004993,3932170,3932170,3997730,396825,0,0,165,1,0,1,0,3,0,0,0,0,0,0,0
308133220,308132392,1.3984378e-08,4.3292654e-05,0.0016921683,0.0054047136,0.003044854,0.021837587,659,0,3.6542065,0.5052713,0.468136,0.0,0.025659734,0.0029382557,0.0,0.0,0.0,0.004993,3932170,3932170,3997730,396825,0,0,165,1,0,1,0,3,0,0,0,0,0,0,0
308332997,308332118,1.1255964e-08,4.215669e-05,0.0016343051,0.0057362313,0.0039769057,0.023125142,659,0,3.6499572,0.5096628,0.46895868,0.0,0.025425194,0.011537445,0.0,0.0,0.0,0.004993,3932170,3932170,3997730,396825,0,0,165,1,0,1,0,3,0,0,0,0,0,0,0
308532675,308531843,1.0255706e-08,4.2494474e-05,0.0014343096,0.0055685015,0.0037515403,0.024291854,659,0,3.6451728,0.5087379,0.47377652,0.0,0.025517916,0.010677532,0.0,0.0,0.0,0.004993,3932170,3932170,3997730,396825,0,0,165,1,0,1,0,3,0,0,0,0,0,0,0
308732328,308731569,1.0343872e-08,4.2819927e-05,0.0012600234,0.005418239,0.0026810134,0.023990938,659,0,3.639805,0.5077703,0.4645502,0.0,0.02587662,0.003943548,0.0,0.0,0.0,0.004993,3932170,3932170,3997730,396825,0,0,165,1,0,1,0,3,0,0,0,0,0,0,0
308932266,308931294,1.2163297e-08,4.2154195e-05,0.0011748065,0.0058933836,0.0055270544,0.030166294,659,0,3.6339107,0.5067812,0.49054465,0.0,0.026415896,0.022532022,0.0,0.0,0.0,0.004993,3932170,3932170,3997730,396825,0,0,165,1,0,1,0,3,0,0,0,0,0,0,0
309131976,309131019,1.3741147e-08,4.3446675e-05,0.0010966158,0.005700952,0.0044859108,0.030911235,659,0,3.627636,0.5111812,0.4919174,0.0,0.027265575,0.009648902,0.0,0.0,0.0,0.004993,3932170,3932170,3997730,396825,0,0,165,1,0,1,0,3,0,0,0,0,0,0,0
309331827,309330745,1.625206e-08,4.3055166e-05,0.0010845835,0.0060534156,0.009155483,0.03222085,659,0,3.7463732,0.5101489,0.48793563,0.0,0.027265575,0.01767262,0.0,0.0,0.0,0.004993,3932170,3932170,3997730,396825,0,0,165,1,0,1,0,3,0,0,0,0,0,0,0
309531367,309530472,1.353424e-08,3.818839e-05,0.0010650017,0.005930653,0.008747664,0.031184886,659,0,3.7393308,0.50912565,0.502175,0.0,0.028396187,0.005197731,0.0,0.0,0.0,0.004993,3932170,3932170,3997730,396825,0,0,165,1,0,1,0,3,0,0,0,0,0,0,0
309736286,309735189,1.1114698e-08,3.4507626e-05,0.0010578235,0.0062941005,0.012117964,0.0361708,659,0,3.7322233,0.50810117,0.5218048,0.0,0.02957886,0.011525592,0.0,0.0,0.0,0.004993,3932170,3932170,3997730,396825,0,0,165,1,0,1,0,3,0,0,0,0,0,0,0
309935800,309934914,9.077594e-09,3.357237e-05,0.0011173941,0.0064109704,0.009952545,0.030832535,659,0,3.725554,0.5125947,0.5454143,0.0,0.030913694,0.01310252,0.0,0.0,0.0,0.004993,3932170,3932170,3997730,396825,0,0,165,1,0,1,0,3,0,0,0,0,0,0,0
310135425,310134640,8.4864435e-09,3.3088156e-05,0.0010332234,0.006228628,0.008697059,0.02747052,659,0,3.7188554,0.5116142,0.54763806,0.0,0.03266424,0.010109029,0.0,0.0,0.0,0.004993,3932170,3932170,3997730,396825,0,0,165,1,0,1,0,3,0,0,0,0,0,0,0
310335314,310334365,7.3059336e-09,3.0583975e-05,0.0009660228,0.006765718,0.010901136,0.032540094,659,0,3.712099,0.51059335,0.56604844,0.0,0.034681965,0.010239112,0.0,0.0,0.0,0.004993,3932170,3932170,3997730,396825,0,0,165,1,0,1,0,3,0,0,0,0,0,0,0
310534996,310534091,6.3781904e-09,3.3008775e-05,0.000986793,0.006836733,0.010634416,0.034331076,659,0,3.70531,0.51508445,0.5989409,0.0,0.036787074,0.015186505,0.0,0.0,0.0,0.004993,3932170,3932170,3997730,396825,0,0,165,1,0,1,0,3,0,0,0,0,0,0,0
310734536,310733816,5.3270286e-09,3.518038e-05,0.0009721606,0.006825589,0.009902319,0.03444012,659,0,3.6984677,0.51404893,0.61355317,0.0,0.038906407,0.005171561,0.0,0.0,0.0,0.004993,3932170,3932170,3997730,396825,0,0,165,1,0,1,0,3,0,0,0,0,0,0,0
310934440,310933541,4.9339057e-09,3.504774e-05,0.0009374765,0.007420746,0.01313088,0.043156136,659,0,3.6916013,0.512984,0.6234549,0.0,0.04097885,0.016263578,0.0,0.0,0.0,0.004993,3932170,3932170,3997730,396825,0,0,165,1,0,1,0,3,0,0,0,0,0,0,0
312137659,312136888,1.3221904e-08,4.0062263e-05,0.0011217776,0.022666836,0.024842788,0.07808639,8389267,0,3.6515467,0.51765275,0.025474047,0.0,0.05292684,0.016946431,0.0,0.0,0.0,0.004993,3932170,3932170,3997730,396825,0,0,165,1,0,1,0,4,0,0,0,0,0,0,0
312337585,312336615,1.3936059e-08,3.9050115e-05,0.0010972056,0.0056851646,0.030165955,0.09430465,8389267,0,3.6423376,0.516301,0.010510086,0.0,0.054626778,0.013034926,0.0,0.0,0.0,0.004993,3932170,3932170,3997730,396825,0,0,165,1,0,1,0,4,0,0,0,0,0,0,0
312736912,312736120,1.2287329e-08,3.7121346e-05,0.0010039285,0.0023136323,0.030244125,0.100709304,8389267,0,3.619391,0.51316756,0.011197942,0.0,0.05783163,0.019487502,0.0,0.0,0.0,0.004993,3932170,3932170,3997730,396825,0,0,165,1,0,1,0,4,0,0,0,0,0,0,0
312936739,312935790,1.3766371e-08,4.017682e-05,0.00096376374,0.0038165736,0.029701678,0.10612469,8389267,0,3.6060882,0.51713276,0.023244377,0.0,0.059326205,0.024141354,0.0,0.0,0.0,0.004993,3932170,3932170,3997730,396825,0,0,165,1,0,1,0,4,0,0,0,0,0,0,0
313136266,313135518,1.6494894e-08,3.99755e-05,0.0009314446,0.004477937,0.025476832,0.105025925,8389267,0,3.5918438,0.51555395,0.03756624,0.0,0.060811736,0.038265694,0.0,0.0,0.0,0.004993,3932170,3932170,3997730,396825,0,0,165,1,0,1,0,4,0,0,0,0,0,0,0
313336013,313335242,2.2036694e-08,3.895286e-05,0.0011340547,0.0049424283,0.022863371,0.10948893,8389267,0,3.5768628,0.51418096,0.05489347,0.0,0.062132925,0.036546245,0.0,0.0,0.0,0.004993,3932170,3932170,3997730,396825,0,0,165,1,0,1,0,4,0,0,0,0,0,0,0
313735652,313734693,2.1969457e-08,4.5408513e-05,0.0015779501,0.005566596,0.021206414,0.12336857,8389267,0,3.5454328,0.5179903,0.068870835,0.0,0.064255215,0.03487485,0.0,0.0,0.0,0.004993,3932170,3932170,3997730,396825,0,0,165,1,0,1,0,4,0,0,0,0,0,0,0
313935365,313934419,2.1881599e-08,4.9162838e-05,0.0017308311,0.0054094438,0.009950842,0.016976876,8389267,0,3.6449678,0.5176648,0.071506254,0.0,0.064255215,0.052239254,0.0,0.0,0.0,0.004993,3932170,3932170,3997730,396825,0,0,165,1,0,1,0,4,0,0,0,0,0,0,0
314135061,314134144,2.1994778e-08,5.035499e-05,0.0018058455,0.0052341716,0.0055109016,0.026053153,8389267,0,3.6275,0.5178419,0.06388524,0.0,0.06496406,0.0557085,0.0,0.0,0.0,0.004993,3932170,3932170,3997730,396825,0,0,165,1,0,1,0,4,0,0,0,0,0,0,0
314334623,314333869,2.0663183e-08,4.6547346e-05,0.0015948309,0.0036953809,0.0060992045,0.017945446,8389267,0,3.61018,0.5243721,0.046295106,0.0,0.065345675,0.05326783,0.0,0.0,0.0,0.004993,3932170,3932170,3997730,396825,0,0,165,1,0,1,0,4,0,0,0,0,0,0,0
314734222,314733320,1.6718996e-08,4.0691335e-05,0.0011849345,0.0014322797,0.0035061727,0.038995102,8389267,0,3.5765698,0.5276211,0.022757132,0.0,0.0652917,0.064032964,0.0,0.0,0.0,0.004993,3932170,3932170,3997730,396825,0,0,165,1,0,1,0,4,0,0,0,0,0,0,0
314933839,314933047,1.4814357e-08,3.9931387e-05,0.0010349265,0.0010603331,0.008569943,0.053628735,8389267,0,3.5605466,0.53006375,0.03391594,0.0,0.065022044,0.070155926,0.0,0.0,0.0,0.004993,3932170,3932170,3997730,396825,0,0,165,1,0,1,0,4,0,0,0,0,0,0,0
315133676,315132772,1.2425999e-08,3.919835e-05,0.00093500305,0.00028841113,0.0073371967,0.043793943,8389267,0,3.5452125,0.53935415,0.005190377,0.0,0.064583704,0.07356422,0.0,0.0,0.0,0.004993,3932170,3932170,3997730,396825,0,0,165,1,0,1,0,4,0,0,0,0,0,0,0
315333201,315332497,1.02381295e-08,3.738202e-05,0.0008957159,0.0004986257,0.013527501,0.062462654,8389267,0,3.5306742,0.54294056,0.026730172,0.0,0.06396568,0.08141225,0.0,0.0,0.0,0.004993,3932170,3932170,3997730,396825,0,0,165,1,0,1,0,4,0,0,0,0,0,0,0
315532977,315532260,1.0194127e-08,3.5754925e-05,0.0009020551,0.001444492,0.016879141,0.06994189,8389267,0,3.517001,0.5468587,0.03556447,0.0,0.06322864,0.07620275,0.0,0.0,0.0,0.004993,3932170,3932170,3997730,396825,0,0,165,1,0,1,0,4,0,0,0,0,0,0,0
315732905,315731949,1.1523593e-08,3.6462126e-05,0.0008287613,0.0025874097,0.022215787,0.08357602,8389267,0,3.5042746,0.55100614,0.07247066,0.0,0.06248388,0.08057578,0.0,0.0,0.0,0.004993,3932170,3932170,3997730,396825,0,0,165,1,0,1,0,4,0,0,0,0,0,0,0
315932467,315931675,1.0402256e-08,3.475295e-05,0.00086508004,0.0040245974,0.017241245,0.0628597,8389267,0,3.4926026,0.56251526,0.12581015,0.0,0.061608497,0.08868849,0.0,0.0,0.0,0.004993,3932170,3932170,3997730,396825,0,0,165,1,0,1,0,4,0,0,0,0,0,0,0
316132358,316131401,1.0768185e-08,3.801189e-05,0.00088977936,0.0054982556,0.022055678,0.0759618,8389267,0,3.481991,0.5670213,0.13325289,0.0,0.0604792,0.075354956,0.0,0.0,0.0,0.004993,3932170,3932170,3997730,396825,0,0,165,1,0,1,0,4,0,0,0,0,0,0,0
316337008,316336119,1.3957221e-08,3.7551265e-05,0.000908392,0.0054048295,0.027596718,0.09116206,8389267,0,3.4724946,0.57146233,0.14934054,0.0,0.059046194,0.08390673,0.0,0.0,0.0,0.004993,3932170,3932170,3997730,396825,0,0,165,1,0,1,0,4,0,0,0,0,0,0,0
316536728,316535845,1.191101e-08,3.7923346e-05,0.00095901167,0.006074512,0.031951997,0.099949524,8389267,0,3.4645019,0.57583034,0.19477281,0.0,0.057423756,0.07830378,0.0,0.0,0.0,0.004993,3932170,3932170,3997730,396825,0,0,165,1,0,1,0,4,0,0,0,0,0,0,0
316736442,316735570,1.5764979e-08,4.132599e-05,0.0012419019,0.0068897004,0.020707997,0.064060375,8389267,0,3.457813,0.5882074,0.19587655,0.0,0.055952743,0.07718755,0.0,0.0,0.0,0.004993,3932170,3932170,3997730,396825,0,0,165,1,0,1,0,4,0,0,0,0,0,0,0
316936083,316935322,1.646571e-08,4.4873355e-05,0.0015377629,0.0067495494,0.024860965,0.07556374,8389267,0,3.4525003,0.5923352,0.22467253,0.0,0.054583866,0.08287623,0.0,0.0,0.0,0.004993,3932170,3932170,3997730,396825,0,0,165,1,0,1,0,4,0,0,0,0,0,0,0
317136072,317135022,1.6080358e-08,4.380097e-05,0.001489929,0.007965838,0.031068498,0.09327355,8389267,0,3.44856,0.59606093,0.25557482,0.0,0.053221505,0.07925919,0.0,0.0,0.0,0.004993,3932170,3932170,3997730,396825,0,0,165,1,0,1,0,4,0,0,0,0,0,0,0
317330602,317329755,1.430363e-08,4.450408e-05,0.0014544762,0.008527081,0.023339456,0.066693954,8389267,0,3.441072,0.6062497,0.27042285,0.0,0.051871516,0.08225743,0.0,0.0,0.0,0.004993,3932170,3932170,3997730,396825,0,0,165,1,0,1,0,4,0,0,0,0,0,0,0
317530259,317529481,1.389935e-08,4.7018933e-05,0.0014338255,0.008488054,0.024724413,0.07355032,8389267,0,3.4398482,0.6091701,0.28596374,0.0,0.050640207,0.080577835,0.0,0.0,0.0,0.004993,3932170,3932170,3997730,396825,0,0,165,1,0,1,0,4,0,0,0,0,0,0,0
317729917,317729206,1.4440619e-08,4.6227506e-05,0.0014735208,0.008273647,0.025589727,0.07826385,8389267,0,3.439756,0.61140066,0.29362935,0.0,0.049251977,0.082441665,0.0,0.0,0.0,0.004993,3932170,3932170,3997730,396825,0,0,165,1,0,1,0,4,0,0,0,0,0,0,0
317929858,317928932,1.4361537e-08,4.5981553e-05,0.001475836,0.008811181,0.028245596,0.08699257,8389267,0,3.4408436,0.6130487,0.30976602,0.0,0.04780228,0.08874602,0.0,0.0,0.0,0.004993,3932170,3932170,3997730,396825,0,0,165,1,0,1,0,4,0,0,0,0,0,0,0
318129548,318128658,1.1898659e-08,4.3493208e-05,0.0014251303,0.008688026,0.018254543,0.06490284,8389267,0,3.4430954,0.6238153,0.3278742,0.0,0.046449736,0.07928265,0.0,0.0,0.0,0.004993,3932170,3932170,3997730,396825,0,0,165,1,0,1,0,4,0,0,0,0,0,0,0
318339332,318338370,9.512115e-09,4.0674757e-05,0.0013617992,0.009053704,0.018932123,0.066056855,8389267,0,3.451972,0.62626934,0.33964616,0.0,0.045276623,0.07392117,0.0,0.0,0.0,0.004993,3932170,3932170,3997730,396825,0,0,165,1,0,1,0,4,0,0,0,0,0,0,0
318538887,318538095,8.385418e-09,3.8588827e-05,0.001224568,0.00892264,0.020416334,0.07310501,8389267,0,3.5650325,0.6262029,0.37036568,0.0,0.045276623,0.08829977,0.0,0.0,0.0,0.004993,3932170,3932170,3997730,396825,0,0,165,1,0,1,0,4,0,0,0,0,0,0,0
318738839,318737823,7.3143562e-09,3.5040444e-05,0.0011635912,0.009640525,0.023206366,0.07730203,8389267,0,3.5715075,0.62555486,0.37472552,0.0,0.04422231,0.07591908,0.0,0.0,0.0,0.004993,3932170,3932170,3997730,396825,0,0,165,1,0,1,0,4,0,0,0,0,0,0,0
318938303,318937547,6.59957e-09,3.8639708e-05,0.0011162787,0.009251666,0.010518985,0.050883666,8389267,0,3.5788913,0.6346395,0.3821121,0.0,0.04329764,0.07487621,0.0,0.0,0.0,0.004993,3932170,3932170,3997730,396825,0,0,165,1,0,1,0,4,0,0,0,0,0,0,0
319138200,319137272,9.561331e-09,4.1701085e-05,0.0010645643,0.009690743,0.010851448,0.049913853,8389267,0,3.586989,0.63296103,0.38253698,0.0,0.042518422,0.07813808,0.0,0.0,0.0,0.004993,3932170,3932170,3997730,396825,0,0,165,1,0,1,0,4,0,0,0,0,0,0,0
319337854,319336999,9.4962544e-09,3.6162073e-05,0.0010170384,0.009061723,0.01644335,0.059635498,8389267,0,3.5957108,0.63070256,0.37237406,0.0,0.041888747,0.072193064,0.0,0.0,0.0,0.004993,3932170,3932170,3997730,396825,0,0,165,1,0,1,0,4,0,0,0,0,0,0,0
319537511,319536724,9.6727355e-09,3.6656857e-05,0.0009767321,0.008318638,0.015907666,0.056291558,8389267,0,3.6050417,0.6280876,0.3738474,0.0,0.041404963,0.083402656,0.0,0.0,0.0,0.004993,3932170,3932170,3997730,396825,0,0,165,1,0,1,0,4,0,0,0,0,0,0,0
319737477,319736450,8.536642e-09,3.337622e-05,0.00086341373,0.008606255,0.0052566454,0.037143867,8389267,0,3.6149178,0.6354016,0.3790419,0.0,0.040862545,0.05657289,0.0,0.0,0.0,0.004993,3932170,3932170,3997730,396825,0,0,165,1,0,1,0,4,0,0,0,0,0,0,0
319936905,319936178,7.922637e-09,3.1695017e-05,0.0008716147,0.008063529,0.0059056967,0.033481542,8389267,0,3.6252484,0.6320412,0.34948102,0.0,0.040466264,0.06190242,0.0,0.0,0.0,0.004993,3932170,3932170,3997730,396825,0,0,165,1,0,1,0,4,0,0,0,0,0,0,0
320136604,320135901,9.529217e-09,3.2919652e-05,0.00086875114,0.0072658546,0.008942533,0.03570029,8389267,0,3.6359422,0.62848157,0.3451068,0.0,0.040132664,0.07408055,0.0,0.0,0.0,0.004993,3932170,3932170,3997730,396825,0,0,165,1,0,1,0,4,0,0,0,0,0,0,0
320336594,320335627,1.102546e-08,3.5425714e-05,0.0009880499,0.0073949695,0.005496487,0.035074327,8389267,0,3.6469429,0.63491476,0.32737914,0.0,0.039861895,0.06172629,0.0,0.0,0.0,0.004993,3932170,3932170,3997730,396825,0,0,165,1,0,1,0,4,0,0,0,0,0,0,0
320735835,320735078,8.464581e-09,3.5433342e-05,0.0009797404,0.0060652597,0.004113356,0.023699993,8389267,0,3.6693566,0.62668276,0.30496785,0.0,0.03928331,0.060272336,0.0,0.0,0.0,0.004993,3932170,3932170,3997730,396825,0,0,165,1,0,1,0,4,0,0,0,0,0,0,0
320935741,320934805,9.188876e-09,3.8357524e-05,0.001090468,0.0059165535,0.0021730948,0.014941291,8389267,0,3.680337,0.6223943,0.27296788,0.0,0.038896497,0.062390577,0.0,0.0,0.0,0.004993,3932170,3932170,3997730,396825,0,0,165,1,0,1,0,4,0,0,0,0,0,0,0
321135331,321134530,1.1959729e-08,3.9569677e-05,0.0011958797,0.0052489904,0.010093883,0.0367789,8389267,0,3.6909811,0.6278294,0.2737486,0.0,0.03852373,0.06721673,0.0,0.0,0.0,0.004993,3932170,3932170,3997730,396825,0,0,165,1,0,1,0,4,0,0,0,0,0,0,0
321335238,321334262,1.497419e-08,3.877499e-05,0.0012664786,0.005208296,0.007193305,0.024984702,8389267,0,3.7013109,0.6231625,0.23703106,0.0,0.038145404,0.06648099,0.0,0.0,0.0,0.004993,3932170,3932170,3997730,396825,0,0,165,1,0,1,0,4,0,0,0,0,0,0,0
321734481,321733707,1.4526418e-08,3.3214277e-05,0.0010274248,0.0043568355,0.0076227346,0.021513106,8389267,0,3.7210352,0.6137731,0.21725544,0.0,0.037083987,0.051432423,0.0,0.0,0.0,0.004993,3932170,3932170,3997730,396825,0,0,165,1,0,1,0,4,0,0,0,0,0,0,0
321934297,321933433,1.1528315e-08,3.0622286e-05,0.0010013924,0.004166716,0.015750084,0.051743396,8389267,0,3.730164,0.61859715,0.20505737,0.0,0.036412816,0.04501345,0.0,0.0,0.0,0.004993,3932170,3932170,3997730,396825,0,0,165,1,0,1,0,4,0,0,0,0,0,0,0
322133940,322133158,8.905694e-09,2.9579242e-05,0.00096480537,0.0035148815,0.014717311,0.046058293,8389267,0,3.7386458,0.6137015,0.16883686,0.0,0.03566775,0.044791263,0.0,0.0,0.0,0.004993,3932170,3932170,3997730,396825,0,0,165,1,0,1,0,4,0,0,0,0,0,0,0
322333691,322332885,7.648652e-09,3.0377723e-05,0.0009776761,0.0029076056,0.013813169,0.04148015,8389267,0,3.7463808,0.6088538,0.14708841,0.0,0.034830716,0.054472163,0.0,0.0,0.0,0.004993,3932170,3932170,3997730,396825,0,0,165,1,0,1,0,4,0,0,0,0,0,0,0
322733052,322732336,6.943558e-09,2.8938868e-05,0.00086341857,0.0017956254,0.01951982,0.06870577,8389267,0,3.900245,0.6083503,0.07380386,0.0,0.033846717,0.04847655,0.0,0.0,0.0,0.004993,3932170,3932170,3997730,396825,0,0,165,1,0,1,0,4,0,0,0,0,0,0,0
322932827,322932062,7.839427e-09,3.170249e-05,0.0008891574,0.0012686475,0.019733313,0.06652769,8389267,0,3.9067914,0.60345435,0.06572994,0.0,0.032680668,0.038801946,0.0,0.0,0.0,0.004993,3932170,3932170,3997730,396825,0,0,165,1,0,1,0,4,0,0,0,0,0,0,0
323132802,323131788,6.8084103e-09,3.3686643e-05,0.00089501607,0.0009051627,0.018797016,0.061548743,8389267,0,3.9124625,0.59861314,0.023603288,0.0,0.031370237,0.042419117,0.0,0.0,0.0,0.004993,3932170,3932170,3997730,396825,0,0,165,1,0,1,0,4,0,0,0,0,0,0,0
323332271,323331513,5.9398957e-09,3.5305387e-05,0.00096205826,0.000604176,0.02333822,0.07416517,8389267,0,3.9170997,0.6025957,0.01638923,0.0,0.030036645,0.039385267,0.0,0.0,0.0,0.004993,3932170,3932170,3997730,396825,0,0,165,1,0,1,0,4,0,0,0,0,0,0,0
323731783,323730965,7.96451e-09,3.5528366e-05,0.0009905328,0.0002535643,0.016022353,0.047807787,8389267,0,3.9232533,0.59289175,0.022313563,0.0,0.02723615,0.06557788,0.0,0.0,0.0,0.004993,3932170,3932170,3997730,396825,0,0,165,1,0,1,0,4,0,0,0,0,0,0,0
323936652,323935734,7.787951e-09,3.2729473e-05,0.0008848603,0.00045580874,0.0146657815,0.045861647,8389267,0,3.925627,0.5882542,0.04670294,0.0,0.025751224,0.05525742,0.0,0.0,0.0,0.004993,3932170,3932170,3997730,396825,0,0,165,1,0,1,0,4,0,0,0,0,0,0,0
324136349,324135409,6.7815535e-09,3.2265718e-05,0.000837845,0.0005337082,0.018627387,0.054489203,8389267,0,3.9271872,0.59203875,0.05105196,0.0,0.024327254,0.05421338,0.0,0.0,0.0,0.004993,3932170,3932170,3997730,396825,0,0,165,1,0,1,0,4,0,0,0,0,0,0,0
324335961,324335136,5.6171006e-09,3.1093892e-05,0.00082657154,0.00059865514,0.016520612,0.048055008,8389267,0,3.9279385,0.5874647,0.056948356,0.0,0.022852765,0.053711306,0.0,0.0,0.0,0.004993,3932170,3932170,3997730,396825,0,0,165,1,0,1,0,4,0,0,0,0,0,0,0
324735413,324734587,4.8231303e-09,3.1856533e-05,0.0007785923,0.00028606076,0.011190204,0.0395322,8389267,0,3.9270337,0.5785947,0.0398708,0.0,0.019633023,0.05359781,0.0,0.0,0.0,0.004993,3932170,3932170,3997730,396825,0,0,165,1,0,1,0,4,0,0,0,0,0,0,0
324935189,324934313,4.253416e-09,3.3922504e-05,0.0008778544,8.972285e-05,0.015005752,0.04777323,8389267,0,3.925332,0.5822147,0.003826599,0.0,0.01790508,0.05256421,0.0,0.0,0.0,0.004993,3932170,3932170,3997730,396825,0,0,165,1,0,1,0,4,0,0,0,0,0,0,0
325134981,325134039,5.190502e-09,3.353357e-05,0.0009037915,0.00038200794,0.011867613,0.042121757,8389267,0,3.922751,0.5778533,0.017573707,0.0,0.01616603,0.053027272,0.0,0.0,0.0,0.004993,3932170,3932170,3997730,396825,0,0,165,1,0,1,0,4,0,0,0,0,0,0,0
325334527,325333765,5.0838196e-09,3.2941352e-05,0.00087918737,0.0004868085,0.0098527605,0.039808318,8389267,0,3.9193504,0.5735581,0.015016095,0.0,0.014437047,0.058726497,0.0,0.0,0.0,0.004993,3932170,3932170,3997730,396825,0,0,165,1,0,1,0,4,0,0,0,0,0,0,0
325734178,325733216,5.6911618e-09,3.2946795e-05,0.00082847837,0.0009071763,0.0104187485,0.04276971,8389267,0,3.9104977,0.5727755,0.06366893,0.0,0.011068175,0.055859122,0.0,0.0,0.0,0.004993,3932170,3932170,3997730,396825,0,0,165,1,0,1,0,4,0,0,0,0,0,0,0
325933665,325932941,5.663268e-09,3.2706866e-05,0.00082455465,0.0010847235,0.009604863,0.04263976,8389267,0,3.905217,0.56862277,0.07906761,0.0,0.009428838,0.054398905,0.0,0.0,0.0,0.004993,3932170,3932170,3997730,396825,0,0,165,1,0,1,0,4,0,0,0,0,0,0,0
326133605,326132668,6.4359065e-09,3.310522e-05,0.0009371032,0.00154868,0.008163018,0.042936012,8389267,0,3.8993905,0.56454325,0.10121319,0.0,0.007890769,0.05412763,0.0,0.0,0.0,0.004993,3932170,3932170,3997730,396825,0,0,165,1,0,1,0,4,0,0,0,0,0,0,0
326333180,326332394,5.6417466e-09,3.311067e-05,0.0009201976,0.001817041,0.01012216,0.047808956,8389267,0,3.8930235,0.56790715,0.12685995,0.0,0.0063957726,0.058776397,0.0,0.0,0.0,0.004993,3932170,3932170,3997730,396825,0,0,165,1,0,1,0,4,0,0,0,0,0,0,0
326732763,326731845,6.9810064e-09,3.730323e-05,0.0009445061,0.0023059566,0.008856043,0.050384164,8389267,0,3.8788204,0.5599072,0.138698,0.0,0.0033864786,0.06830763,0.0,0.0,0.0,0.004993,3932170,3932170,3997730,396825,0,0,165,1,0,1,0,4,0,0,0,0,0,0,0
326937411,326936567,7.3155584e-09,3.729185e-05,0.00092837715,0.0024259293,0.010312069,0.058398638,8389267,0,3.871474,0.55601895,0.17349534,0.0,0.0020136754,0.06836196,0.0,0.0,0.0,0.004993,3932170,3932170,3997730,396825,0,0,165,1,0,1,0,4,0,0,0,0,0,0,0
327137324,327136290,6.849661e-09,3.7056314e-05,0.00091540185,0.0025823868,0.010041066,0.054014195,8389267,0,3.8637545,0.5593004,0.15084451,0.0,0.002434047,0.07714341,0.0,0.0,0.0,0.004993,3932170,3932170,3997730,396825,0,0,165,1,0,1,0,4,0,0,0,0,0,0,0
327336726,327336015,5.874256e-09,3.500991e-05,0.00096986734,0.0025454604,0.009407149,0.052106813,8389267,0,4.008192,0.5555516,0.18322669,0.0,0.002434047,0.06543138,0.0,0.0,0.0,0.004993,3932170,3932170,3997730,396825,0,0,165,1,0,1,0,4,0,0,0,0,0,0,0
327736393,327735479,7.675639e-09,3.597753e-05,0.00097590964,0.0028493302,0.009131678,0.051723484,8389267,0,3.990775,0.5482963,0.18391778,0.0,0.0033918102,0.0697553,0.0,0.0,0.0,0.004993,3932170,3932170,3997730,396825,0,0,165,1,0,1,0,4,0,0,0,0,0,0,0
327935950,327935193,6.6660375e-09,3.545783e-05,0.0009780902,0.002730295,0.0074778763,0.042249497,8389267,0,3.981643,0.5515524,0.18891342,0.0,0.003983487,0.0726106,0.0,0.0,0.0,0.004993,3932170,3932170,3997730,396825,0,0,165,1,0,1,0,4,0,0,0,0,0,0,0
328135844,328134919,7.3678823e-09,3.7588332e-05,0.0009951931,0.0029481542,0.0072546583,0.04118129,8389267,0,3.9722395,0.54803747,0.19336347,0.0,0.004815328,0.0698862,0.0,0.0,0.0,0.004993,3932170,3932170,3997730,396825,0,0,165,1,0,1,0,4,0,0,0,0,0,0,0
328335596,328334645,8.240566e-09,3.8938513e-05,0.00095808,0.002813112,0.0071514733,0.042147506,8389267,0,3.9626062,0.5445887,0.18800388,0.0,0.005862286,0.059379615,0.0,0.0,0.0,0.004993,3932170,3932170,3997730,396825,0,0,165,1,0,1,0,4,0,0,0,0,0,0,0
328735163,328734096,7.0865505e-09,3.5333785e-05,0.00082927593,0.0027269993,0.008074622,0.041336782,8389267,0,3.9429057,0.54437155,0.16675784,0.0,0.008300158,0.06725434,0.0,0.0,0.0,0.004993,3932170,3932170,3997730,396825,0,0,165,1,0,1,0,4,0,0,0,0,0,0,0
328934782,328933822,6.152975e-09,3.2031705e-05,0.0008125914,0.00264166,0.007956269,0.04250593,8389267,0,3.9329572,0.5410293,0.1642464,0.0,0.009513911,0.06217627,0.0,0.0,0.0,0.004993,3932170,3932170,3997730,396825,0,0,165,1,0,1,0,4,0,0,0,0,0,0,0
329134331,329133552,8.523305e-09,3.2645148e-05,0.0007783059,0.0025035283,0.00837047,0.046436712,8389267,0,3.9229426,0.5377508,0.1630872,0.0,0.01066883,0.07327081,0.0,0.0,0.0,0.004993,3932170,3932170,3997730,396825,0,0,165,1,0,1,0,4,0,0,0,0,0,0,0
329334244,329333273,1.0297422e-08,3.4407363e-05,0.0008230851,0.0025981884,0.009116739,0.044301536,8389267,0,3.9128916,0.5409007,0.17810093,0.0,0.0116417715,0.06910605,0.0,0.0,0.0,0.004993,3932170,3932170,3997730,396825,0,0,165,1,0,1,0,4,0,0,0,0,0,0,0
329733431,329732725,1.6127418e-08,3.763301e-05,0.0009655057,0.0024601454,0.0077919955,0.04487605,8389267,0,3.892492,0.5345248,0.1748028,0.0,0.012531902,0.077721626,0.0,0.0,0.0,0.004993,3932170,3932170,3997730,396825,0,0,165,1,0,1,0,4,0,0,0,0,0,0,0
329933356,329932450,1.3202309e-08,3.7121124e-05,0.00096428755,0.0026526637,0.008053056,0.049569003,8389267,0,3.8822193,0.53141963,0.18549524,0.0,0.012391476,0.07501791,0.0,0.0,0.0,0.004993,3932170,3932170,3997730,396825,0,0,165,1,0,1,0,4,0,0,0,0,0,0,0
330132893,330132184,1.0334713e-08,3.5925492e-05,0.0010080745,0.002753904,0.008154368,0.046421777,8389267,0,3.8721097,0.5345423,0.20893319,0.0,0.012328496,0.0730467,0.0,0.0,0.0,0.004993,3932170,3932170,3997730,396825,0,0,165,1,0,1,0,4,0,0,0,0,0,0,0
330332846,330331902,8.078443e-09,3.4723147e-05,0.0010255758,0.003521952,0.0086472705,0.050280422,8389267,0,3.8623073,0.53153247,0.26128304,0.0,0.012376548,0.06464825,0.0,0.0,0.0,0.004993,3932170,3932170,3997730,396825,0,0,165,1,0,1,0,4,0,0,0,0,0,0,0
330732170,330731354,6.933765e-09,3.4191806e-05,0.0009469539,0.0045374325,0.011530945,0.063010536,8389267,0,3.8433895,0.52572936,0.35953572,0.0,0.015313195,0.08404019,0.0,0.0,0.0,0.004993,3932170,3932170,3997730,396825,0,0,165,1,0,1,0,4,0,0,0,0,0,0,0
330932020,330931079,6.5880674e-09,3.6122638e-05,0.0009650795,0.005346391,0.010534712,0.059417266,8389267,0,3.834062,0.52887946,0.41769823,0.0,0.016737707,0.0677805,0.0,0.0,0.0,0.004993,3932170,3932170,3997730,396825,0,0,165,1,0,1,0,4,0,0,0,0,0,0,0
331131639,331130806,7.49254e-09,3.900426e-05,0.001029299,0.0057047284,0.012727936,0.06768695,8389267,0,3.824673,0.52601266,0.44855165,0.0,0.018021515,0.06667828,0.0,0.0,0.0,0.004993,3932170,3932170,3997730,396825,0,0,165,1,0,1,0,4,0,0,0,0,0,0,0
331336527,331335565,8.349803e-09,4.1539937e-05,0.0010098987,0.006484816,0.017344374,0.079518,8389267,0,3.815693,0.5231947,0.4831444,0.0,0.019088766,0.074408695,0.0,0.0,0.0,0.004993,3932170,3932170,3997730,396825,0,0,165,1,0,1,0,4,0,0,0,0,0,0,0
331735790,331734977,8.55059e-09,3.7853246e-05,0.0009412861,0.006837241,0.006553576,0.022934055,8389267,0,3.9435596,0.5236306,0.55202746,0.0,0.020369451,0.073665336,0.0,0.0,0.0,0.004993,3932170,3932170,3997730,396825,0,0,165,1,0,1,0,4,0,0,0,0,0,0,0
331935589,331934705,9.009506e-09,3.7181595e-05,0.0009417529,0.0073496904,0.008160202,0.025304351,8389267,0,3.9346306,0.5209773,0.5462131,0.0,0.021770293,0.068764724,0.0,0.0,0.0,0.004993,3932170,3932170,3997730,396825,0,0,165,1,0,1,0,4,0,0,0,0,0,0,0
332135222,332134427,7.027988e-09,3.6873193e-05,0.00091677683,0.007059935,0.009416494,0.033749588,8389267,0,3.9258952,0.5183822,0.5205594,0.0,0.02315687,0.07975879,0.0,0.0,0.0,0.004993,3932170,3932170,3997730,396825,0,0,165,1,0,1,0,4,0,0,0,0,0,0,0
332335024,332334153,5.9873697e-09,3.6571586e-05,0.0008713664,0.006489819,0.008745454,0.035067018,8389267,0,3.917419,0.5158645,0.48995572,0.0,0.024289317,0.07721174,0.0,0.0,0.0,0.004993,3932170,3932170,3997730,396825,0,0,165,1,0,1,0,4,0,0,0,0,0,0,0
332734375,332733604,6.842624e-09,3.325929e-05,0.0008446013,0.005007041,0.003731274,0.022621648,8389267,0,3.9013205,0.51658523,0.34928113,0.0,0.026613733,0.07736589,0.0,0.0,0.0,0.004993,3932170,3932170,3997730,396825,0,0,165,1,0,1,0,4,0,0,0,0,0,0,0
332934265,332933329,6.598977e-09,3.082616e-05,0.0008049399,0.0044510663,0.0042935335,0.024016878,8389267,0,3.8935187,0.51417035,0.2935286,0.0,0.027748587,0.05767833,0.0,0.0,0.0,0.004993,3932170,3932170,3997730,396825,0,0,165,1,0,1,0,4,0,0,0,0,0,0,0
333133953,333133055,6.0474834e-09,3.109373e-05,0.00087585225,0.0035409024,0.008996492,0.038493294,8389267,0,3.8858414,0.517361,0.2319869,0.0,0.02859927,0.06991262,0.0,0.0,0.0,0.004993,3932170,3932170,3997730,396825,0,0,165,1,0,1,0,4,0,0,0,0,0,0,0
333333517,333332811,5.576696e-09,3.0684718e-05,0.0008928921,0.0028332972,0.0100098895,0.038867325,8389267,0,3.8783443,0.5149782,0.17981693,0.0,0.029242901,0.081191145,0.0,0.0,0.0,0.004993,3932170,3932170,3997730,396825,0,0,165,1,0,1,0,4,0,0,0,0,0,0,0
333733121,333732232,4.660902e-09,3.1370084e-05,0.00087574817,0.0021325452,0.009483854,0.036152743,8389267,0,3.8640676,0.51034474,0.1332977,0.0,0.030323418,0.06588876,0.0,0.0,0.0,0.004993,3932170,3932170,3997730,396825,0,0,165,1,0,1,0,4,0,0,0,0,0,0,0
333932681,333931958,5.4313705e-09,3.461823e-05,0.00096125,0.0018213594,0.012983436,0.048159607,8389267,0,3.8571563,0.51357,0.11702076,0.0,0.030755807,0.062474344,0.0,0.0,0.0,0.004993,3932170,3932170,3997730,396825,0,0,165,1,0,1,0,4,0,0,0,0,0,0,0
334132586,334131684,1.0045169e-08,3.9696024e-05,0.0010464943,0.0016453852,0.0124625275,0.046545833,8389267,0,3.8503637,0.51132876,0.090771906,0.0,0.031058189,0.06842659,0.0,0.0,0.0,0.004993,3932170,3932170,3997730,396825,0,0,165,1,0,1,0,4,0,0,0,0,0,0,0
334332188,334331416,1.5789084e-08,4.150498e-05,0.0011812786,0.0015553352,0.011538332,0.044756394,8389267,0,3.843722,0.5091284,0.09693555,0.0,0.031264514,0.07729031,0.0,0.0,0.0,0.004993,3932170,3932170,3997730,396825,0,0,165,1,0,1,0,4,0,0,0,0,0,0,0
334731742,334730861,2.1678094e-08,4.064688e-05,0.0010988486,0.0016664938,0.011978713,0.05008596,8389267,0,3.8310068,0.5102045,0.101914845,0.0,0.031792197,0.076927826,0.0,0.0,0.0,0.004993,3932170,3932170,3997730,396825,0,0,165,1,0,1,0,4,0,0,0,0,0,0,0
334931384,334930586,1.916582e-08,3.8201033e-05,0.001010661,0.0018038754,0.010742036,0.049277473,8389267,0,3.8250425,0.5080714,0.12065062,0.0,0.03213855,0.07727802,0.0,0.0,0.0,0.004993,3932170,3932170,3997730,396825,0,0,165,1,0,1,0,4,0,0,0,0,0,0,0
335131361,335130312,1.5152578e-08,3.5312944e-05,0.0009719139,0.0019288108,0.010353033,0.051003683,8389267,0,3.8191884,0.5059791,0.12038098,0.0,0.03249544,0.07686811,0.0,0.0,0.0,0.004993,3932170,3932170,3997730,396825,0,0,165,1,0,1,0,4,0,0,0,0,0,0,0
335335855,335335082,1.1855689e-08,3.449092e-05,0.0009934285,0.0018655501,0.011947453,0.055612005,8389267,0,3.8138587,0.5092204,0.119088314,0.0,0.032645203,0.07857466,0.0,0.0,0.0,0.004993,3932170,3932170,3997730,396825,0,0,165,1,0,1,0,4,0,0,0,0,0,0,0
335735379,335734481,1.0638334e-08,3.3763168e-05,0.0009782268,0.0020360555,0.011197886,0.058360517,8389267,0,3.803496,0.5051568,0.13786593,0.0,0.033121854,0.09526798,0.0,0.0,0.0,0.004993,3932170,3932170,3997730,396825,0,0,165,1,0,1,0,4,0,0,0,0,0,0,0
335935150,335934208,9.9802e-09,3.3580203e-05,0.0009653916,0.0021070563,0.0128037445,0.06800312,8389267,0,3.7987878,0.5032094,0.12655668,0.0,0.03319331,0.08213591,0.0,0.0,0.0,0.004993,3932170,3932170,3997730,396825,0,0,165,1,0,1,0,4,0,0,0,0,0,0,0
336134871,336133932,8.669156e-09,3.1509004e-05,0.0008984055,0.0022024144,0.0038090947,0.017778065,8389267,0,3.93928,0.50652975,0.14353643,0.0,0.03319331,0.08558044,0.0,0.0,0.0,0.004993,3932170,3932170,3997730,396825,0,0,165,1,0,1,0,4,0,0,0,0,0,0,0
336334438,336333659,7.902437e-09,3.2132753e-05,0.00092347007,0.0021674344,0.0023873947,0.014291764,8389267,0,3.9347973,0.5045886,0.15409888,0.0,0.033333804,0.09266377,0.0,0.0,0.0,0.004993,3932170,3932170,3997730,396825,0,0,165,1,0,1,0,4,0,0,0,0,0,0,0
336734141,336733110,7.756643e-09,4.009112e-05,0.00102889,0.0023542286,0.0026979272,0.023838548,8389267,0,3.9252543,0.50075114,0.14732035,0.0,0.034033254,0.083010614,0.0,0.0,0.0,0.004993,3932170,3932170,3997730,396825,0,0,165,1,0,1,0,4,0,0,0,0,0,0,0
336933538,336932835,8.600894e-09,4.0257743e-05,0.0010451839,0.0021982642,0.0018183036,0.008031384,8389267,0,3.9203506,0.5040374,0.14619431,0.0,0.034388177,0.09536902,0.0,0.0,0.0,0.004993,3932170,3932170,3997730,396825,0,0,165,1,0,1,0,4,0,0,0,0,0,0,0
337133396,337132561,8.048776e-09,3.836781e-05,0.0009836066,0.002311661,0.00078814436,0.011156321,8389267,0,3.9154232,0.50212514,0.13539532,0.0,0.034605473,0.097368985,0.0,0.0,0.0,0.004993,3932170,3932170,3997730,396825,0,0,165,1,0,1,0,4,0,0,0,0,0,0,0
337333159,337332286,7.1915727e-09,3.6744488e-05,0.0009450684,0.0022161398,0.002397089,0.018634416,8389267,0,3.9105215,0.50023973,0.11889162,0.0,0.034688912,0.07882826,0.0,0.0,0.0,0.004993,3932170,3932170,3997730,396825,0,0,165,1,0,1,0,4,0,0,0,0,0,0,0
337732699,337731739,9.328318e-09,3.889469e-05,0.0011379233,0.0018853825,0.0030264605,0.011420364,8389267,0,3.9013515,0.50168,0.09584023,0.0,0.0350098,0.09311205,0.0,0.0,0.0,0.004993,3932170,3932170,3997730,396825,0,0,165,1,0,1,0,4,0,0,0,0,0,0,0
337932224,337931463,8.301608e-09,3.913118e-05,0.0011506858,0.0017598668,0.0034780728,0.018953463,8389267,0,3.8972282,0.49985334,0.10436356,0.0,0.035155907,0.09868858,0.0,0.0,0.0,0.004993,3932170,3932170,3997730,396825,0,0,165,1,0,1,0,4,0,0,0,0,0,0,0
338131966,338131206,7.706927e-09,3.6546593e-05,0.0010453942,0.001749484,0.0044846633,0.023439206,8389267,0,3.8932762,0.49807173,0.110914774,0.0,0.035072442,0.10028218,0.0,0.0,0.0,0.004993,3932170,3932170,3997730,396825,0,0,165,1,0,1,0,4,0,0,0,0,0,0,0
338331860,338330914,8.057486e-09,3.6236077e-05,0.0009739201,0.0017556614,0.0057526347,0.021456117,8389267,0,3.8893259,0.50138223,0.10276683,0.0,0.034808215,0.097939946,0.0,0.0,0.0,0.004993,3932170,3932170,3997730,396825,0,0,165,1,0,1,0,4,0,0,0,0,0,0,0
338731177,338730365,6.4525274e-09,3.554224e-05,0.0009514311,0.0015314058,0.0059443656,0.028587526,8389267,0,3.8810234,0.49785882,0.07849031,0.0,0.03427141,0.089644805,0.0,0.0,0.0,0.004993,3932170,3932170,3997730,396825,0,0,165,1,0,1,0,4,0,0,0,0,0,0,0
338935830,338935107,5.3045843e-09,3.3357563e-05,0.00096732867,0.0014689713,0.006298571,0.03086981,8389267,0,3.877281,0.49611327,0.07507768,0.0,0.03404045,0.085280076,0.0,0.0,0.0,0.004993,3932170,3932170,3997730,396825,0,0,165,1,0,1,0,4,0,0,0,0,0,0,0
339135675,339134813,4.191263e-09,3.1111373e-05,0.0008925365,0.0012921749,0.0074808425,0.031493932,8389267,0,3.8735507,0.49943796,0.057490025,0.0,0.0339498,0.087653205,0.0,0.0,0.0,0.004993,3932170,3932170,3997730,396825,0,0,165,1,0,1,0,4,0,0,0,0,0,0,0
339335472,339334536,4.3182746e-09,3.1214127e-05,0.0009410357,0.0012483767,0.0074913963,0.03321296,8389267,0,3.8696754,0.4977183,0.051790465,0.0,0.03381214,0.09912308,0.0,0.0,0.0,0.004993,3932170,3932170,3997730,396825,0,0,165,1,0,1,0,4,0,0,0,0,0,0,0
339734984,339733987,5.4922222e-09,3.267316e-05,0.0009003764,0.0011216586,0.008996914,0.04484919,8389267,0,3.8619947,0.4943699,0.037093766,0.0,0.033658125,0.09395318,0.0,0.0,0.0,0.004993,3932170,3932170,3997730,396825,0,0,165,1,0,1,0,4,0,0,0,0,0,0,0
339934661,339933711,7.4163475e-09,3.6229714e-05,0.0009149809,0.0010529872,0.010065728,0.046948567,8389267,0,3.8581414,0.497694,0.044891708,0.0,0.03364904,0.10175152,0.0,0.0,0.0,0.004993,3932170,3932170,3997730,396825,0,0,165,1,0,1,0,4,0,0,0,0,0,0,0
340134209,340133443,8.336501e-09,4.012074e-05,0.0010085991,0.0010372445,0.010634498,0.051080037,8389267,0,3.853938,0.4960222,0.04213764,0.0,0.033528835,0.08595131,0.0,0.0,0.0,0.004993,3932170,3932170,3997730,396825,0,0,165,1,0,1,0,4,0,0,0,0,0,0,0
340334324,340333184,1.0191586e-08,4.3882632e-05,0.0010116854,0.0011954241,0.010812395,0.05481744,8389267,0,3.8493617,0.49431393,0.042240657,0.0,0.033118322,0.09014159,0.0,0.0,0.0,0.004993,3932170,3932170,3997730,396825,0,0,165,1,0,1,0,4,0,0,0,0,0,0,0
340733383,340732612,9.750684e-09,4.1688443e-05,0.0012262851,0.0011710863,0.006105665,0.03438295,8389267,0,3.9909024,0.4958909,0.06014066,0.0,0.032455456,0.107809335,0.0,0.0,0.0,0.004993,3932170,3932170,3997730,396825,0,0,165,1,0,1,0,4,0,0,0,0,0,0,0
340933249,340932340,9.334357e-09,4.106552e-05,0.001258077,0.0012558971,0.005908209,0.03531149,8389267,0,3.9864507,0.4942115,0.054380763,0.0,0.03153423,0.09961672,0.0,0.0,0.0,0.004993,3932170,3932170,3997730,396825,0,0,165,1,0,1,0,4,0,0,0,0,0,0,0
341132774,341132064,7.731736e-09,3.898214e-05,0.0011635432,0.0013554245,0.006317936,0.039345417,8389267,0,3.9820974,0.4925768,0.0783507,0.0,0.03030985,0.1029742,0.0,0.0,0.0,0.004993,3932170,3932170,3997730,396825,0,0,165,1,0,1,0,4,0,0,0,0,0,0,0
341332506,341331790,8.244064e-09,4.0116323e-05,0.001076129,0.0013212907,0.006943642,0.03775369,8389267,0,3.977576,0.49586636,0.07744639,0.0,0.02876147,0.09396927,0.0,0.0,0.0,0.004993,3932170,3932170,3997730,396825,0,0,165,1,0,1,0,4,0,0,0,0,0,0,0
341732023,341731241,8.267501e-09,3.6384612e-05,0.001015103,0.0014020486,0.0066958563,0.039530806,8389267,0,3.9674134,0.4925352,0.060735703,0.0,0.025159916,0.09811942,0.0,0.0,0.0,0.004993,3932170,3932170,3997730,396825,0,0,165,1,0,1,0,4,0,0,0,0,0,0,0
341931998,341930993,7.496615e-09,3.5497662e-05,0.0010092248,0.0012599936,0.0075973445,0.045384448,8389267,0,3.9616752,0.49086192,0.026150431,0.0,0.02344333,0.10584503,0.0,0.0,0.0,0.004993,3932170,3932170,3997730,396825,0,0,165,1,0,1,0,4,0,0,0,0,0,0,0
342131564,342130691,6.1020544e-09,3.2129756e-05,0.0010565337,0.0008436408,0.008347518,0.042326998,8389267,0,3.95572,0.49406824,0.026795566,0.0,0.021949856,0.099576026,0.0,0.0,0.0,0.004993,3932170,3932170,3997730,396825,0,0,165,1,0,1,0,4,0,0,0,0,0,0,0
342331216,342330420,5.1141105e-09,3.347321e-05,0.0010364132,0.00068200217,0.0077452054,0.04162571,8389267,0,3.9496717,0.4924014,0.0025267738,0.0,0.020571701,0.112840675,0.0,0.0,0.0,0.004993,3932170,3932170,3997730,396825,0,0,165,1,0,1,0,4,0,0,0,0,0,0,0
342735611,342734861,4.0158494e-09,3.2952586e-05,0.000921759,0.00028248364,0.0078042764,0.046284325,8389267,0,3.938728,0.4891522,0.034732956,0.0,0.017794661,0.115032576,0.0,0.0,0.0,0.004993,3932170,3932170,3997730,396825,0,0,165,1,0,1,0,4,0,0,0,0,0,0,0
342935552,342934587,4.94166e-09,3.3324104e-05,0.00087581057,0.00011277554,0.009484558,0.045644023,8389267,0,3.933151,0.492362,0.041293036,0.0,0.016471893,0.104199715,0.0,0.0,0.0,0.004993,3932170,3932170,3997730,396825,0,0,165,1,0,1,0,4,0,0,0,0,0,0,0
343135060,343134311,4.267156e-09,3.2509335e-05,0.0008756668,0.00016931364,0.008659938,0.04359689,8389267,0,3.9274566,0.49075514,0.05723849,0.0,0.015215117,0.10585236,0.0,0.0,0.0,0.004993,3932170,3932170,3997730,396825,0,0,165,1,0,1,0,4,0,0,0,0,0,0,0
343334852,343334037,3.7794012e-09,3.0912182e-05,0.00092586176,0.00017520983,0.008181228,0.04399556,8389267,0,3.9215724,0.4891324,0.049020268,0.0,0.013954178,0.10730806,0.0,0.0,0.0,0.004993,3932170,3932170,3997730,396825,0,0,165,1,0,1,0,4,0,0,0,0,0,0,0
343734319,343733488,5.0921125e-09,3.23307e-05,0.00085473456,0.00035161903,0.009210777,0.04498602,8389267,0,3.9092867,0.49070588,0.07235297,0.0,0.01144313,0.111643955,0.0,0.0,0.0,0.004993,3932170,3932170,3997730,396825,0,0,165,1,0,1,0,4,0,0,0,0,0,0,0
343934004,343933213,4.3668895e-09,3.4731947e-05,0.0008525618,0.0002856562,0.00881051,0.045183036,8389267,0,3.9030156,0.48911524,0.065338485,0.0,0.010207931,0.11474556,0.0,0.0,0.0,0.004993,3932170,3932170,3997730,396825,0,0,165,1,0,1,0,4,0,0,0,0,0,0,0
344133887,344132938,6.4108745e-09,3.7694062e-05,0.00084938586,0.00034815594,0.0085983025,0.04741218,8389267,0,3.896727,0.48752376,0.07840136,0.0,0.00897466,0.11501148,0.0,0.0,0.0,0.004993,3932170,3932170,3997730,396825,0,0,165,1,0,1,0,4,0,0,0,0,0,0,0
344333555,344332663,6.038561e-09,3.9454048e-05,0.000838555,0.00022952145,0.008930757,0.0510282,8389267,0,3.8903131,0.48594195,0.06623417,0.0,0.007729651,0.1123488,0.0,0.0,0.0,0.004993,3932170,3932170,3997730,396825,0,0,165,1,0,1,0,4,0,0,0,0,0,0,0
344733120,344732115,1.1583629e-08,4.5163295e-05,0.0008645856,0.00021091032,0.009930404,0.052337937,8389267,0,3.87662,0.48744595,0.059252564,0.0,0.005287846,0.116283886,0.0,0.0,0.0,0.004993,3932170,3932170,3997730,396825,0,0,165,1,0,1,0,4,0,0,0,0,0,0,0
344932596,344931840,1.29180036e-08,4.1556043e-05,0.0008781072,2.791821e-05,0.010275888,0.058779005,8389267,0,4.023722,0.48584536,0.053815797,0.0,0.005287846,0.11789775,0.0,0.0,0.0,0.004993,3932170,3932170,3997730,396825,0,0,165,1,0,1,0,4,0,0,0,0,0,0,0
345132467,345131565,1.24261925e-08,4.189813e-05,0.0008364447,4.779766e-05,0.009885439,0.05353438,8389267,0,4.0164986,0.48895082,0.038043007,0.0,0.004568141,0.12204412,0.0,0.0,0.0,0.004993,3932170,3932170,3997730,396825,0,0,165,1,0,1,0,4,0,0,0,0,0,0,0
345332018,345331290,1.0314375e-08,3.643706e-05,0.00083963794,0.0003326943,0.010129391,0.05327758,8389267,0,4.009291,0.48734033,0.0050907275,0.0,0.0056635663,0.12497734,0.0,0.0,0.0,0.004993,3932170,3932170,3997730,396825,0,0,165,1,0,1,0,4,0,0,0,0,0,0,0
345731764,345730790,7.879833e-09,3.0670944e-05,0.0009465317,0.00079523935,0.010802537,0.056297816,8389267,0,3.9942918,0.48414397,0.034410954,0.0,0.007795928,0.11700361,0.0,0.0,0.0,0.004993,3932170,3932170,3997730,396825,0,0,165,1,0,1,0,4,0,0,0,0,0,0,0
345931228,345930466,8.4673335e-09,3.619057e-05,0.0010355269,0.0009854065,0.009967818,0.050859537,8389267,0,3.9864812,0.48721692,0.04760254,0.0,0.008949374,0.11668481,0.0,0.0,0.0,0.004993,3932170,3932170,3997730,396825,0,0,165,1,0,1,0,4,0,0,0,0,0,0,0
346131084,346130191,7.417566e-09,3.528258e-05,0.0010965095,0.001382058,0.010008994,0.050927233,8389267,0,3.9783993,0.4855969,0.081924476,0.0,0.010120951,0.12247919,0.0,0.0,0.0,0.004993,3932170,3932170,3997730,396825,0,0,165,1,0,1,0,4,0,0,0,0,0,0,0
346335807,346334909,6.026517e-09,3.2508193e-05,0.0010587862,0.0016260496,0.011329251,0.056406274,8389267,0,3.9701965,0.48398653,0.08521393,0.0,0.0113141695,0.12558404,0.0,0.0,0.0,0.004993,3932170,3932170,3997730,396825,0,0,165,1,0,1,0,4,0,0,0,0,0,0,0
346735310,346734360,5.482594e-09,3.216211e-05,0.0010341215,0.0014994967,0.009489632,0.04875214,8389267,0,3.9549978,0.48548776,0.07755364,0.0,0.013704474,0.11655455,0.0,0.0,0.0,0.004993,3932170,3932170,3997730,396825,0,0,165,1,0,1,0,4,0,0,0,0,0,0,0
346934894,346934085,7.0999477e-09,3.3453372e-05,0.0009802735,0.0013622844,0.009718375,0.049847424,8389267,0,3.9476113,0.483932,0.06516508,0.0,0.014881901,0.11655605,0.0,0.0,0.0,0.004993,3932170,3932170,3997730,396825,0,0,165,1,0,1,0,4,0,0,0,0,0,0,0
347134784,347133811,6.283028e-09,3.3016557e-05,0.00095629104,0.0012066471,0.010334676,0.054112628,8389267,0,3.9402256,0.4823786,0.03472929,0.0,0.015952902,0.12259469,0.0,0.0,0.0,0.004993,3932170,3932170,3997730,396825,0,0,165,1,0,1,0,4,0,0,0,0,0,0,0
347334493,347333536,7.548711e-09,3.7131318e-05,0.0010224482,0.0009090052,0.011159269,0.05976691,8389267,0,3.932697,0.48083338,0.008952458,0.0,0.01680754,0.12148025,0.0,0.0,0.0,0.004993,3932170,3932170,3997730,396825,0,0,165,1,0,1,0,4,0,0,0,0,0,0,0
347733912,347732986,8.6751895e-09,3.6205747e-05,0.00094916724,0.00021446875,0.009752393,0.052457668,8389267,0,3.917105,0.48230168,0.026145056,0.0,0.017812822,0.1296216,0.0,0.0,0.0,0.004993,3932170,3932170,3997730,396825,0,0,165,1,0,1,0,4,0,0,0,0,0,0,0
347933545,347932712,7.2900392e-09,3.4463115e-05,0.00097146473,0.00012598709,0.009954644,0.053786807,8389267,0,3.9092896,0.48075673,0.039765075,0.0,0.017923877,0.12308253,0.0,0.0,0.0,0.004993,3932170,3932170,3997730,396825,0,0,165,1,0,1,0,4,0,0,0,0,0,0,0
348133194,348132437,6.233881e-09,3.5582805e-05,0.0010031272,0.0003011836,0.010547303,0.053546585,8389267,0,3.9014819,0.48379195,0.07078472,0.0,0.017669657,0.1268812,0.0,0.0,0.0,0.004993,3932170,3932170,3997730,396825,0,0,165,1,0,1,0,4,0,0,0,0,0,0,0
348333123,348332162,7.848403e-09,3.818795e-05,0.0009802355,0.00048394856,0.009949222,0.05076538,8389267,0,3.8936827,0.48224506,0.06956579,0.0,0.017139347,0.12638146,0.0,0.0,0.0,0.004993,3932170,3932170,3997730,396825,0,0,165,1,0,1,0,4,0,0,0,0,0,0,0
348732438,348731612,8.426233e-09,3.957292e-05,0.0010318881,0.0003967736,0.009842186,0.052502364,8389267,0,3.8774085,0.47916913,0.09479084,0.0,0.015619445,0.120887436,0.0,0.0,0.0,0.004993,3932170,3932170,3997730,396825,0,0,165,1,0,1,0,4,0,0,0,0,0,0,0
348932243,348931337,7.860089e-09,3.761145e-05,0.0010337061,0.0007786453,0.010829034,0.053747274,8389267,0,3.8690567,0.48216176,0.10355001,0.0,0.014961348,0.12592252,0.0,0.0,0.0,0.004993,3932170,3932170,3997730,396825,0,0,165,1,0,1,0,4,0,0,0,0,0,0,0
349131916,349131065,7.1751476e-09,3.5282806e-05,0.0010080527,0.0008507471,0.01011935,0.0515004,8389267,0,3.8607624,0.48061368,0.091652,0.0,0.014429607,0.11742033,0.0,0.0,0.0,0.004993,3932170,3932170,3997730,396825,0,0,165,1,0,1,0,4,0,0,0,0,0,0,0
349331726,349330788,7.4047604e-09,3.8407543e-05,0.00095182116,0.0009374246,0.0032728715,0.018386088,8389267,0,4.004417,0.47906527,0.11348517,0.0,0.014429607,0.12595098,0.0,0.0,0.0,0.004993,3932170,3932170,3997730,396825,0,0,165,1,0,1,0,4,0,0,0,0,0,0,0
349736195,349735233,7.428529e-09,3.8631784e-05,0.0009609791,0.0014179009,0.005639884,0.025278032,8389267,0,3.987145,0.48050863,0.15460475,0.0,0.013584147,0.12245855,0.0,0.0,0.0,0.004993,3932170,3932170,3997730,396825,0,0,165,1,0,1,0,4,0,0,0,0,0,0,0
