timestamp,timestamp_sample,xyz[0],xyz[1],xyz[2]
22226870,22226659,0.0143070305,-0.020915812,-0.002563562
22250581,22250363,-0.031047713,-0.012041203,-0.029019928
22268046,22267831,-0.007633677,0.002324169,0.0019529889
22288002,22287798,0.018820135,0.014740053,-0.0035596115
22309223,22309013,0.015080743,-0.07736494,0.01084195
22330445,22330228,-0.032097735,-0.026881823,0.016246561
22347906,22347699,0.028273467,-0.0062145945,0.058420274
22369123,22368914,0.027759504,0.009386869,0.08606718
22390350,22390136,-0.010089553,0.0029773081,0.006698221
22407809,22407600,-0.09435364,0.0013563137,-0.06931955
22429032,22428816,0.028166113,0.02464208,-0.017668009
22448994,22448782,0.02138954,0.03582277,-0.00725169
22470222,22470012,-0.05573483,-0.0458914,-0.011472857
22487677,22487468,0.031596288,0.044282723,0.008857263
22508893,22508684,-0.06350189,-0.014460525,-0.036501028
22530114,22529901,0.022773752,0.020087209,0.02147564
22547575,22547369,-0.04282289,-0.0437026,-0.010825996
22568789,22568584,-0.014372587,0.035768192,0.0057142065
22590045,22589826,0.06820226,0.054449283,0.051818773
22610066,22609851,-0.035754643,0.02045998,0.058994193
22627456,22627238,-0.025254004,-0.061718162,-0.07994428
22648664,22648452,0.06880512,0.0382966,0.008166949
22669888,22669670,-0.04192963,0.023510627,-0.008404194
22687360,22687138,0.033469427,0.011094384,0.021718547
22708576,22708370,0.06716731,-0.06210398,-0.045232095
22729783,22729568,-0.0997719,0.033772785,0.03571436
22751009,22750784,0.02445372,0.001702119,0.048815433
22768469,22768260,0.067891106,0.01920772,-0.0247526
22788430,22788221,-0.121030614,-0.018894194,0.05567003
22809659,22809440,0.03959562,0.089574896,0.11877086
22827121,22826914,-0.02009796,-0.07333922,-0.0056791445
22849597,22849380,-0.035353553,-0.039403617,0.01155443
22869559,22869342,0.044627074,0.12733524,0.051964626
22890762,22890552,0.0655276,-0.043934777,-0.073008664
22908231,22908023,-0.081111304,-0.072458394,-0.056627754
22929451,22929239,-0.03298903,0.024900166,-0.05481831
22950673,22950453,0.12729385,0.016864413,-0.023212653
22966886,22966676,-0.10039738,-0.04484297,-0.060076714
22994343,22994130,0.023264809,-0.05383685,0.03225159
23009312,23009105,-0.03981515,0.0056354916,-0.09991798
23030527,23030320,0.08656759,0.0029136527,-0.11654488
23047995,23047791,-0.17720252,-0.023830008,0.00058764877
23069224,23069009,-0.19170088,0.09416898,0.1832907
23090439,23090220,0.49359664,0.51184285,0.08708923
23107896,23107692,0.4027326,1.7223434,-0.2502078
23129118,23128909,0.6990402,2.2582839,-0.2174721
23149083,23148875,-0.56212884,1.6890879,-0.051348533
23170304,23170102,-0.49498257,-0.10981588,0.25228876
23187770,23187560,0.61315024,-1.4078723,0.31705368
23208984,23208775,0.37341446,-1.1435391,0.07299929
23230193,23229989,0.061532322,-0.2751317,0.12640227
23247673,23247461,0.35830346,-1.3291725,0.04063557
23268885,23268677,-0.80546606,-1.5052239,-0.012031675
23290096,23289891,-2.674502,0.26819208,0.03367777
23307564,23307361,-2.390943,1.7457297,0.30271608
23327538,23327329,-1.2181671,0.7398557,0.3979361
23348753,23348545,0.6757681,-2.115278,0.1509069
23369962,23369759,0.8619368,-0.8358098,-0.09271605
23387444,23387230,0.6534428,-0.87170506,-0.10696406
23408658,23408446,0.3122279,0.6013502,0.05554941
23429871,23429660,-0.3225663,1.9430795,0.08769228
23448596,23448381,-1.5288004,1.6117905,-0.09343823
23468566,23468348,-0.9301974,-1.5188574,-0.2216594
23488529,23488313,0.32097435,-5.5979767,-0.39052635
23509741,23509528,0.55037826,-6.345237,-0.23192818
23527203,23526999,0.4980328,-3.3845105,-0.22669828
23548425,23548215,0.8302861,1.1606629,-0.3125551
23569643,23569429,1.3248965,3.6285157,-0.0552519
23587104,23586900,1.299993,4.7158556,0.05535979
23608325,23608117,2.3167186,2.089428,0.23596333
23629544,23629331,2.5918498,-3.949937,0.36919442
23647019,23646803,2.1777987,-6.179876,0.43796524
23666973,23666769,1.4826059,-5.5135217,0.33448076
23688198,23687985,0.4126499,-2.155909,0.33204633
23709407,23709198,-0.56031734,0.9798118,0.29486284
23728133,23727921,-1.0902337,2.267116,0.24061728
23748092,23747885,-2.1378853,5.329684,0.41539082
23769303,23769100,-1.8698727,7.729477,0.47373298
23786778,23786572,-1.6281885,7.2003827,0.46122247
23807993,23807786,-1.1946812,5.535219,0.36402574
23827959,23827753,-1.9100114,4.8002396,-0.008841292
23849171,23848968,-1.8647972,1.9532458,-0.29875866
23866653,23866445,-0.8169198,0.1012213,-0.35923374
23887861,23887658,0.11573578,-0.082538106,-0.19073372
23909080,23908873,1.5176685,-2.1989238,-0.09026017
23930289,23930083,1.9470084,-4.701068,-0.09271184
23947768,23947560,1.9443705,-3.5431917,-0.027851138
23968978,23968769,1.8780304,0.012726488,-0.113683894
23988944,23988737,1.3227803,1.8560318,-0.26746213
24007678,24007466,0.40175742,1.8746201,-0.23850428
24027669,24027458,-0.1541737,1.5525857,-0.24489075
24048854,24048638,-0.4161231,0.40750962,-0.24732047
24070060,24069853,-0.78570116,-2.1917036,-0.16887456
24087532,24087324,-1.0464076,-3.8603811,-0.16617514
24108746,24108539,-1.1813351,-4.536817,-0.15575527
24129966,24129755,-0.93338525,-3.6780286,-0.13831595
24149925,24149721,-0.45604485,-2.3452713,-0.15273136
24167401,24167192,-0.12538278,-0.70509124,-0.20030867
24188620,24188407,0.3425126,1.550053,-0.35301614
24209852,24209640,0.6889596,2.3723621,-0.2721598
24227304,24227094,0.37117586,1.0908822,-0.26368216
24248516,24248308,-0.41693565,-1.1335742,-0.41023952
24269730,24269523,-0.7965092,-2.1108935,-0.37479517
24290963,24290759,-0.49908975,-1.8253592,-0.22630402
24308414,24308209,0.049819686,-1.4486554,-0.116329126
24328382,24328176,0.22511491,-0.6720295,-0.1568849
24349603,24349392,0.47184706,1.5198014,-0.40647286
24367069,24366863,0.20854566,2.4660125,-0.47748566
24388286,24388077,0.015572609,2.0419867,-0.42282063
24409498,24409293,-0.070175014,0.5440116,-0.26016718
24430716,24430508,-0.6499158,-0.97123784,-0.2534492
24448188,24447979,-0.84506565,-2.2586732,-0.22822723
24469397,24469194,-0.68811417,-1.2134864,-0.1969076
24490622,24490416,0.3645819,2.555604,-0.11074888
24508084,24507880,1.3925598,4.67811,-0.005343022
24528052,24527846,1.4643184,4.9855566,0.069977656
24549271,24549062,0.9433288,2.5888665,-0.11797443
24570489,24570279,0.55403477,-0.7076606,-0.16261859
24587950,24587748,0.4107317,-2.6369975,-0.03585933
24609167,24608963,0.0149102695,-3.8907692,0.06335422
24630383,24630178,-0.37069845,-3.7628841,0.15357217
24647880,24647672,-0.63146085,-1.6323676,0.2388365
24669075,24668865,-0.90101165,1.1957749,0.27040666
24689058,24688846,-1.1027707,1.907192,0.18816099
24710251,24710047,-1.0026516,1.3542763,0.0069701946
24727724,24727517,-0.4471235,0.25453293,-0.098223485
24748947,24748737,0.22474764,-1.0085505,-0.047589697
24770177,24769972,0.22335957,-2.07102,-0.09210787
24787625,24787419,0.028130673,-1.6988034,-0.10872209
24808842,24808634,0.045111213,-0.22303675,-0.10973477
24830057,24829848,0.26995963,0.542139,-0.0016413109
24850022,24849816,0.045394838,0.77597326,-0.028541127
24867493,24867287,-0.12992519,1.0578614,-0.027066648
24888706,24888502,-0.023052128,1.7727405,-0.006231522
24909922,24909719,-0.08629139,1.0394149,0.14238045
24927399,24927189,-0.19247575,-0.384752,0.13199648
24948608,24948405,0.08373319,-1.2184616,0.079323225
24971080,24970868,0.3602076,-1.2231902,0.053576402
24991045,24990833,0.23663716,-1.1688355,0.14404944
25008521,25008304,0.30294174,-0.40686586,0.31294534
25028481,25028271,0.20697333,0.82764596,0.5083708
25049693,25049486,-0.046100546,1.5432149,0.68178785
25067167,25066959,-0.05689992,1.5561676,0.76441026
25088382,25088173,-0.074641705,0.7930372,0.8148268
25110851,25110637,0.11988616,-0.5288988,0.83192927
25130810,25130603,0.33888474,-1.6918054,0.65841866
25148282,25148074,0.44972596,-1.9386642,0.51229805
25169491,25169288,0.23008479,-1.5853502,0.5517523
25189466,25189262,-0.11447021,-0.80846095,0.70625037
25206935,25206728,-0.16895066,0.11908064,0.6928629
25228145,25227942,-0.020575078,0.9979902,0.58270925
25249374,25249171,0.007510561,0.94236654,0.5786253
25270577,25270372,0.059725147,0.7527484,0.6063005
25288052,25287844,0.017079834,0.64563537,0.6334079
25310517,25310309,-0.16286227,0.3641729,0.6942602
25330482,25330273,-0.13621882,0.113365956,0.6859688
25347951,25347745,0.012674559,0.19481328,0.6687482
25367918,25367712,0.07519983,0.22769243,0.64272577
25389129,25388926,-0.07263916,0.2953608,0.58014905
25410346,25410142,-0.16235967,0.52119964,0.5293724
25427830,25427621,-0.22933954,0.25222644,0.5233185
25450301,25450080,-0.25431502,-0.28324822,0.5830773
25470247,25470043,-0.18884927,-0.31818616,0.5678316
25487733,25487515,-0.14364718,-0.28295133,0.5070154
25508944,25508729,-0.2433313,-0.33232304,0.49338692
25528899,25528696,-0.07857089,0.16907075,0.42464572
25550118,25549911,0.30169818,0.6519878,0.33908957
25567599,25567383,0.46473745,0.5742568,0.3091581
25588808,25588597,0.514751,0.34234926,0.28036174
25610017,25609812,0.549343,0.28154618,0.30687028
25627490,25627284,0.39491633,-0.14872698,0.38006693
25648709,25648499,0.108882524,-0.5481031,0.43392855
25669926,25669715,-0.16342197,-0.46680823,0.39310816
25689889,25689682,-0.36243835,-0.40036494,0.37728333
25708609,25708402,-0.40688553,-0.17156114,0.38827842
25729835,25729618,-0.29227236,0.15634066,0.45102242
25749802,25749583,-0.100353636,0.34157827,0.45984867
25767258,25767053,0.042108964,0.5507366,0.42221752
25788480,25788269,0.22238044,0.6610353,0.41729027
25809714,25809508,0.3019519,0.35674942,0.4019126
25827157,25826954,0.17614663,-0.2586511,0.37129748
25848375,25848170,-0.09859976,-0.8684696,0.30499732
25869594,25869385,-0.30189112,-1.0957203,0.25273678
25889556,25889352,-0.40331718,-0.9799344,0.26226538
25907028,25906823,-0.45615608,-0.6320839,0.2642179
25928245,25928039,-0.41981727,-0.10387159,0.24301168
25949459,25949253,-0.24125144,0.63340807,0.2218062
25970674,25970468,-0.04011031,1.4084022,0.1813896
25988147,25987940,0.21335566,1.5042557,0.17085004
26009364,26009156,0.5677986,1.0860919,0.23798102
26030606,26030391,0.73651224,0.16666423,0.2584636
26049304,26049091,0.66549474,-0.96326107,0.24317276
26068018,26067808,0.19624074,-1.7077687,0.22170343
26089231,26089023,-0.34210092,-1.8675212,0.18059267
26110458,26110242,-0.80620253,-1.5761862,0.16150916
26127919,26127710,-0.8989037,-0.85308105,0.22008353
26149133,26148925,-0.61469984,0.033271115,0.16937706
26170351,26170141,-0.25717783,0.13076773,0.119460426
26189067,26188861,-0.0012827534,-0.14140487,0.13015066
26209055,26208844,0.31494877,-0.3311447,0.14351992
26229043,26228838,0.5348118,-0.41940027,0.13728279
26250214,26250007,0.58705115,-0.42554307,0.117836095
26267685,26267479,0.58000576,-0.34233072,0.07049011
26288920,26288717,0.624096,0.0108395405,0.038332477
26310124,26309912,0.4109253,0.2235127,0.022886466
26327590,26327386,0.24421099,0.26614058,-0.05932514
26348803,26348595,0.055792615,0.20052512,-0.12493893
26370045,26369834,-0.06908492,0.0896056,-0.013492381
26387488,26387281,-0.118092336,-0.023346076,0.033060547
26407465,26407248,-0.27651215,-0.09591544,-0.02504453
26428672,26428464,-0.42812595,-0.09602745,-0.055440176
26449891,26449680,-0.42584053,-0.44098133,-0.12147121
26467355,26467150,-0.37199533,-0.6456735,-0.2005779
26488574,26488365,-0.13759832,-0.4577616,-0.24956079
26509794,26509590,-0.02653327,0.44281015,-0.22932987
26527265,26527051,0.06350095,1.1986576,-0.21481952
26548479,26548267,0.17812693,1.467927,-0.24992642
26568439,26568233,0.22189462,1.1792858,-0.29117495
26589662,26589449,0.104718976,0.7667463,-0.2640085
26608382,26608171,0.06918889,0.7905737,-0.25969175
26628350,26628141,0.13460219,1.0704871,-0.25155395
26649555,26649350,0.11571281,1.0729048,-0.28527808
26667026,26666821,-0.042162217,0.76861256,-0.26857325
26688246,26688037,-0.23490968,0.41768438,-0.27431792
26709466,26709258,-0.24782862,0.46873444,-0.27877605
26726931,26726727,-0.16642481,0.6975647,-0.27953207
26748151,26747941,-0.03140705,0.7729968,-0.26434475
26768122,26767918,-0.18508907,0.6088584,-0.29627022
26789326,26789119,-0.30088463,0.23394679,-0.33972713
26810543,26810335,-0.2552358,-0.23003963,-0.41649058
26828010,26827806,-0.11807613,-0.27391094,-0.43960816
26849243,26849040,0.22652802,-0.032219313,-0.4563992
26870448,26870236,0.7842541,0.40008143,-0.47272262
26887961,26887752,1.0236063,0.77554405,-0.44766498
26907884,26907680,1.1416998,0.90498984,-0.42481512
26927867,26927645,0.9319529,0.6327617,-0.3733184
26950310,26950105,0.33168986,-0.109799586,-0.3744979
26967784,26967576,-0.10170791,-0.8107467,-0.37383956
26989001,26988791,-0.4861736,-1.3178216,-0.33834037
27007726,27007511,-0.80388486,-1.3958507,-0.30543774
27027706,27027480,-0.87286574,-1.2159922,-0.33585235
27048907,27048693,-0.8125761,-1.0242882,-0.3421927
27068864,27068659,-0.7465458,-0.97991174,-0.38128152
27087589,27087379,-0.5367488,-1.029008,-0.3764025
27107560,27107350,-0.27432534,-1.1845789,-0.32456532
27128763,27128560,-0.10183677,-1.4255186,-0.29169947
27149983,27149776,-0.11168347,-1.4043454,-0.27656636
27167465,27167253,-0.06355443,-1.175266,-0.25486916
27188671,27188462,0.12522666,-0.7437136,-0.2558038
27209888,27209678,0.24582964,-0.18382637,-0.21130028
27231096,27230892,0.3097216,0.2872746,-0.15700035
27248568,27248364,0.32514012,0.50619686,-0.09831864
27268535,27268331,0.31665668,0.6336215,-0.10397521
27289755,27289547,0.08974767,0.6149017,-0.10296381
27307226,27307019,-0.1484927,0.36654598,-0.117845744
27328448,27328232,-0.17551856,0.20469151,-0.08211295
27349661,27349448,-0.14562738,0.17312756,-0.054059897
27370871,27370666,-0.18691526,0.23130558,-0.06350743
27388343,27388134,-0.11744221,0.31977442,-0.08914386
27409578,27409373,0.15663305,0.4365916,-0.14449547
27429521,27429316,0.40699977,0.39661798,-0.13996649
27447000,27446790,0.41314062,0.31897777,-0.09078867
27468211,27468003,0.29243478,0.07936237,-0.10088004
27489422,27489217,0.106508546,0.04249948,-0.03786663
27510660,27510452,0.032754585,0.09606846,-0.019768802
27528108,27527904,-0.0060936688,0.32612583,-0.0077117006
27549329,27549119,0.14421307,0.57494634,-0.026207842
27570545,27570334,0.17936265,0.6027478,-0.011517065
27588016,27587805,0.17884436,0.474364,0.02573592
27607985,27607774,0.006438298,0.25833592,0.023519691
27629189,27628987,-0.042086024,-0.07374218,0.0062775826
27650413,27650202,0.19016637,-0.21003789,-0.013928674
27667886,27667674,0.15676492,-0.09344424,0.0184492
27689100,27688889,0.032863792,0.046898432,0.049741637
27710308,27710104,-0.07517185,0.1430222,0.046922047
27727783,27727575,-0.15751874,0.19004454,0.060392696
27748996,27748790,-0.08181996,0.3388212,0.068411835
27770227,27770016,0.029743087,0.36400816,0.09880465
27790179,27789973,0.22078651,0.12282299,0.113302395
27807668,27807461,0.38473397,-0.18672659,0.15520732
27828872,27828661,0.2641772,-0.30002534,0.15053414
27851336,27851124,-0.1054915,-0.3174317,0.11268244
27867548,27867345,-0.2064111,-0.26256996,0.11037253
27888787,27888578,-0.16271,-0.056479163,0.067359
27909981,27909777,-0.030922504,0.055893578,0.06407087
27927450,27927247,0.1147764,0.075489335,0.043686263
27947417,27947213,0.23611453,-0.010690772,0.069431156
27968635,27968430,0.18763664,-0.2933566,0.09613702
27991106,27990894,0.09400935,-0.53759885,0.07251959
28007320,28007115,0.037188638,-0.6310361,0.0867794
28028533,28028330,0.020612571,-0.4954583,0.10122465
28049753,28049547,-0.028408162,-0.2777531,0.08335352
28070974,28070762,-0.21207596,-0.02083774,0.03621725
28088437,28088232,-0.29167742,0.106959686,0.0010094132
28108407,28108199,-0.28593394,0.057707515,-0.011411209
28130868,28130663,-0.17946948,-0.06511791,-0.024170902
28147087,28146885,-0.15896653,-0.20377743,0.015196416
28168303,28168101,-0.0869259,-0.30442545,-0.0075809453
28189521,28189316,-0.021929625,-0.3200663,-0.0071124807
28210741,28210535,-0.09275237,-0.12704942,0.0018371923
28228206,28228002,-0.14159013,0.13387343,-0.0249843
28249422,28249217,-0.21972865,0.57386386,-0.010042416
28270645,28270433,-0.14394929,0.8179824,0.00079328706
28286877,28286673,-0.06939614,0.7505498,-0.023849513
28308077,28307871,-0.043320015,0.478994,0.0019278976
28330540,28330334,0.054242685,0.10040467,-0.006374498
28350519,28350302,0.08261468,-0.32678187,0.0041162455
28367989,28367786,0.11749274,-0.5709556,-0.030169165
28389193,28388987,0.17155188,-0.7608428,-0.04659042
28410422,28410204,0.051985774,-0.6250317,0.015908705
28427887,28427684,-0.15825243,-0.3360087,0.0209462
28447851,28447641,-0.34583825,-0.14592654,0.041437212
28469061,28468857,-0.5154868,0.018783635,0.088002145
28490277,28490072,-0.66648525,0.1382399,0.11592081
28507802,28507598,-0.68202555,0.30655667,0.090659805
28528964,28528757,-0.5343692,0.48468232,0.072316915
28550185,28549977,-0.29474455,0.5207826,0.05382691
28567654,28567444,-0.09248073,0.400822,0.05138401
28588863,28588659,0.19558974,0.26158404,0.073531106
28610089,28609876,0.34283555,0.17463988,0.09551826
28627561,28627346,0.4548712,0.2579286,0.034355946
28647514,28647312,0.33722717,0.3189859,0.066859916
28668730,28668528,0.122259974,0.24611716,0.053806994
28689960,28689747,0.032529987,0.27315688,0.019892879
28707425,28707214,-0.028269654,0.3338529,-0.0073869145
28728632,28728430,0.026548982,0.33216116,-0.017454572
28749855,28749645,0.27911392,0.11947733,-0.026401011
28771069,28770862,0.491107,-0.17210157,-0.057142068
28789796,28789583,0.41408864,-0.39365864,0.0040597627
28808504,28808299,0.31412995,-0.4217692,0.039499838
28829721,28829514,0.32489315,-0.14284967,0.043345727
28847206,28847002,0.32694983,0.25217453,0.065587886
28868404,28868199,0.27457646,0.8339611,-0.00095941377
28889619,28889415,0.21503024,1.3766329,0.0059877182
28910882,28910676,0.10325936,1.3702595,0.0034289248
28929563,28929350,0.11843702,0.7714271,-0.018335879
28949531,28949317,0.26370654,-0.060453366,-0.031744696
28969495,28969285,0.44595346,-0.6776341,-0.02969164
28986960,28986755,0.54597425,-1.045434,-0.009388151
29008173,29007970,0.48636362,-1.0935963,-0.01356924
29029394,29029189,0.3005189,-0.7380116,-0.008847324
29050614,29050402,0.14532916,-0.06437464,-0.010541371
29068082,29067872,-0.014775808,0.3041914,-0.0029958603
29089303,29089091,-0.17626981,0.49912295,-0.0051822867
29110520,29110303,-0.29341617,0.31800637,-0.015323523
29127977,29127773,-0.21885437,0.07819709,0.03577513
29149206,29148989,-0.123358995,-0.30222315,0.041066032
29169164,29168956,-0.078035586,-0.701906,0.033477362
29190382,29190171,0.032122493,-0.8796079,0.060540054
29207877,29207667,0.102041334,-0.6894054,0.05782355
29229067,29228858,0.08037925,-0.19811393,0.09225464
29250275,29250073,0.033889465,0.20384733,0.13661501
29267752,29267543,-0.13144162,0.40415564,0.13326536
29288980,29288759,-0.26039305,0.6186338,0.0955324
29308936,29308728,-0.34254313,0.5483338,0.10026454
29330151,29329941,-0.45927492,0.14972,0.07701213
29347628,29347415,-0.49077284,-0.15513907,0.106431425
29368839,29368628,-0.5598552,-0.25961518,0.08063074
29390047,29389843,-0.64170516,-0.0956817,0.08164597
29407542,29407329,-0.5817402,-0.05631198,0.09559481
29428744,29428532,-0.47115335,0.05227735,0.034509864
29449948,29449744,-0.31882504,0.13031234,0.031055044
29467421,29467216,-0.26247734,-0.038829327,0.07373975
29487397,29487187,-0.20821595,-0.21888162,0.07185714
29508610,29508402,-0.18389696,-0.4082093,0.10355489
29529815,29529613,-0.2755741,-0.39769033,0.1081848
29547287,29547084,-0.3433278,-0.21156469,0.13167924
29568511,29568302,-0.34244293,0.2783949,0.09350566
29589718,29589515,-0.27074865,0.5594639,0.10253509
29607188,29606986,-0.16407864,0.49548596,0.09163441
29628407,29628201,-0.20656236,0.28755355,0.056586843
29648376,29648168,-0.16450495,0.24812658,0.11038115
29668352,29668140,-0.10787048,0.23726533,0.08851115
29687058,29686855,-0.047483407,0.2251898,0.06809597
29708277,29708071,0.017632425,0.25252542,0.05606446
29728247,29728039,0.11057268,0.3542293,0.081782065
29746965,29746757,0.079508245,0.3711862,0.07542694
29768177,29767973,0.08754334,0.40213028,0.06718867
29789393,29789187,0.12858772,0.50988305,0.03431879
29809359,29809156,0.30593872,0.3686776,0.036487304
29828088,29827875,0.5249308,0.10681979,0.009783272
29848051,29847842,0.6646219,-0.2716218,0.024816973
29869264,29869056,0.6189379,-0.87587416,0.0070567825
29886743,29886540,0.53757787,-1.298553,-0.006768481
29909202,29908992,0.41362166,-1.4921598,0.0019844072
29929165,29928958,0.25235847,-1.2642417,-0.015283637
29947940,29947730,0.20098095,-0.7388675,0.00024861886
29967872,29967668,0.16419183,-0.1665211,0.010633179
29989066,29988859,0.13156101,0.034149755,-0.012103651
30009029,30008826,0.033709057,-0.22757429,0.021864595
30030252,30030042,-0.10705697,-0.58267033,0.02154694
30047718,30047513,-0.18673098,-0.81648743,-0.0092316605
30068938,30068730,-0.08734412,-0.8763073,-0.08205767
30087671,30087451,-0.07757531,-0.80596757,-0.08380302
30108872,30108664,-0.13076292,-0.71940106,-0.08685045
30130094,30129881,0.049873278,-0.4604023,-0.09523854
30148806,30148597,0.12552422,-0.121257365,-0.10074623
30171271,30171061,0.116102554,0.26876917,-0.1194657
30188740,30188531,0.090163276,0.45026052,-0.10965043
30211228,30211023,0.06633043,0.55769455,-0.09711013
30231173,30230965,-0.020265333,0.5533297,-0.07812824
30247392,30247186,-0.06768168,0.5022839,-0.073541455
30268606,30268402,-0.12956703,0.5407088,-0.06338395
30291069,30290864,-0.017780164,0.44225055,-0.06948833
30307310,30307087,0.016710747,0.33293542,-0.10500445
30328518,30328303,-0.017985873,0.3151331,-0.1326358
30348474,30348269,-0.09031526,0.41900387,-0.09080759
30370946,30370736,-0.024781695,0.6581299,-0.1106552
30387160,30386956,0.13211334,0.72022665,-0.16105035
30408385,30408178,0.27571848,0.60646445,-0.13523257
30428352,30428141,0.407382,0.46934766,-0.11838029
30448318,30448107,0.4430921,0.29340506,-0.091500185
30468283,30468075,0.41584802,0.026277374,-0.079219356
30488250,30488042,0.33506802,-0.026751684,-0.07369913
30508217,30508010,0.20921256,0.17877229,-0.05729769
30530684,30530471,0.17467168,0.26499197,-0.083726965
30548160,30547944,0.19029532,0.33825037,-0.12330515
30569361,30569157,0.24203525,0.2932504,-0.11330993
30590579,30590372,0.1599796,-0.046343084,-0.11331754
30608047,30607843,0.17674415,-0.3613022,-0.13358502
30629276,30629059,0.054936245,-0.41887975,-0.16038579
30647985,30647779,-0.05830856,-0.3546417,-0.17352906
30667950,30667745,-0.17841353,-0.021085026,-0.181872
30687916,30687712,-0.30022773,0.26561368,-0.14677425
30709132,30708928,-0.40983596,0.30536917,-0.17580804
30727862,30727653,-0.47008404,0.17447113,-0.17756501
30747825,30747616,-0.6205355,0.07575262,-0.17703451
30767789,30767582,-0.6369908,0.020159518,-0.1719882
30787759,30787550,-0.6535575,-0.13068755,-0.17652045
30808970,30808764,-0.7131444,-0.25298294,-0.16767366
30827697,30827485,-0.72131324,-0.29788563,-0.1762551
30848905,30848700,-0.6631033,-0.3371011,-0.13761467
30868871,30868666,-0.4525158,-0.3886818,-0.13210449
30888849,30888636,-0.27916858,-0.50751776,-0.16010818
30908802,30908600,-0.10122334,-0.4522273,-0.18124026
30930021,30929816,0.03018155,-0.14192359,-0.16578138
30948789,30948582,0.044084508,0.21633194,-0.1798302
30968707,30968502,0.07892915,0.47126493,-0.12420468
30989929,30989718,0.049034316,0.4792542,-0.12644067
31007407,31007203,0.09647514,0.240204,-0.14635769
31028614,31028406,0.36156985,-0.28413376,-0.13408066
31048577,31048371,0.44707796,-0.7768853,-0.14710845
31073552,31073344,0.28934032,-1.2499716,-0.0998776
31087278,31087061,0.25914082,-1.275137,-0.088661164
31108478,31108272,0.20250995,-0.80966955,-0.06464372
31132192,31131985,0.26222107,-0.21498483,-0.039675117
31152160,31151953,0.21325792,0.28705567,-0.10073991
31168382,31168175,0.19925314,0.61785793,-0.0490792
31187104,31186895,0.14404628,0.72387624,-0.03070992
31212060,31211854,0.035299353,0.57729906,-0.051139332
31227034,31226829,-0.016284652,0.41191337,-0.052436568
31248251,31248044,-0.07703127,0.22125143,-0.04304907
31269463,31269259,-0.099408746,0.101724625,-0.028961198
31290690,31290474,-0.04313289,0.03161462,-0.054692615
31308150,31307945,-0.055439092,0.13337755,-0.09759442
31330625,31330417,0.04594027,0.24069561,-0.074115045
31350582,31350376,0.0701369,0.31629774,-0.073807165
31368056,31367847,0.04031883,0.25951236,-0.08569944
31388018,31387814,0.09991359,0.096712515,-0.09458693
31409240,31409031,0.21742912,-0.026031265,-0.050727047
31431702,31431494,0.16907333,0.10607422,-0.010359073
31447922,31447717,0.23899616,0.20292948,-0.058513664
31466641,31466436,0.17950277,0.19840458,-0.082694665
31491610,31491396,0.1364463,0.18788595,-0.04074994
31507820,31507618,0.08344903,0.19740076,-0.02547052
31531544,31531336,0.002352495,0.22547287,-0.047761112
31551511,31551298,-0.034170717,0.26451612,-0.03698481
31570232,31570020,-0.04138108,0.28569183,-0.0358543
31587699,31587490,-0.06310173,0.30583233,-0.05922273
31608950,31608746,-0.1565632,0.16199219,-0.035309378
31630131,31629918,-0.24051133,0.003843396,-0.02101484
31647597,31647391,-0.26138353,-0.040588807,-0.014434125
31668810,31668605,-0.14724313,0.12023324,-0.0038587383
31690045,31689825,-0.0075951824,0.24539436,-0.038863987
31710001,31709791,0.05982385,0.08489652,0.016133718
31727461,31727258,0.118524134,-0.26827168,0.07425233
31752426,31752218,0.36028996,-0.80860424,0.042189114
31772395,31772188,0.3980254,-1.0857172,0.04647511
31787395,31787191,0.32426396,-1.1634026,0.0634936
31812330,31812121,0.09896874,-0.89942306,0.073888935
31827305,31827094,-0.024185445,-0.5701755,0.08196545
31853515,31853305,-0.21928,-0.028822195,0.06538225
31873478,31873271,-0.29832384,0.27542862,0.05824507
31890944,31890741,-0.28282487,0.38881537,0.058638807
31909677,31909460,-0.12893614,0.36313233,0.018973371
31927133,31926931,0.037079535,0.12098041,0.006928125
31948353,31948147,0.17522445,-0.31382793,0.0288391
31969569,31969362,0.29674312,-0.53126687,0.04275456
31990783,31990577,0.31402904,-0.36175248,0.03988072
32008250,32008048,0.2747749,-0.2613099,0.0076638972
32029477,32029269,0.16670655,0.012150703,0.032257784
32049440,32049231,0.0749298,0.42119178,0.03591023
32066908,32066703,-0.02830355,0.58967537,0.00982522
32090627,32090419,-0.2740936,0.30999443,0.04373229
32110595,32110382,-0.43832865,-0.07299595,0.038014095
32130557,32130349,-0.512954,-0.2995331,0.02245933
32151776,32151566,-0.5136139,-0.26421723,0.0079816645
32170488,32170282,-0.5434842,-0.004033713,0.0018437598
32190456,32190249,-0.43833613,0.4107825,0.020334726
32207924,32207721,-0.18883246,0.64155096,0.01583442
32229143,32228937,0.0557148,0.5326178,-0.0021237414
32249108,32248904,0.29421547,0.3918057,-0.004337883
32266579,32266375,0.32149875,0.13422793,-0.0012174741
32287794,32287590,0.15203771,-0.120184176,-0.0057879565
32309021,32308809,-0.16298328,-0.05355301,0.043879103
32330225,32330021,-0.34918502,0.2901264,0.0554708
32347696,32347492,-0.38674754,0.57963175,0.010808253
32370165,32369956,-0.10027247,0.6403134,-0.026859686
32390132,32389923,0.20977749,0.46591488,-0.027203104
32411342,32411138,0.46742302,-0.0067225266,0.013204354
32431315,32431106,0.5177845,-0.3487418,0.0058605527
32450038,32449826,0.50017416,-0.5295128,-0.0017220748
32472496,32472288,0.3695869,-0.48954675,-0.022071663
32489967,32489759,0.1733454,-0.36589077,-8.258575e-05
32508692,32508479,-0.12033922,-0.18159723,-0.018860843
32529903,32529694,-0.34347987,0.099088274,-0.04457953
32547373,32547165,-0.33605167,0.31436786,-0.015705131
32568590,32568380,-0.46350622,0.41450885,-0.022402255
32588556,32588348,-0.3586812,0.45737746,-0.044152025
32609767,32609563,-0.07036988,0.2832786,-0.07229386
32628501,32628285,0.26425484,0.26166558,-0.11698481
32648469,32648258,0.5583577,0.15147105,-0.06001507
32669681,32669468,0.5889334,-0.08901399,-0.07741521
32689652,32689437,0.45514864,-0.2967435,-0.10015091
32709618,32709408,0.18978348,-0.27686027,-0.09508352
32729584,32729377,0.0048763906,-0.01994664,-0.11737073
32749543,32749335,-0.13325576,0.15156886,-0.09895274
32769529,32769324,-0.2475692,0.17735387,-0.080337316
32789473,32789268,-0.14465229,0.25141326,-0.058139034
32809458,32809236,0.066519074,0.26910347,-0.06596381
32826916,32826707,0.23184238,0.0965921,-0.037786454
32848129,32847922,0.38923162,-0.14395446,-0.07507685
32869346,32869138,0.45059338,-0.13014127,-0.0806673
32890562,32890353,0.37297082,-0.0034654401,-0.033705078
32908038,32907825,0.23612252,-0.00043356876,-0.013460092
32928001,32927793,0.08877451,-0.017974613,-0.0072477213
32949210,32949007,-0.11942851,-0.18194371,-0.057281427
32970433,32970222,-0.1943676,-0.3401197,-0.044225413
32989148,32988942,-0.24299838,-0.56394374,-0.025005003
33009121,33008913,-0.35976577,-0.70768464,-0.037998855
33031583,33031372,-0.4868732,-0.6087878,-0.0065941378
33049053,33048844,-0.530569,-0.33099768,0.023594305
33069029,33068813,-0.49577168,0.054375254,0.008100559
33088988,33088781,-0.3938836,0.25051847,-0.014058335
33108957,33108747,-0.071730144,0.38119105,-0.03010235
33127680,33127465,0.2571662,0.37066945,-0.021116288
33148884,33148680,0.57753646,0.34510332,-0.03467676
33170099,33169895,0.6227156,0.1420717,-0.023407785
33187573,33187367,0.3917592,-0.113703564,-0.0111153
33208787,33208582,0.04934224,-0.42733464,0.004645225
33230001,33229797,-0.21980543,-0.41730848,0.03968479
33249979,33249765,-0.32091355,-0.1304472,-0.001961841
33268707,33268491,-0.37981743,0.1055493,-0.023023995
33288663,33288452,-0.44508642,0.37688375,-0.012014713
33307375,33307172,-0.54711014,0.36494258,0.0115646105
33328596,33328388,-0.59636337,0.21305096,-0.010466057
33348564,33348354,-0.4871001,-0.0064067203,0.010718209
33368535,33368322,-0.32226333,-0.19149128,-0.054357402
33388499,33388291,-0.09274551,-0.33931133,-0.031858176
33408470,33408258,0.10604441,-0.34721333,-0.018718645
33428436,33428224,0.2286679,-0.24357076,-0.049120933
33449651,33449439,0.2937182,-0.009475647,-0.08844011
33467124,33466910,0.3769732,0.118711144,-0.091265
33489588,33489376,0.3467044,0.14018548,-0.038218275
33509547,33509340,0.19660585,0.11126651,-0.08375426
33530768,33530556,-0.0051672086,0.17883797,-0.024580425
33548232,33548027,-0.14673354,0.256178,0.0013262664
33569450,33569242,-0.1143023,0.14915451,-0.0004420824
33589419,33589209,-0.047338143,-0.12609637,0.0069253477
33606893,33606681,0.0026491974,-0.40598834,0.010989494
33628097,33627896,0.07901928,-0.48299247,-0.004399571
33649316,33649111,0.062343355,-0.28265575,-0.019201215
33673032,33672825,-0.09669107,0.19893055,-0.061327454
33688003,33687798,-0.16702417,0.44512025,-0.0455316
33709220,33709014,-0.009075857,0.515739,-0.021196388
33732935,33732727,0.263639,0.30645496,-0.02644409
33747905,33747700,0.31742972,0.010042425,-0.047016002
33767876,33767668,0.28034577,-0.3920745,-0.050011195
33789085,33788882,0.21559355,-0.3967042,-0.05104335
33812800,33812594,0.038162183,-0.07594061,-0.024916233
33827779,33827570,-0.03612608,0.2177867,-0.04212759
33848987,33848785,-0.17441382,0.40664992,-0.056277562
33870202,33870000,-0.19743209,0.3431961,-0.056258973
33887677,33887471,-0.22244155,0.12852462,-0.08660045
33908891,33908687,-0.2567298,-0.1463955,-0.0891404
33930106,33929902,-0.33422592,-0.30844948,-0.03666977
33947580,33947374,-0.23390768,-0.14086284,-0.017172541
33967558,33967341,-0.057333205,0.12025745,-0.017197087
33988768,33988556,0.13307783,0.32249334,-0.045330886
34012476,34012268,0.35952914,0.28041345,-0.03122056
34027451,34027243,0.36305714,0.19834663,-0.041147087
34048671,34048459,0.10521158,0.024614913,-0.031461224
34072377,34072170,-0.19835702,-0.043149337,-0.034540698
34092347,34092138,-0.19880947,-0.06270466,-0.007988846
34108566,34108360,-0.09029933,-0.12133455,0.01577041
34128536,34128330,0.13996388,-0.20492437,-7.089537e-05
34149745,34149543,0.41821846,-0.19597957,-0.03057796
34167216,34167014,0.5189845,-0.14209068,-0.04106394
34188435,34188230,0.36987182,-0.06298301,-0.040108163
34210907,34210697,0.14302628,0.050988913,-0.059765726
34230868,34230661,-0.09877291,-0.02833202,-0.024897452
34248334,34248132,-0.20491455,-0.28153077,-0.036983952
34269607,34269402,-0.23976421,-0.5753044,-0.04306842
34289525,34289314,-0.22655027,-0.6392085,-0.042824782
34306989,34306786,-0.24785064,-0.53687656,-0.03514189
34328205,34328001,-0.23778668,-0.27828214,-0.025932878
34351921,34351713,-0.14524484,0.12170537,-0.038170703
34371889,34371681,0.07323803,0.39311594,-0.008702892
34388109,34387904,0.27971825,0.4833183,-0.023959603
34411824,34411616,0.33133757,0.27111837,-0.025737656
34431789,34431582,0.33714578,-0.078389704,-0.0162009
34448019,34447806,0.37978032,-0.4537133,-0.0898133
34467980,34467773,0.28454438,-0.64680326,-0.093605295
34489189,34488988,0.11830522,-0.6346711,-0.062642954
34510420,34510204,0.030883888,-0.5093411,-0.05014217
34527879,34527675,-0.13656476,-0.13925985,-0.09102674
34549097,34548890,-0.275104,0.36291212,-0.10595635
34570313,34570106,-0.20861736,0.70233124,-0.105275646
34587784,34587577,-0.09528671,0.71726537,-0.1271509
34608997,34608792,-0.106171384,0.44694892,-0.08482928
34631464,34631256,-0.15133318,-0.009790921,-0.12032886
34651433,34651223,-0.21568078,-0.29376885,-0.1486369
34667654,34667447,-0.33974516,-0.31994334,-0.12733085
34691367,34691158,-0.411436,-0.23068078,-0.07131038
34711332,34711126,-0.3251085,0.0119295595,-0.08797906
34727560,34727351,-0.17249823,0.23781092,-0.08806019
34751267,34751061,0.003313935,0.32349053,-0.08125096
34769994,34769783,0.18632887,0.32110304,-0.030464163
34789955,34789747,0.30913514,0.40482682,-0.031800084
34807423,34807218,0.49180046,0.45681366,-0.08483481
34828638,34828433,0.63923526,0.35801113,-0.017649768
34849862,34849653,0.34716666,0.090280674,0.025651986
34867329,34867120,0.071838886,-0.18668728,0.01591287
34888551,34888339,-0.25933355,-0.22924688,0.019777225
34909762,34909553,-0.5473357,-0.20091966,0.011235899
34930976,34930766,-0.6749626,-0.24296504,0.020775853
34950942,34950735,-0.5609121,-0.17332353,-0.01874785
34970910,34970703,-0.34259593,-0.05472986,0.028893834
34990880,34990670,-0.14385098,0.008791996,0.0027148486
35007099,35006892,-0.11332135,0.20251939,0.0068651065
35030813,35030605,-0.37533373,0.35480684,0.056761466
35050785,35050573,-0.5889156,0.3487962,0.030022489
35070751,35070540,-0.62385815,0.46326253,0.056424588
35089479,35089269,-0.5212081,0.4424168,0.10039956
35109435,35109225,-0.22273248,0.26299155,0.17295429
35130653,35130441,0.1824661,-0.13800028,0.24375226
35146866,35146663,0.42187744,-0.3922359,0.24895947
35168086,35167882,0.58846843,-0.63019717,0.23619312
35189310,35189098,0.5588158,-0.49553248,0.3046962
35210514,35210309,0.52854764,-0.17771827,0.2646353
35228043,35227836,0.6423363,0.06806023,0.26834884
35250459,35250247,0.7169351,0.16065899,0.27628925
35270430,35270213,0.6281957,0.10697041,0.2851783
35290386,35290179,0.21498051,0.114134915,0.28523666
35310355,35310148,-0.046215124,0.0018744736,0.2381293
35330322,35330115,-0.3026015,0.008760361,0.24850322
35350292,35350081,-0.5283542,0.2637154,0.2933258
35369010,35368802,-0.7921745,0.8514268,0.2952987
35388976,35388769,-0.99074805,1.459542,0.258159
35410187,35409983,-1.0347255,1.6625066,0.26150167
35427669,35427455,-0.9330772,1.3915797,0.23411976
35448878,35448670,-0.7075697,0.6303782,0.23116678
35470095,35469885,-0.32721224,-0.21637155,0.23118292
35487559,35487357,0.18994531,-0.71132284,0.20061126
35508787,35508574,0.6657441,-1.0953262,0.14604044
35528746,35528540,0.82613254,-1.0483139,0.12471267
35549959,35549755,0.84181255,-0.81747806,0.11734845
35567437,35567228,0.76377785,-0.5792706,0.10453353
35588656,35588443,0.66038775,-0.16555618,0.049814563
35609860,35609657,0.48135278,0.022297772,0.035331346
35627337,35627129,0.2863863,-0.042076226,0.07542785
35648564,35648346,0.091326036,-0.31190205,0.07291085
35668521,35668312,-0.08685466,-0.6989206,0.01734437
35689733,35689527,-0.21388052,-0.8596194,-0.006069591
35707204,35706998,-0.3343611,-0.7126656,-0.11335781
35728428,35728214,-0.33476925,-0.39291427,-0.15245412
35767103,35766901,-0.6613291,0.07533373,-0.25161535
35788325,35788117,-1.1344656,-0.15480182,-0.19460739
35809561,35809349,-1.3528163,-0.6097649,-0.24379556
35827012,35826803,-1.340111,-1.0556064,-0.35389194
35846973,35846770,-1.1355768,-1.2154801,-0.3850751
35868190,35867986,-0.7165198,-0.97062546,-0.368917
35889406,35889200,-0.19360477,-0.44770637,-0.39345905
35906875,35906672,0.24229477,0.016135205,-0.4066293
35928095,35927889,0.62602377,0.54541194,-0.4193398
35949307,35949103,0.9927561,0.86918986,-0.35607883
35966778,35966574,1.1570905,0.93027866,-0.3427147
35988022,35987811,1.4117891,0.60729843,-0.33583462
36009226,36009013,1.5039515,0.24062663,-0.3036993
36029181,36028973,1.4028215,0.066820696,-0.28841
36050422,36050206,1.1724769,0.056098916,-0.34109718
36067873,36067663,1.0023464,0.13764085,-0.31098467
36089087,36088875,0.6359627,0.3666161,-0.27713382
36110293,36110090,0.44111636,0.6700641,-0.2684969
36127769,36127562,0.2546314,0.90582,-0.2528658
36148983,36148777,0.04786946,0.9040937,-0.1901938
36168947,36168745,-0.1552733,0.6497573,-0.1890387
36190162,36189960,-0.29196304,0.33638805,-0.19127892
36207656,36207435,-0.35471934,0.07855497,-0.18060702
36228855,36228651,-0.13734478,0.052994166,-0.1118104
36247583,36247369,0.056144513,0.1455617,-0.08591321
36267544,36267335,0.27462152,0.122884266,-0.1596626
36288756,36288549,0.86088,-0.04070453,-0.14394283
36309969,36309765,1.2617159,-0.09141933,-0.13833477
36329935,36329732,1.2609408,0.008123512,-0.12466817
36347414,36347205,1.0774593,0.11517599,-0.15058182
36368624,36368419,0.9001991,0.21271096,-0.26851454
36389843,36389634,0.51863337,0.20343614,-0.3078689
36407319,36407112,0.21100293,0.14105177,-0.29958537
36428530,36428321,-0.27114102,-0.019334465,-0.2314392
36449743,36449537,-0.75997126,-0.21530962,-0.31295547
36470959,36470752,-0.9743039,-0.27273136,-0.31772462
36488432,36488224,-0.90727806,-0.062428616,-0.23596206
36508395,36508191,-0.7587067,0.11642078,-0.19452561
36529667,36529459,-0.5388791,0.20418067,-0.25387824
36547086,36546879,-0.60362375,0.33666423,-0.26581442
36568305,36568093,-0.745423,0.41674444,-0.29496977
36589521,36589313,-0.60299444,0.28129548,-0.2969544
36606985,36606781,-0.50588375,0.20853764,-0.24261375
36628232,36628028,-0.5293294,0.048228215,-0.20464268
36649424,36649211,-0.44598642,-0.14999191,-0.27438572
36670634,36670427,-0.31288275,-0.27527824,-0.27286354
36688102,36687898,-0.30299762,-0.29048002,-0.28047135
36708071,36707866,-0.2978762,-0.27867445,-0.24805361
36729284,36729081,-0.38260344,-0.29433915,-0.22198044
36750500,36750296,-0.58363795,-0.43467402,-0.21997675
36767984,36767773,-0.7123759,-0.69850326,-0.21928753
36789192,36788985,-0.81959283,-0.99812293,-0.22807477
36811665,36811450,-0.649272,-1.0129715,-0.20861956
36827875,36827670,-0.44771075,-0.8462048,-0.2092501
36849093,36848887,-0.20214254,-0.51298976,-0.19082664
36869060,36868856,-0.021827172,-0.1509253,-0.20301361
36890270,36890068,0.20777117,0.20854855,-0.14698702
36907743,36907540,0.4430996,0.37391773,-0.089841284
36928966,36928755,0.5817521,0.27964243,-0.04085047
36951436,36951221,0.40280238,-0.061921168,-0.033698764
36967659,36967449,0.22911194,-0.31375417,-0.013824384
36988868,36988658,0.23463126,-0.50210136,0.056038342
37011329,37011121,0.4293465,-0.47061747,0.065042354
37027557,37027344,0.61193603,-0.29184425,0.028701527
37047517,37047312,0.80663973,-0.060004886,0.044886827
37068730,37068527,0.97280186,-0.05579753,0.013930609
37091209,37090995,0.9325952,-0.3170029,0.07293288
37107420,37107214,0.7871658,-0.3297801,0.08215904
37128632,37128429,0.5248356,-0.18904413,0.081991136
37149855,37149645,0.19024798,-0.024796808,0.044849116
37171076,37170871,-0.08398538,0.16416451,0.05334225
37188541,37188332,-0.37040496,0.3358069,0.06273407
37208503,37208299,-0.4755059,0.4678153,0.13494113
37230976,37230765,-0.39676633,0.5293623,0.20042013
37247190,37246986,-0.41583478,0.52115166,0.25215983
37268416,37268202,-0.40400004,0.4811551,0.2639529
37289623,37289417,-0.27634972,0.39589396,0.25429848
37310845,37310632,-0.058277708,0.41136014,0.23843263
37328306,37328104,0.23960996,0.55255926,0.23611459
37349529,37349319,0.63186234,0.6258199,0.19762012
37369499,37369287,0.89783394,0.46564457,0.16438748
37386965,37386759,0.92484367,0.24713084,0.21422453
37408176,37407973,0.7414478,-0.12686272,0.20888773
37429397,37429193,0.30861303,-0.4173469,0.18456939
37450674,37450459,-0.040660135,-0.52039564,0.17111523
37468079,37467876,-0.28778026,-0.45576167,0.18168224
37489308,37489091,-0.39178506,-0.18566748,0.18879406
37510535,37510319,-0.352734,0.18808872,0.23089154
37527982,37527778,-0.35214376,0.4382455,0.18901713
37547949,37547746,-0.22459339,0.5621902,0.14414538
37569215,37569010,-0.039775588,0.4522096,0.12687072
37590383,37590178,0.042815004,0.18401292,0.100169964
37607857,37607653,-0.07994546,0.016451355,0.11559972
37629126,37628922,-0.41719827,-0.095785595,0.060133047
37650295,37650087,-0.5547089,-0.051968817,0.079034254
37667760,37667552,-0.5117293,0.09199821,0.09495603
37688969,37688766,-0.44715285,0.31149936,0.06248487
37708937,37708733,-0.46297154,0.62275934,0.076736726
37730164,37729954,-0.5289591,1.0389358,0.08274722
37747629,37747421,-0.51984084,1.3646142,0.103247546
37768844,37768635,-0.42958155,1.644368,0.064730994
37790061,37789857,-0.36945954,1.647768,0.101360954
37807531,37807323,-0.29020113,1.4136002,0.095974445
37828742,37828538,-0.124925256,0.7894383,0.09531102
37849962,37849755,-0.035087544,0.11357883,0.01857128
37869932,37869723,-0.14146435,-0.43725598,-0.06678817
37887405,37887193,-0.23357256,-0.7073978,-0.08655401
37908618,37908411,-0.20560634,-0.8527998,-0.13999826
37929835,37929625,-0.27264377,-0.753566,-0.1798594
37947304,37947096,-0.22667779,-0.5502116,-0.1941074
37969784,37969566,-0.2904128,-0.35751808,-0.24649623
37989738,37989530,-0.44557047,-0.46938843,-0.3212023
38010945,38010741,-0.6035207,-0.71178365,-0.36054158
38028423,38028213,-0.7647087,-0.95040566,-0.36421064
38048384,38048180,-0.8529348,-1.0340546,-0.3420882
38069603,38069396,-0.8103093,-0.90764505,-0.29740828
38087076,38086868,-0.62428397,-0.69434696,-0.2547249
38108286,38108083,-0.3360182,-0.5203783,-0.30060995
38129544,38129340,-0.21694282,-0.4540558,-0.31204858
38150724,38150515,-0.0008237237,-0.37280747,-0.32994586
38168193,38167986,0.2622244,-0.27787596,-0.3655046
38189412,38189201,0.5069326,-0.07120033,-0.43418932
38209377,38209170,0.68364495,0.14192995,-0.52371645
38228096,38227888,0.8629537,0.10820936,-0.5194591
38249317,38249106,0.931477,-0.015512415,-0.5605299
38269285,38269071,0.9963275,-0.27786842,-0.55716765
38290495,38290286,0.83754975,-0.4252737,-0.47333086
38307965,38307758,0.6408675,-0.38733587,-0.43850735
38329178,38328974,0.5702617,-0.13420518,-0.4792811
38350391,38350188,0.32682157,0.18540893,-0.4342857
38367868,38367662,0.22494127,0.26345277,-0.42753053
38389092,38388885,0.26948327,0.47009462,-0.39429018
38409055,38408852,0.19549052,0.56165034,-0.3747605
38430261,38430059,0.08893384,0.39389464,-0.3541324
38447744,38447531,0.059447408,0.17926434,-0.3750392
38469017,38468811,0.07527304,0.050298464,-0.31068596
38490174,38489961,0.0055203233,-0.023551214,-0.3077834
38507640,38507433,-0.023893144,-0.035260085,-0.30333802
38528869,38528657,-0.06526897,0.09887854,-0.2994381
38550070,38549864,-0.0012449055,0.122492716,-0.34968236
38568794,38568583,0.2872492,0.13577518,-0.35544273
38590009,38589800,0.6709312,0.119372465,-0.36411312
38609977,38609767,1.0688636,0.12733926,-0.3443844
38629936,38629733,1.3007189,0.1300517,-0.3340268
38647414,38647209,1.2646751,0.17891286,-0.3031208
38668632,38668421,0.9928641,0.30757862,-0.30939743
38689842,38689633,0.40631709,0.20751448,-0.24636255
38707311,38707107,-0.31342873,-0.11984969,-0.153065
38728538,38728323,-1.2514739,-0.53387094,-0.09002476
38748502,38748291,-1.8758377,-0.8501813,-0.12235137
38769709,38769506,-2.0010803,-1.0390569,-0.09284517
38792180,38791970,-1.7136497,-0.9726367,-0.06311797
38810894,38810689,-1.116514,-0.6515936,-0.037167754
38830863,38830657,-0.3268883,-0.27297232,-0.06540648
38850827,38850623,0.41704494,0.067772165,-0.13853705
38869552,38869344,0.96588457,0.18346329,-0.11131041
38892023,38891810,1.1655601,-0.014856762,-0.11082412
38909486,38909280,1.1883862,-0.20864631,-0.10496293
38926957,38926750,1.1655207,-0.40298882,-0.088141106
38949423,38949214,0.8542714,-0.40202543,-0.06525969
38969395,38969183,0.5045696,-0.20928612,-0.082110904
38986869,38986661,0.21235178,0.008434174,-0.089735694
39008080,39007868,-0.13489883,0.22578476,-0.09421384
39029346,39029136,-0.49656835,0.35792318,-0.082188666
39050560,39050343,-0.7712544,0.46976864,-0.10044203
39067977,39067771,-0.837784,0.52942836,-0.043666665
39087942,39087738,-0.8982657,0.55845,0.005718764
39109164,39108956,-0.8512372,0.67762804,-0.0015858237
39129128,39128921,-0.7871745,0.74945647,-0.016847406
39149099,39148892,-0.6095109,0.6100109,-0.0058622863
39169076,39168871,-0.4127004,0.35270464,-0.0362678
39189032,39188824,-0.05455377,0.21936087,-0.018110447
39208999,39208792,0.2414493,-0.07536149,0.0118165715
39228970,39228764,0.4976119,-0.228324,-0.010384996
39248938,39248734,0.59448177,-0.106420666,-0.03984403
39272656,39272444,0.65824723,0.26009184,-0.05060854
39287623,39287413,0.65042263,0.50672376,-0.011182116
39308888,39308683,0.5932217,0.53533643,-0.009193891
39330062,39329848,0.43010873,0.27127966,0.024314195
39347520,39347315,0.22314848,-0.00048109866,0.020296564
39368735,39368531,-0.043866385,-0.28878525,0.04180476
39389950,39389746,-0.22285019,-0.45309997,0.045232892
39411177,39410966,-0.17984708,-0.4779249,0.06543268
39428652,39428438,-0.12729475,-0.4448793,0.04197525
39448611,39448403,-0.2481872,-0.35049167,0.038663544
39468585,39468369,-0.354948,-0.092293926,0.03436963
39488545,39488337,-0.3458251,-0.05401105,0.07521692
39509759,39509553,-0.32553262,-0.30671254,0.069121644
39528478,39528272,-0.31522807,-0.7165517,0.10126453
39548447,39548240,-0.25544938,-0.8870859,0.10881109
39568418,39568206,-0.15914722,-0.8375908,0.09142854
39588380,39588174,0.024197511,-0.52616566,0.11680786
39609606,39609391,0.1792886,0.0056871404,0.111996904
39627072,39626863,0.27523714,0.43227,0.11672105
39648278,39648076,0.45720777,0.7524103,0.13465123
39669494,39669291,0.56661856,0.6104371,0.11618979
39690716,39690511,0.66701275,0.12564336,0.06263413
39708183,39707979,0.77664334,-0.38905358,0.03132302
39728155,39727947,0.82950675,-0.721513,0.06883788
39748122,39747914,0.6388958,-0.8944959,0.080431886
39768095,39767887,0.46132702,-0.77402127,0.063622266
39788059,39787851,0.49987558,-0.3394543,0.004552251
39808024,39807818,0.4865014,0.06295605,-0.0025690007
39827990,39827785,0.4204294,0.1935868,-0.024772273
39849210,39849002,0.2518767,0.089386776,-0.050028287
39869169,39868967,0.05980799,-0.20214105,-0.06586441
39891639,39891432,-0.0679048,-0.3489391,-0.05246336
39907867,39907658,-0.21793537,-0.25743294,-0.05630953
39929081,39928875,-0.46212977,0.0443851,-0.037656207
39949040,39948837,-0.58090657,0.48595253,-0.026819143
39970266,39970053,-0.45890316,0.8219147,-0.020582559
39987778,39987571,-0.36648393,0.76889384,-0.01945952
40008942,40008740,-0.416938,0.5955252,-0.05614718
40030158,40029956,-0.46650517,0.35691056,-0.039181657
40047637,40047428,-0.5345537,0.29221922,-0.009634696
40068902,40068695,-0.66997784,0.28854173,-0.009047839
40090061,40089858,-0.7557301,0.47375277,-0.09317336
40107548,40107330,-0.8290682,0.78920615,-0.07637799
40127527,40127318,-0.9039185,1.111902,-0.09190806
40148723,40148514,-0.8833996,1.3134229,-0.096331395
40172434,40172225,-0.88799804,1.2583927,-0.09869206
40187410,40187200,-0.8024917,1.2087042,-0.13402261
40208620,40208415,-0.64258295,1.1213334,-0.16949123
40232337,40232129,-0.41185766,0.9493889,-0.13384423
40268530,40268318,0.28925553,0.4272782,-0.12527081
40289738,40289532,0.9437164,-0.10404019,-0.17314635
40309706,40309501,1.3695294,-0.73359776,-0.17093511
40327174,40326972,1.3515838,-1.0552986,-0.18589836
40348397,40348188,1.1201577,-1.0243039,-0.18852033
40369608,40369405,0.6459977,-0.6487775,-0.16205491
40390829,40390619,0.1127748,-0.26227698,-0.12353899
40408324,40408118,-0.27304962,0.062141925,-0.15207666
40432016,40431805,-0.61378014,0.2101053,-0.1593779
40454476,40454268,-0.73857385,-0.17978017,-0.18439774
40466979,40466776,-0.76266646,-0.573886,-0.20727323
40488175,40487963,-0.6809521,-0.98476064,-0.18394619
40511882,40511674,-0.4945986,-1.129973,-0.18557061
40531851,40531641,-0.22961925,-1.0668247,-0.1708875
40548069,40547864,0.024402604,-0.91165245,-0.17527421
40571790,40571579,0.41749611,-0.39252418,-0.1859707
40590510,40590296,0.868161,0.08025322,-0.22079161
40607976,40607766,1.0676328,0.17968753,-0.18057269
40627951,40627737,1.1774698,0.036821958,-0.17763491
40650424,40650200,1.1060996,-0.27694264,-0.081401065
40670377,40670168,0.8018225,-0.6316499,-0.069183156
40687845,40687636,0.67958474,-0.7697853,-0.06610414
40709069,40708856,0.5969479,-0.80382484,-0.053017758
40730274,40730067,0.4966305,-0.5930073,-0.049951393
40747742,40747539,0.4090536,-0.17266124,-0.025016315
40773956,40773748,0.30857092,0.39189336,-0.035159726
40791480,40791271,0.20175464,0.5587514,-0.02493747
40811400,40811190,0.008595675,0.5129499,-0.040529553
40827615,40827409,-0.08357845,0.29416776,-0.025960522
40851334,40851123,-0.16820408,-0.12695916,-0.016539821
40873793,40873585,-0.24355856,-0.39679095,-0.034586992
40887516,40887312,-0.26393026,-0.43371776,-0.02328398
40908732,40908527,-0.42755863,-0.44789204,-0.016382424
40929958,40929745,-0.4601329,-0.31124544,-0.011522619
40947426,40947215,-0.45609534,-0.21847178,0.0191239
40967395,40967190,-0.5225324,0.088976495,0.006323055
40988607,40988400,-0.57128567,0.35028934,0.0015769433
41007327,41007118,-0.6237429,0.47860152,0.033488624
41027320,41027116,-0.57521844,0.49388593,0.044425286
41048503,41048300,-0.5156888,0.34076467,0.07666187
41070972,41070764,-0.48758563,0.14085366,0.080130056
41090945,41090734,-0.4924973,0.04581599,0.06638782
41110913,41110700,-0.44864953,-0.035888277,0.067009196
41130879,41130668,-0.31092742,0.099269874,0.06807491
41150852,41150636,-0.04814093,0.27240473,0.07057457
41167060,41166858,0.21081585,0.2666619,0.037923396
41190778,41190570,0.63046557,0.32161888,0.00097611523
41210750,41210538,0.7952789,0.6122149,-0.00726481
41230711,41230505,0.7890419,0.85034806,-0.0014211083
41248202,41248000,0.60174817,0.9590525,0.020091545
41269397,41269192,0.1895321,0.7389915,0.02235426
41290626,41290417,-0.14047235,0.3072437,0.031515796
41306843,41306632,-0.23816875,0.14766853,0.06293052
41328097,41327892,-0.3489618,0.11807381,0.051957875
41349280,41349066,-0.41888273,-0.048541404,0.028211124
41370481,41370278,-0.35880104,-0.15322258,0.026818993
41390459,41390247,-0.1865352,-0.3820539,0.04045156
41410431,41410214,0.023623865,-0.6872491,0.004103834
41431632,41431428,0.20221838,-0.8381087,-0.008792294
41451604,41451397,0.40304017,-0.7013141,0.0499329
41472825,41472613,0.43505344,-0.30046904,0.073973216
41492793,41492580,0.2614861,0.06492353,0.051716253
41511509,41511300,0.1084347,0.1597369,0.03442518
41527726,41527522,0.015129881,0.1284855,0.020123431
41548944,41548738,-0.19420236,0.027569707,0.009106328
41570159,41569954,-0.27197215,-0.32165477,0.029509893
41587678,41587464,-0.2521277,-0.49861792,-0.011453519
41608850,41608641,-0.16595155,-0.7468405,-0.034903724
41630059,41629856,-0.026378116,-0.66891855,-0.014846374
41648789,41648577,0.0568368,-0.5342664,0.011939588
41668788,41668580,0.13533121,-0.3801726,0.02337334
41689974,41689765,0.0546197,-0.10476422,-0.027038436
41709934,41709727,-0.09634938,0.0695567,-0.051999476
41731149,41730943,-0.16033116,0.022486236,-0.015033526
41751115,41750910,-0.26809865,-0.12081311,0.04142976
41769844,41769631,-0.3173481,-0.30666906,0.027101597
41789808,41789598,-0.32855612,-0.45642143,-0.0023859688
41809775,41809565,-0.22753386,-0.4460318,-0.098136105
41829743,41829533,-0.19756109,-0.2626686,-0.104573764
41849713,41849501,-0.14890786,-0.07665191,-0.05737693
41869686,41869468,0.011823291,0.064874165,-0.09650634
41887150,41886941,0.09341523,0.14827566,-0.1048742
41909612,41909404,0.01579344,0.29172298,-0.04209187
41927078,41926874,-0.029900078,0.39894238,-0.07787604
41948297,41948091,-0.06316314,0.4124766,-0.09124807
41969517,41969305,0.0009450569,0.46469525,-0.10294834
41986980,41986777,0.07613312,0.528073,-0.11870325
42009452,42009243,0.110233665,0.7697671,-0.06722696
42029421,42029213,0.07793025,0.71688825,-0.071736455
42049391,42049179,0.16755696,0.5306103,-0.10878225
42069352,42069143,0.2863773,0.3353394,-0.10462112
42089318,42089111,0.28864196,0.20132922,-0.05037149
42109293,42109079,0.34709188,0.23270735,-0.050082594
42129252,42129046,0.40160492,0.3615554,-0.06977734
42147976,42147766,0.40891013,0.3981453,-0.057506457
42169205,42168984,0.3529835,0.2811685,-0.10999941
42189150,42188948,0.32552147,0.059646536,-0.15854749
42210368,42210165,0.13264117,-0.13801052,-0.108296305
42227851,42227636,0.01682272,-0.28230065,-0.1115727
42247815,42247604,-0.10208983,-0.36693445,-0.089383006
42270269,42270067,-0.20862956,-0.3827421,-0.09492835
42287750,42287539,-0.23196848,-0.32057723,-0.060798638
42308960,42308755,-0.17147648,-0.2687653,-0.07643496
42328929,42328723,-0.33587116,-0.17022449,-0.08013078
42350144,42349938,-0.4639986,-0.10120358,-0.09956084
42367620,42367411,-0.41953036,0.06004464,-0.08472359
42387592,42387379,-0.3655967,0.20091082,-0.06174692
42410049,42409841,-0.29623416,0.23013997,-0.069430806
42427519,42427312,-0.1888673,0.009979716,-0.08465036
42448734,42448528,-0.00599057,-0.2253545,-0.14376423
42469952,42469745,0.2699895,-0.43840447,-0.10504221
42489919,42489711,0.30891234,-0.67414415,-0.064747356
42507388,42507183,0.08694204,-0.61440736,-0.058250487
42528609,42528399,-0.31074023,-0.3364802,-0.03882134
42549822,42549617,-0.53277475,0.061932247,-0.09842574
42567288,42567085,-0.4946161,0.26085433,-0.115539394
42588509,42588301,-0.18920247,0.6089373,-0.084547296
42608479,42608271,0.07580921,0.79789275,-0.110841915
42630940,42630733,0.2104638,1.05177,-0.05815023
42648408,42648203,0.2921076,1.248638,-0.07354043
42668377,42668172,0.28764465,1.1370224,-0.047619402
42688346,42688140,0.18397346,0.9008131,-0.067182645
42707064,42706860,0.16707668,0.64471066,-0.07328273
42728284,42728077,0.21264638,0.24058835,-0.038649395
42748249,42748043,0.30961335,0.07021296,-0.0126004135
42773211,42773003,0.39709422,-0.21250288,-0.075582504
42788181,42787977,0.33495978,-0.32477754,-0.09117688
42809400,42809193,0.2597033,-0.37728164,-0.047660794
42833111,42832905,0.12750152,-0.40261307,-0.10043492
42848083,42847879,0.008494839,-0.3440267,-0.08909584
42868057,42867849,-0.042624105,-0.47558853,-0.04891262
42889272,42889063,0.12361804,-0.5977921,-0.05002967
42910486,42910278,0.20526052,-0.6716102,-0.029901031
42927952,42927750,0.2522396,-0.590916,-0.0227571
42949176,42948968,0.17811084,-0.5877416,-0.025481595
42970385,42970181,0.1292687,-0.6951552,-0.01447771
42987858,42987657,0.15724641,-0.7333899,-0.010032763
43009072,43008869,0.20585199,-0.7087095,0.02788005
43034038,43033830,0.28371227,-0.62826157,0.0080497535
43052766,43052555,0.27337477,-0.56693935,0.0029394468
43067731,43067524,0.3176072,-0.5920545,0.0063344766
43092701,43092484,0.3981149,-0.4841755,0.005422263
43107674,43107460,0.36113295,-0.29664832,-0.01092142
43127630,43127427,0.265141,-0.088310555,-0.05548465
43148848,43148642,0.09447413,-0.009546556,-0.08646167
43170064,43169858,0.031358268,-0.031263728,-0.0855276
43187561,43187346,0.06732607,-0.09785743,-0.043581527
43207502,43207297,0.13514861,-0.108491406,-0.07128353
43228721,43228513,-0.14419717,-0.30103436,-0.009910298
43249932,43249729,-0.626555,-0.70271116,0.00466193
43267405,43267200,-1.0780058,-1.0119467,0.07151918
43288628,43288416,-1.5471861,-0.568117,0.17312081
43309838,43309631,-1.7509596,0.44402447,0.17520285
43328555,43328351,-1.8212503,1.2606094,0.18903187
43348535,43348319,-1.6321379,1.8493131,0.12520047
43368497,43368287,-1.3228554,1.7873157,0.14293076
43392209,43392000,-0.84754205,1.2467268,0.1930373
43407178,43406973,-0.5519611,0.854187,0.1663398
43428398,43428189,-0.089973055,0.36295927,0.14045759
43452107,43451901,0.26566756,-0.057882417,0.15982305
43472078,43471871,0.3757303,-0.18961705,0.12863475
43488302,43488092,0.49326885,-0.19829942,0.13649933
43509517,43509307,0.38084713,0.02393099,0.12771
43529485,43529275,0.33313826,0.17904115,0.101451345
43548216,43547997,0.3840215,0.21089059,0.118019275
43568164,43567962,0.34514433,0.23608929,0.072728895
43590652,43590430,0.28239217,0.20620498,0.09611889
43610609,43610394,0.26025394,0.24539004,0.159074
43628070,43627865,0.17441864,0.17382272,0.17971268
43653037,43652826,0.118153915,0.059825033,0.09663424
43674287,43674079,0.23337515,-0.14810798,0.070412435
43691724,43691516,0.35846794,-0.3052641,0.084833235
43707940,43707736,0.46222976,-0.36433744,0.12488831
43731662,43731448,0.58424383,-0.24672768,0.11622137
43754128,43753912,0.7664339,-0.057770487,0.05411731
43767845,43767639,0.809521,0.08208477,0.048495647
43791567,43791355,0.8970028,0.04742607,0.06688808
43810285,43810071,0.76886976,-0.17680393,0.085042365
43827749,43827543,0.6272188,-0.39909244,0.095418975
43850220,43850008,0.5383397,-0.45061126,0.111913025
43868931,43868726,0.3152747,-0.4742418,0.10852263
43890148,43889941,0.11350452,-0.41648927,0.07200141
43908874,43908664,-0.14688516,-0.31068295,0.06683034
43928831,43928628,-0.34591386,-0.18022206,0.0930914
43950054,43949845,-0.4902508,-0.016958104,0.13073717
43967524,43967316,-0.40546572,0.12856677,0.10346045
43991253,43991046,-0.22292696,0.20659932,0.0011644807
44012455,44012245,-0.06042894,0.19444771,-0.054247197
44027424,44027220,0.005697108,0.12991367,-0.02896633
44047393,44047188,-0.035010636,-0.08221666,-0.0005955291
44071104,44070898,-0.19287549,-0.38885176,0.024888389
44091078,44090868,-0.36474583,-0.53345555,0.029195579
44107303,44107090,-0.40315273,-0.47280926,-0.030690568
44128515,44128311,-0.3657976,-0.08480574,-0.0030439799
44149734,44149521,-0.17810081,0.3026557,-0.0181955
44170941,44170736,0.13928366,0.48641732,-0.02023559
44188416,44188208,0.23254432,0.41917282,-0.06354675
44208377,44208175,0.14986339,0.10062208,-0.092701375
44230846,44230639,-0.16404143,-0.14795676,-0.082349524
44268280,44268078,-0.33962405,-0.33009347,-0.025373895
44291997,44291790,-0.19141844,-0.21757433,-0.03028283
44310719,44310511,0.021422496,-0.08461335,-0.030376047
44330694,44330479,0.23448607,-0.01272055,-0.03784
44350658,44350445,0.4051168,0.034925163,-0.064328276
44370627,44370421,0.43940985,0.12398803,-0.069875814
44390594,44390382,0.3814259,0.17480132,-0.022059025
44410554,44410348,0.20288856,0.22472504,-0.01688018
44429278,44429069,0.120844156,0.22426939,-0.009752284
44450488,44450284,0.065036505,0.44424212,0.028648496
44467959,44467755,-0.105528,0.5876586,0.07618353
44489182,44488976,-0.2883152,0.38290623,0.06256245
44510397,44510188,-0.23751739,0.21629636,0.06694601
44527866,44527658,-0.1347032,0.19939475,0.07140526
44549088,44548875,-0.16741966,0.290585,0.11692611
44569049,44568841,-0.26267558,0.24142799,0.059354648
44590278,44590058,-0.1769107,0.30756304,0.038808
44610236,44610025,-0.21033825,0.31999633,0.080353215
44630204,44629996,-0.27588752,0.2886933,0.07802265
44650169,44649961,-0.28260508,0.19630052,0.0042717126
44671387,44671179,-0.21225446,0.11615891,0.00870533
44690108,44689896,-0.16629283,-0.1046347,0.008940959
44710070,44709865,-0.12595922,-0.39860025,0.0008784594
44732538,44732328,0.019041348,-0.65039074,0.061596725
44747508,44747303,0.07266763,-0.66273254,0.03665311
44768724,44768518,0.11647126,-0.7144899,0.04103838
44789940,44789734,0.17616709,-0.56851554,0.008809039
44807408,44807205,0.10690573,-0.3781753,0.0024872012
44828631,44828422,0.088572465,-0.06145664,-0.024846498
44848599,44848389,0.23207831,0.15638334,-0.029027123
44867323,44867121,0.2638102,0.15337789,-0.0743772
44888542,44888325,0.29814407,0.050613422,-0.0686836
44909749,44909541,0.29000795,-0.05943457,-0.006072953
44930962,44930757,0.3199121,-0.06679428,-0.01837396
44952188,44951973,0.30753636,-0.099510916,-0.082031526
44972151,44971943,0.25379476,-0.0046631247,-0.10415856
44989618,44989411,0.28880695,0.10991104,-0.11029838
45012083,45011875,0.6024061,0.34304002,-0.11385646
45029555,45029347,0.7687465,0.50375503,-0.15736263
45049530,45049314,0.90237737,0.54561454,-0.1506443
45067000,45066788,0.9694803,0.5479203,-0.14660335
45086955,45086752,0.8381975,0.5237827,-0.10598648
45108185,45107973,0.31866154,0.14326188,0.01151119
45129386,45129184,-0.49065244,-0.60387844,0.044703923
45150611,45150401,-1.3251861,-0.99134195,-0.011249419
