timestamp,timestamp_sample,control[0],control[1],control[2],control[3],control[4],control[5],control[6],control[7]
22226890,22226659,-0.00090393674,-0.00041143113,0.00034895385,0.0,0.0,0.0,0.0,-1.0
22278039,22277814,-0.0006406814,-0.00046455304,0.00068272796,0.0,0.0,0.0,0.0,-1.0
22330467,22330228,-0.0004914896,-0.00022582912,8.5848005e-05,0.0,0.0,0.0,0.0,-1.0
22380385,22380148,-0.000918527,-0.0004854,0.0001002603,0.0,0.0,0.0,0.0,-1.0
22429053,22428816,-0.00078899355,-0.0005094237,0.00022971518,0.0,0.0,0.0,0.0,-1.0
22477715,22477484,-0.00018292875,-0.00035329236,8.8960485e-05,0.0,0.0,0.0,0.0,-1.0
22530136,22529901,-0.00063263427,-0.00052412564,0.00019145434,0.0,0.0,0.0,0.0,-1.0
22578795,22578567,-0.00038774154,-9.9090794e-05,0.0004126625,0.0,0.0,0.0,0.0,-1.0
22627476,22627238,-0.00054438144,-0.00015055927,0.0005404877,0.0,0.0,0.0,0.0,-1.0
22677380,22677154,-0.00058182504,-0.00030398846,0.00038525235,0.0,0.0,0.0,0.0,-1.0
22729805,22729568,-0.0003921122,-0.0004583756,0.00026216812,0.0,0.0,0.0,0.0,-1.0
22778464,22778237,5.811259e-07,-0.0003132349,-0.00015275474,0.0,0.0,0.0,0.0,-1.0
22827142,22826914,-0.0006398657,-0.000112762384,-9.392519e-05,0.0,0.0,0.0,0.0,-1.0
22879553,22879320,-0.001169173,-0.0005533513,-0.00011174759,0.0,0.0,0.0,0.0,-1.0
22929473,22929239,-0.00041206574,-0.00045276483,-7.452905e-05,0.0,0.0,0.0,0.0,-1.0
22978134,22977907,-0.00069790124,-0.0006402562,-0.0005130631,0.03140187,0.0,0.0,0.0,-1.0
23030548,23030320,-0.000949244,-0.00052484963,0.0011489968,0.062149536,0.0,0.0,0.0,-1.0
23079230,23078993,-0.0012054573,-0.0004031852,-0.00074310094,0.070841126,0.0,0.0,0.0,-1.0
23127884,23127659,-0.0052490467,-0.012821789,0.0016254315,0.070841126,0.0,0.0,0.0,-1.0
23177848,23177620,-0.0041742455,-0.0038001456,-0.0008873324,0.070841126,0.0,0.0,0.0,-1.0
23230214,23229989,-0.0040037096,-0.0062797936,-0.0014344786,0.070841126,0.0,0.0,0.0,-1.0
23278892,23278661,0.007706015,-0.0039474326,-0.001980532,0.07156542,0.0,0.0,0.0,-1.0
23327560,23327329,0.0071866456,-0.009872094,-0.0065879705,0.08098131,0.0,0.0,0.0,-1.0
23377483,23377247,0.00061203144,-0.003697199,-0.006992453,0.086775705,0.0,0.0,0.0,-1.0
23429895,23429660,0.0061014225,-0.015328579,-0.007992502,0.086775705,0.0,0.0,0.0,-1.0
23478559,23478329,0.007853941,0.007800816,-0.0054087085,0.086051404,0.0,0.0,0.0,-1.0
23527225,23526999,0.0068436256,0.015936203,-0.0032400773,0.086051404,0.0,0.0,0.0,-1.0
23579640,23579413,0.0024361156,-0.012899131,-0.0033619488,0.086775705,0.0,0.0,0.0,-1.0
23629567,23629331,-0.008337071,0.019700084,-0.008096615,0.086051404,0.0,0.0,0.0,-1.0
23678237,23678001,-0.008616742,0.030651204,-0.01232912,0.086775705,0.0,0.0,0.0,-1.0
23728157,23727921,-0.001522874,0.013648339,-0.016729355,0.086775705,0.0,0.0,0.0,-1.0
23779312,23779083,0.004465872,-0.015549247,-0.023305804,0.086775705,0.0,0.0,0.0,-1.0
23827983,23827753,0.009494812,-0.018756524,-0.026014982,0.086051404,0.0,0.0,0.0,-1.0
23877897,23877670,0.007321473,-0.009830291,-0.026100026,0.08098131,0.0,0.0,0.0,-1.0
23930310,23930083,-0.0035792633,0.011163531,-0.026993029,0.08170561,0.0,0.0,0.0,-1.0
23978979,23978753,-0.008130933,-0.010216185,-0.027436469,0.07735981,0.0,0.0,0.0,-1.0
24027693,24027458,-0.00341084,-0.017702485,-0.026525535,0.070116825,0.0,0.0,0.0,-1.0
24077586,24077340,0.00038323,-0.001242702,-0.026381677,0.070116825,0.0,0.0,0.0,-1.0
24129989,24129755,0.0021860718,0.00789287,-0.026815975,0.07301402,0.0,0.0,0.0,-1.0
24178657,24178424,-0.0008156327,-0.0049003945,-0.02500231,0.07808411,0.0,0.0,0.0,-1.0
24227327,24227094,-0.0032596795,-0.008190143,-0.023397898,0.08025701,0.0,0.0,0.0,-1.0
24279732,24279507,0.0014275858,0.0059082047,-0.020481689,0.08025701,0.0,0.0,0.0,-1.0
24328406,24328176,-0.0012110558,0.0047386074,-0.01821348,0.08025701,0.0,0.0,0.0,-1.0
24378321,24378094,-0.0012271653,-0.008066016,-0.013136019,0.0875,0.0,0.0,0.0,-1.0
24430738,24430508,0.0024739,0.0041219667,-0.00976816,0.09836449,0.0,0.0,0.0,-1.0
24479403,24479178,0.0021986202,0.00038076792,-0.0074849282,0.09764019,0.0,0.0,0.0,-1.0
24528074,24527846,-0.00642799,-0.022979794,-0.0065845787,0.09908878,0.0,0.0,0.0,-1.0
24577990,24577765,-0.0059935176,-0.0021345906,-0.00406946,0.10488318,0.0,0.0,0.0,-1.0
24630414,24630178,-0.003174225,0.010693838,-0.0039268862,0.10560747,0.0,0.0,0.0,-1.0
24679086,24678851,0.00087679387,-0.008382193,-0.005282753,0.10705608,0.0,0.0,0.0,-1.0
24727746,24727517,0.0005049259,-0.0050032795,-0.003633081,0.10705608,0.0,0.0,0.0,-1.0
24776428,24776199,-0.0009618125,0.005831092,-0.0018998189,0.10705608,0.0,0.0,0.0,-1.0
24830080,24829848,-0.002130172,-0.0020292746,-0.00033618452,0.10705608,0.0,0.0,0.0,-1.0
24878748,24878520,-0.0005681358,-0.0077347676,0.0011625675,0.10705608,0.0,0.0,0.0,-1.0
24927422,24927189,0.0005453569,-0.001476161,0.012130916,0.10126168,0.0,0.0,0.0,-1.0
24979828,24979602,-0.0017224787,0.0038441438,0.024086112,0.09908878,0.0,0.0,0.0,-1.0
25028502,25028271,-0.0017419644,-0.003222773,0.041199286,0.09401869,0.0,0.0,0.0,-1.0
25078416,25078189,-0.0008850779,-0.0067913947,0.04873996,0.0932944,0.0,0.0,0.0,-1.0
25130833,25130603,-0.0027514955,0.004796788,0.048462026,0.0932944,0.0,0.0,0.0,-1.0
25179497,25179272,-0.0022619904,0.006642038,0.045389812,0.0932944,0.0,0.0,0.0,-1.0
25228168,25227942,-0.0020183283,-0.0005763978,0.04326944,0.0932944,0.0,0.0,0.0,-1.0
25278101,25277865,-0.0025774857,-0.00041619613,0.04018423,0.0846028,0.0,0.0,0.0,-1.0
25330513,25330273,-0.0020424468,0.0014534569,0.039383106,0.08242991,0.0,0.0,0.0,-1.0
25379172,25378943,-0.0024878397,0.00073578925,0.0381357,0.08098131,0.0,0.0,0.0,-1.0
25427853,25427621,-0.0013886733,0.00028402265,0.037263267,0.08098131,0.0,0.0,0.0,-1.0
25480265,25480027,-0.0011044068,0.0026476479,0.03305948,0.08242991,0.0,0.0,0.0,-1.0
25528921,25528696,-0.0006766685,0.0011346437,0.029632805,0.08315421,0.0,0.0,0.0,-1.0
25580095,25579862,-0.00395431,-0.0005789797,0.0306451,0.08315421,0.0,0.0,0.0,-1.0
25627512,25627284,-0.004766656,0.0011059268,0.02985756,0.08315421,0.0,0.0,0.0,-1.0
25679933,25679699,-0.0024150063,0.002280209,0.028718797,0.0838785,0.0,0.0,0.0,-1.0
25729860,25729618,-0.0019530613,-0.00031785519,0.025563179,0.0846028,0.0,0.0,0.0,-1.0
25778521,25778285,-0.003836993,-0.0031386793,0.021116652,0.086051404,0.0,0.0,0.0,-1.0
25827178,25826954,-0.0045520766,0.00022951303,0.01645137,0.0896729,0.0,0.0,0.0,-1.0
25879601,25879369,-0.0016933705,0.0050174836,0.012025946,0.091121495,0.0,0.0,0.0,-1.0
25928268,25928039,0.00025138442,0.0027588615,0.008177126,0.091121495,0.0,0.0,0.0,-1.0
25976944,25976711,0.00029466028,-0.0050117834,0.0069293375,0.091121495,0.0,0.0,0.0,-1.0
26030630,26030391,-0.0052367807,-0.0029867876,0.005773723,0.091121495,0.0,0.0,0.0,-1.0
26079268,26079039,-0.0034972273,0.0061138733,0.0045153103,0.091121495,0.0,0.0,0.0,-1.0
26127941,26127710,0.0011337159,0.0015755398,0.004877155,0.091121495,0.0,0.0,0.0,-1.0
26180352,26180123,-6.0249745e-06,-0.0012858198,0.00030368703,0.091121495,0.0,0.0,0.0,-1.0
26229067,26228838,-0.002828483,0.00081399945,-0.0059324782,0.09257009,0.0,0.0,0.0,-1.0
26278942,26278711,-0.0045119943,0.00049454375,-0.01183765,0.09691589,0.0,0.0,0.0,-1.0
26327612,26327386,-0.0041593364,-0.0010465535,-0.012783156,0.09691589,0.0,0.0,0.0,-1.0
26380030,26379794,-0.0035548436,0.0005525582,-0.017239038,0.09691589,0.0,0.0,0.0,-1.0
26428696,26428464,-0.0015934713,0.0033740078,-0.022305679,0.09691589,0.0,0.0,0.0,-1.0
26477361,26477134,-0.0013589443,0.007888238,-0.024320856,0.09691589,0.0,0.0,0.0,-1.0
26527288,26527051,-0.0020854452,0.0017232522,-0.02809715,0.09691589,0.0,0.0,0.0,-1.0
26579699,26579466,-0.002351174,0.0026431575,-0.028931305,0.09836449,0.0,0.0,0.0,-1.0
26628374,26628141,-0.0026315816,0.0032135309,-0.02936279,0.10198598,0.0,0.0,0.0,-1.0
26677028,26676805,-0.0013822287,0.004236765,-0.02924956,0.10198598,0.0,0.0,0.0,-1.0
26726954,26726727,-0.00063112297,0.0025816585,-0.029115984,0.10198598,0.0,0.0,0.0,-1.0
26779429,26779197,0.0003882405,0.0037170153,-0.030664887,0.095467284,0.0,0.0,0.0,-1.0
26828034,26827806,0.0030099412,0.005501592,-0.02997284,0.0875,0.0,0.0,0.0,-1.0
26880455,26880219,-0.0025438273,0.0006023963,-0.026734458,0.0875,0.0,0.0,0.0,-1.0
26929120,26928889,-0.0071950015,-0.0032569943,-0.024210317,0.09257009,0.0,0.0,0.0,-1.0
26979039,26978807,-0.0039312798,0.0015371939,-0.02234291,0.09257009,0.0,0.0,0.0,-1.0
27027735,27027480,-0.00092962745,0.0015318379,-0.023689646,0.0903972,0.0,0.0,0.0,-1.0
27080121,27079892,-2.5936375e-05,0.0011971176,-0.021447377,0.0903972,0.0,0.0,0.0,-1.0
27128784,27128560,-0.00082792185,0.004862549,-0.018577373,0.0903972,0.0,0.0,0.0,-1.0
27177476,27177237,-0.0009310585,0.0062787742,-0.015978213,0.0903972,0.0,0.0,0.0,-1.0
27229880,27229650,-0.0020032164,0.003308308,-0.013628011,0.0903972,0.0,0.0,0.0,-1.0
27279794,27279563,-0.002175951,0.0019420017,-0.011971881,0.0903972,0.0,0.0,0.0,-1.0
27328470,27328232,-0.00026308416,0.004098816,-0.011608746,0.0903972,0.0,0.0,0.0,-1.0
27377134,27376903,0.0005544748,0.0039528776,-0.011265538,0.0903972,0.0,0.0,0.0,-1.0
27429542,27429316,-0.0017161513,0.0032712035,-0.0077020503,0.0903972,0.0,0.0,0.0,-1.0
27479465,27479234,-0.0015932566,0.004444188,-0.004742957,0.09257009,0.0,0.0,0.0,-1.0
27528131,27527904,-0.0010675334,0.0033724906,-0.0031799788,0.09257009,0.0,0.0,0.0,-1.0
27580545,27580317,-0.0021899736,0.0022280538,-0.0017070433,0.0932944,0.0,0.0,0.0,-1.0
27629211,27628987,-0.0016839341,0.0042590336,-0.0002097862,0.0932944,0.0,0.0,0.0,-1.0
27677894,27677659,-0.0025303129,0.0042962064,0.0008821969,0.0932944,0.0,0.0,0.0,-1.0
27727805,27727575,-0.0004578275,0.003178669,0.0016694369,0.0932944,0.0,0.0,0.0,-1.0
27780220,27779989,-0.0013290185,0.0019479607,0.0023403023,0.0932944,0.0,0.0,0.0,-1.0
27828895,27828661,-0.0022093104,0.0037209915,0.0020274837,0.0932944,0.0,0.0,0.0,-1.0
27877555,27877329,1.5360138e-05,0.0036130291,0.0022477792,0.0932944,0.0,0.0,0.0,-1.0
27927471,27927247,-0.0011179156,0.001995625,0.0028020504,0.09474299,0.0,0.0,0.0,-1.0
27979892,27979660,-0.0021062354,0.0034835064,0.0027825679,0.09474299,0.0,0.0,0.0,-1.0
28028555,28028330,-0.0021427071,0.004609788,0.00019443735,0.09474299,0.0,0.0,0.0,-1.0
28077228,28077001,-0.0011116994,0.003082184,-0.0021661932,0.08894859,0.0,0.0,0.0,-1.0
28129639,28129415,-0.00073539396,0.0035235994,-0.0031483397,0.086775705,0.0,0.0,0.0,-1.0
28180848,28180615,-0.00076613564,0.005506162,-0.0016231673,0.086775705,0.0,0.0,0.0,-1.0
28228227,28228002,-0.00052704295,0.004432586,-0.0013204005,0.086775705,0.0,0.0,0.0,-1.0
28280657,28280420,-0.0003613339,0.00036793164,-0.00078608695,0.0875,0.0,0.0,0.0,-1.0
28330564,28330334,-0.0015797293,0.0014354393,-0.00066493376,0.0896729,0.0,0.0,0.0,-1.0
28377978,28377756,-0.0028330542,0.0043622744,-5.5095147e-06,0.091845796,0.0,0.0,0.0,-1.0
28427910,28427684,-0.0034265262,0.0047861952,0.00270607,0.095467284,0.0,0.0,0.0,-1.0
28480333,28480094,-0.000469336,0.005428622,0.0024382733,0.09836449,0.0,0.0,0.0,-1.0
28528986,28528757,0.0011272457,0.0043164156,0.0021762834,0.09981308,0.0,0.0,0.0,-1.0
28577665,28577429,0.00011219023,0.0045884787,0.0018869726,0.09981308,0.0,0.0,0.0,-1.0
28627584,28627346,-0.0013818297,0.0043036733,0.0018944542,0.09981308,0.0,0.0,0.0,-1.0
28679991,28679760,1.6042002e-05,0.003656221,0.0015448837,0.10415888,0.0,0.0,0.0,-1.0
28728658,28728430,0.0005318076,0.002821281,0.0019185925,0.107780375,0.0,0.0,0.0,-1.0
28777327,28777099,-0.0016463783,0.005416426,0.0026103253,0.107780375,0.0,0.0,0.0,-1.0
28829750,28829514,-0.001837782,0.006970628,0.0023867094,0.107780375,0.0,0.0,0.0,-1.0
28878410,28878183,-0.0006963668,0.0016863932,0.0025889804,0.107780375,0.0,0.0,0.0,-1.0
28929586,28929350,0.0013589474,-0.0003001889,0.0027756938,0.107780375,0.0,0.0,0.0,-1.0
28980748,28980515,-0.0017632643,0.0052168756,0.0031062365,0.10271028,0.0,0.0,0.0,-1.0
29029419,29029189,-0.0021013622,0.0066130287,0.0049191164,0.10271028,0.0,0.0,0.0,-1.0
29078081,29077855,-0.0010597795,0.002777166,0.005488461,0.10271028,0.0,0.0,0.0,-1.0
29127999,29127773,-0.00057916366,0.0023744581,0.005440959,0.10271028,0.0,0.0,0.0,-1.0
29180422,29180187,-0.0020873148,0.0061169188,0.005616512,0.10271028,0.0,0.0,0.0,-1.0
29229091,29228858,-0.0030862475,0.006202511,0.0050164782,0.10271028,0.0,0.0,0.0,-1.0
29277755,29277527,-0.0021586868,0.0035766666,0.005749311,0.10271028,0.0,0.0,0.0,-1.0
29330175,29329941,-0.0022018452,0.0039582523,0.0051298835,0.10271028,0.0,0.0,0.0,-1.0
29380090,29379860,-0.0022855955,0.005104728,0.0043604732,0.0932944,0.0,0.0,0.0,-1.0
29428769,29428532,-0.0014492142,0.00437897,0.0052340473,0.091121495,0.0,0.0,0.0,-1.0
29478694,29478451,-0.0015692334,0.004812894,0.00488964,0.091121495,0.0,0.0,0.0,-1.0
29529837,29529613,-0.0008325039,0.005923433,0.0037381302,0.091121495,0.0,0.0,0.0,-1.0
29578516,29578284,-0.00085547654,0.0031180754,0.002858076,0.091121495,0.0,0.0,0.0,-1.0
29628431,29628201,9.462138e-05,0.0044671604,0.0018345201,0.091121495,0.0,0.0,0.0,-1.0
29678349,29678120,0.00092121854,0.0052294536,-0.0005473608,0.091121495,0.0,0.0,0.0,-1.0
29728278,29728039,0.0011878916,0.0045216097,-0.001672111,0.091121495,0.0,0.0,0.0,-1.0
29778193,29777957,0.0019702613,0.0013236547,-0.0026936885,0.091121495,0.0,0.0,0.0,-1.0
29826851,29826625,0.0003493106,-8.532259e-05,-0.0021873517,0.091845796,0.0,0.0,0.0,-1.0
29880527,29880288,-0.0010061278,0.0043622633,-0.0028302441,0.09257009,0.0,0.0,0.0,-1.0
29929188,29928958,-0.0006881212,0.004839708,-0.003229658,0.09257009,0.0,0.0,0.0,-1.0
29980351,29980124,-0.000953023,0.0004298376,-0.0049392055,0.09836449,0.0,0.0,0.0,-1.0
30030274,30030042,0.00015935369,0.0029164136,-0.007057213,0.09836449,0.0,0.0,0.0,-1.0
30080191,30079961,0.00016012715,0.0052458546,-0.010942045,0.09836449,0.0,0.0,0.0,-1.0
30130116,30129881,-7.067209e-05,0.0059668296,-0.01226823,0.09836449,0.0,0.0,0.0,-1.0
30177540,30177301,-0.00051772885,0.0042935247,-0.012288476,0.09836449,0.0,0.0,0.0,-1.0
30231195,30230965,-6.0749884e-05,0.004333295,-0.0121905245,0.09836449,0.0,0.0,0.0,-1.0
30278621,30278385,0.00088045606,0.0047946963,-0.014894166,0.09474299,0.0,0.0,0.0,-1.0
30328540,30328303,0.0018471798,0.0054724757,-0.01605808,0.0932944,0.0,0.0,0.0,-1.0
30378452,30378222,0.0018299806,0.0034571027,-0.015906202,0.09257009,0.0,0.0,0.0,-1.0
30428374,30428141,0.0007630656,0.0035395615,-0.015621791,0.09257009,0.0,0.0,0.0,-1.0
30478289,30478056,0.00034073467,0.0045820847,-0.01592972,0.09257009,0.0,0.0,0.0,-1.0
30530707,30530471,0.00039503322,0.0027968243,-0.015702847,0.09257009,0.0,0.0,0.0,-1.0
30578123,30577893,-0.0005450042,0.0026137575,-0.016856741,0.09257009,0.0,0.0,0.0,-1.0
30629299,30629059,-0.0014761467,0.005122206,-0.017129807,0.08894859,0.0,0.0,0.0,-1.0
30677960,30677731,-0.0013001376,0.003242716,-0.019935539,0.0875,0.0,0.0,0.0,-1.0
30727884,30727653,-0.0016119571,0.0022310172,-0.019090606,0.0875,0.0,0.0,0.0,-1.0
30777790,30777565,-0.0014109119,0.0024971387,-0.017873935,0.0875,0.0,0.0,0.0,-1.0
30827718,30827485,0.0005276932,0.0028492848,-0.016562747,0.0875,0.0,0.0,0.0,-1.0
30877628,30877403,0.0011732158,0.0039626407,-0.016759694,0.0875,0.0,0.0,0.0,-1.0
30930043,30929816,0.0006696505,0.0033931318,-0.0149963815,0.0875,0.0,0.0,0.0,-1.0
30977468,30977239,0.0012387583,2.0335654e-05,-0.013637736,0.0875,0.0,0.0,0.0,-1.0
31027387,31027155,0.00019331316,0.0015473069,-0.0122596035,0.0875,0.0,0.0,0.0,-1.0
31081053,31080817,7.586721e-05,0.0065344297,-0.0091294795,0.0875,0.0,0.0,0.0,-1.0
31132214,31131985,9.1015245e-05,0.0044816243,-0.0076997834,0.0875,0.0,0.0,0.0,-1.0
31178390,31178158,-6.582205e-05,0.0011489085,-0.0068234047,0.0875,0.0,0.0,0.0,-1.0
31227056,31226829,0.0007416129,0.0013887525,-0.010718259,0.0875,0.0,0.0,0.0,-1.0
31282012,31281783,0.0013273902,0.0026475019,-0.01115775,0.0875,0.0,0.0,0.0,-1.0
31329396,31329162,0.0010954967,0.0019705882,-0.010233651,0.0875,0.0,0.0,0.0,-1.0
31378055,31377831,0.0011061858,0.0018524446,-0.009014953,0.0875,0.0,0.0,0.0,-1.0
31431724,31431494,0.0003599071,0.0022159752,-0.009705127,0.0903972,0.0,0.0,0.0,-1.0
31479142,31478914,-3.055372e-05,0.0014569759,-0.008627057,0.0903972,0.0,0.0,0.0,-1.0
31531567,31531336,0.00033385537,0.0013013512,-0.007716225,0.0903972,0.0,0.0,0.0,-1.0
31581479,31581249,0.0003087867,0.0003053316,-0.0069336435,0.091121495,0.0,0.0,0.0,-1.0
31630154,31629918,0.0013664558,0.00059154804,-0.0061154016,0.091845796,0.0,0.0,0.0,-1.0
31681322,31681087,0.0010435365,-0.0013143409,-0.0054147984,0.09257009,0.0,0.0,0.0,-1.0
31727483,31727258,0.00025912424,4.6618017e-05,-0.0055131325,0.09691589,0.0,0.0,0.0,-1.0
31781154,31780921,-0.0016991625,0.0049351756,-0.005506903,0.09981308,0.0,0.0,0.0,-1.0
31827329,31827094,-0.0006841118,0.00463996,-0.007150304,0.09981308,0.0,0.0,0.0,-1.0
31878491,31878260,0.0008074442,0.0013322574,-0.007810745,0.09981308,0.0,0.0,0.0,-1.0
31927155,31926931,0.00028901716,0.0017295467,-0.0076974113,0.09981308,0.0,0.0,0.0,-1.0
31982070,31981842,-0.0012137938,0.0043782415,-0.008194519,0.10271028,0.0,0.0,0.0,-1.0
32029501,32029269,-0.0022884568,0.003300471,-0.008236144,0.10560747,0.0,0.0,0.0,-1.0
32078170,32077938,-0.0016572801,0.0012503559,-0.008348936,0.10633177,0.0,0.0,0.0,-1.0
32130579,32130349,0.00026945642,0.0054982016,-0.008716643,0.10633177,0.0,0.0,0.0,-1.0
32179246,32179018,0.0015985116,0.0044818916,-0.008947855,0.10633177,0.0,0.0,0.0,-1.0
32227919,32227689,0.0003770101,0.0028500154,-0.008793452,0.10633177,0.0,0.0,0.0,-1.0
32280339,32280104,-0.0009421036,0.004812324,-0.0089096185,0.10633177,0.0,0.0,0.0,-1.0
32330248,32330021,0.0021940505,0.003038569,-0.009433484,0.10633177,0.0,0.0,0.0,-1.0
32377677,32377442,0.0012369043,0.00062687695,-0.009155335,0.10633177,0.0,0.0,0.0,-1.0
32431337,32431106,-0.00085918466,0.0038269025,-0.010588313,0.10271028,0.0,0.0,0.0,-1.0
32477515,32477280,-0.0010737372,0.005216607,-0.012069936,0.10053739,0.0,0.0,0.0,-1.0
32529926,32529694,0.0015029908,0.004442309,-0.012096294,0.09981308,0.0,0.0,0.0,-1.0
32581093,32580862,0.0029734538,0.0024035887,-0.013279225,0.09981308,0.0,0.0,0.0,-1.0
32628527,32628285,0.00049782597,0.0022795072,-0.015391432,0.0903972,0.0,0.0,0.0,-1.0
32679679,32679449,-0.0016320145,0.0037484001,-0.015067881,0.0882243,0.0,0.0,0.0,-1.0
32729606,32729377,0.00041802425,0.003156041,-0.01468131,0.0882243,0.0,0.0,0.0,-1.0
32778273,32778038,0.0028593284,0.0020377012,-0.011645747,0.0882243,0.0,0.0,0.0,-1.0
32826938,32826707,0.00083009095,0.001817817,-0.011153614,0.0882243,0.0,0.0,0.0,-1.0
32879351,32879121,-0.0014808585,0.0018927009,-0.010325275,0.0882243,0.0,0.0,0.0,-1.0
32928025,32927793,-0.0018322448,0.0012964727,-0.010170231,0.0882243,0.0,0.0,0.0,-1.0
32977947,32977712,-0.0016180498,0.0023708418,-0.009348285,0.08894859,0.0,0.0,0.0,-1.0
33027873,33027631,1.8491597e-06,0.004253695,-0.009199109,0.08894859,0.0,0.0,0.0,-1.0
33079021,33078794,0.0026467745,0.0021361534,-0.008894138,0.08894859,0.0,0.0,0.0,-1.0
33127703,33127465,0.0007074208,0.0007880534,-0.009779855,0.08894859,0.0,0.0,0.0,-1.0
33178872,33178638,-0.0026664697,0.0011570198,-0.009470471,0.0896729,0.0,0.0,0.0,-1.0
33230035,33229797,-0.0016860691,0.0032746247,-0.010846884,0.0932944,0.0,0.0,0.0,-1.0
33278715,33278472,-0.0011667375,0.00070963736,-0.010541238,0.0932944,0.0,0.0,0.0,-1.0
33328618,33328388,0.0009325181,0.0005116057,-0.014378479,0.0932944,0.0,0.0,0.0,-1.0
33379779,33379552,0.0013977602,0.0027657382,-0.01719109,0.0932944,0.0,0.0,0.0,-1.0
33428459,33428224,0.00058036787,0.00319925,-0.017435541,0.0932944,0.0,0.0,0.0,-1.0
33478388,33478145,-0.001578087,0.0018592946,-0.016285598,0.0932944,0.0,0.0,0.0,-1.0
33530790,33530556,-0.0007628743,0.0014477872,-0.016471567,0.0932944,0.0,0.0,0.0,-1.0
33578206,33577979,-0.000106089145,0.0016470643,-0.016749112,0.0932944,0.0,0.0,0.0,-1.0
33628118,33627896,-0.0005898157,0.004272387,-0.017155621,0.0932944,0.0,0.0,0.0,-1.0
33678045,33677814,0.0005410583,0.0016785712,-0.017020576,0.0932944,0.0,0.0,0.0,-1.0
33732957,33732727,-0.0011021699,0.0010041783,-0.01721074,0.0932944,0.0,0.0,0.0,-1.0
33779122,33778899,-0.0019118141,0.0041058455,-0.018387048,0.091121495,0.0,0.0,0.0,-1.0
33827801,33827570,-0.00075572525,0.0020824345,-0.021058155,0.091121495,0.0,0.0,0.0,-1.0
33882770,33882539,0.00025423997,0.0016033918,-0.019627294,0.091121495,0.0,0.0,0.0,-1.0
33928889,33928659,0.0014634855,0.0037546002,-0.019647328,0.091121495,0.0,0.0,0.0,-1.0
33978840,33978615,0.00052463496,0.0014330816,-0.018489966,0.091121495,0.0,0.0,0.0,-1.0
34027472,34027243,-0.0010131866,0.0009476794,-0.019632483,0.091121495,0.0,0.0,0.0,-1.0
34079885,34079657,0.0014421571,0.0014927732,-0.019927692,0.091121495,0.0,0.0,0.0,-1.0
34128558,34128330,0.00012280126,0.0018022866,-0.019018797,0.0903972,0.0,0.0,0.0,-1.0
34178469,34178246,-0.0018766678,0.00059062324,-0.018664677,0.0903972,0.0,0.0,0.0,-1.0
34230893,34230661,-0.0005037578,-0.00065060996,-0.018528322,0.0903972,0.0,0.0,0.0,-1.0
34282062,34281827,0.00021362658,0.0020635703,-0.01692526,0.0903972,0.0,0.0,0.0,-1.0
34328227,34328001,0.0010194923,0.0013056927,-0.016363451,0.0903972,0.0,0.0,0.0,-1.0
34376954,34376718,-0.00035014114,-0.0016036585,-0.01598424,0.0903972,0.0,0.0,0.0,-1.0
34431812,34431582,-0.0020257377,-0.0003127049,-0.01680838,0.0903972,0.0,0.0,0.0,-1.0
34481733,34481502,-0.0022735693,0.002695339,-0.015661944,0.0882243,0.0,0.0,0.0,-1.0
34527901,34527675,-0.0015892751,0.0019901549,-0.014741136,0.0875,0.0,0.0,0.0,-1.0
34581567,34581338,-0.0014539649,-0.0015474468,-0.015479803,0.0846028,0.0,0.0,0.0,-1.0
34631486,34631256,-0.0013094008,0.00096743554,-0.014311925,0.08242991,0.0,0.0,0.0,-1.0
34678905,34678678,0.00022682274,0.0028789665,-0.0130670685,0.08242991,0.0,0.0,0.0,-1.0
34727582,34727351,0.0004949139,0.0016648282,-0.0090791695,0.08242991,0.0,0.0,0.0,-1.0
34781240,34781012,-0.0012018156,0.0010028613,-0.007475912,0.08242991,0.0,0.0,0.0,-1.0
34828664,34828433,-0.0035721823,0.00040470104,-0.005053379,0.08242991,0.0,0.0,0.0,-1.0
34881082,34880848,-0.0023117783,0.0033061986,-0.003847653,0.08242991,0.0,0.0,0.0,-1.0
34930998,34930766,-0.0014750498,0.004836465,-0.0024957738,0.08242991,0.0,0.0,0.0,-1.0
34979669,34979437,-0.0023794493,0.004946924,0.0006281061,0.08242991,0.0,0.0,0.0,-1.0
35030836,35030605,-0.0009250708,0.0035601996,0.004250686,0.08242991,0.0,0.0,0.0,-1.0
35077002,35076777,0.0019182235,0.0024500315,0.008296771,0.08315421,0.0,0.0,0.0,-1.0
35129424,35129192,0.000557219,0.0043896344,0.011002831,0.08315421,0.0,0.0,0.0,-1.0
35180658,35180421,-0.0014238581,0.0072336886,0.011812554,0.0838785,0.0,0.0,0.0,-1.0
35228067,35227836,-0.0027332287,0.0053479746,0.011920086,0.086775705,0.0,0.0,0.0,-1.0
35280433,35280196,-0.004250378,0.0049609127,0.009261677,0.091845796,0.0,0.0,0.0,-1.0
35330344,35330115,-0.0029634312,0.005988662,0.008915909,0.096191585,0.0,0.0,0.0,-1.0
35379018,35378784,0.0014954533,8.954058e-05,0.006084962,0.096191585,0.0,0.0,0.0,-1.0
35427691,35427455,0.0054490026,-0.0044519603,0.0019388258,0.09908878,0.0,0.0,0.0,-1.0
35480095,35479869,0.0050177835,0.00036586003,-0.0003172933,0.10053739,0.0,0.0,0.0,-1.0
35528770,35528540,0.0018609094,0.0026300391,-0.0042317766,0.10053739,0.0,0.0,0.0,-1.0
35577438,35577210,0.0009327262,0.0007031965,-0.005096148,0.10053739,0.0,0.0,0.0,-1.0
35627358,35627129,0.00057749136,-0.0008943599,-0.007368475,0.10053739,0.0,0.0,0.0,-1.0
35679768,35679543,-0.0022106671,0.0027009503,-0.015995134,0.09691589,0.0,0.0,0.0,-1.0
35728451,35728214,-0.005007958,0.0009943846,-0.020745082,0.09691589,0.0,0.0,0.0,-1.0
35777109,35776884,-0.003942803,-0.0013844289,-0.022460602,0.09691589,0.0,0.0,0.0,-1.0
35827034,35826803,0.0016989433,0.0031757194,-0.032146707,0.096191585,0.0,0.0,0.0,-1.0
35879454,35879217,0.004608084,0.004726392,-0.031714056,0.096191585,0.0,0.0,0.0,-1.0
35928119,35927889,0.0030981025,0.0017569578,-0.030326419,0.096191585,0.0,0.0,0.0,-1.0
35980533,35980305,0.00012359972,0.0009409284,-0.028800292,0.096191585,0.0,0.0,0.0,-1.0
36029202,36028973,-0.003206737,0.0042352597,-0.027720943,0.096191585,0.0,0.0,0.0,-1.0
36077880,36077644,-0.0028067098,0.0043914393,-0.026221432,0.096191585,0.0,0.0,0.0,-1.0
36127793,36127562,-0.0017399339,0.0010604565,-0.024949502,0.096191585,0.0,0.0,0.0,-1.0
36180206,36179976,0.0016752313,0.0013789114,-0.023934552,0.096191585,0.0,0.0,0.0,-1.0
36228877,36228651,0.004143238,0.0024655317,-0.02359977,0.096191585,0.0,0.0,0.0,-1.0
36277547,36277318,0.0044260556,0.00252864,-0.024301821,0.096191585,0.0,0.0,0.0,-1.0
36329957,36329732,-0.0026160625,0.0028633575,-0.029844746,0.096191585,0.0,0.0,0.0,-1.0
36379886,36379655,-0.004747842,0.0017584267,-0.035134196,0.096191585,0.0,0.0,0.0,-1.0
36428555,36428321,-0.003058608,0.0025391798,-0.036962327,0.096191585,0.0,0.0,0.0,-1.0
36477224,36476992,-5.4070617e-05,0.004338981,-0.037007015,0.096191585,0.0,0.0,0.0,-1.0
36529690,36529459,-0.000561183,0.0030684243,-0.039997652,0.096191585,0.0,0.0,0.0,-1.0
36579557,36579325,0.00064277847,0.0011594404,-0.036508366,0.096191585,0.0,0.0,0.0,-1.0
36628262,36628028,0.00086488546,0.0006262658,-0.038155988,0.0932944,0.0,0.0,0.0,-1.0
36680656,36680420,-0.00022886058,0.0005597223,-0.036184393,0.0932944,0.0,0.0,0.0,-1.0
36729307,36729081,0.00080088875,-0.0008626841,-0.036088448,0.0932944,0.0,0.0,0.0,-1.0
36777974,36777751,0.0029273166,0.0013207039,-0.034647018,0.0932944,0.0,0.0,0.0,-1.0
36827896,36827670,0.0039519533,0.0031248385,-0.031566866,0.0932944,0.0,0.0,0.0,-1.0
36880314,36880084,0.003999859,0.00017200758,-0.027199237,0.09691589,0.0,0.0,0.0,-1.0
36928987,36928755,0.0026928291,-0.0012739582,-0.02341367,0.10271028,0.0,0.0,0.0,-1.0
36977656,36977426,0.0040836097,0.0013503303,-0.019760935,0.10271028,0.0,0.0,0.0,-1.0
37027579,37027344,0.0025058845,0.0015705333,-0.017914774,0.10198598,0.0,0.0,0.0,-1.0
37081246,37081009,-0.0013034003,0.002409035,-0.017232578,0.0932944,0.0,0.0,0.0,-1.0
37128657,37128429,-0.0015850618,0.0037528537,-0.0142244715,0.0896729,0.0,0.0,0.0,-1.0
37177325,37177100,-3.1511587e-05,0.0033275587,-0.007038043,0.0896729,0.0,0.0,0.0,-1.0
37231000,37230765,0.0010131769,0.002333772,-0.0069636186,0.0896729,0.0,0.0,0.0,-1.0
37278410,37278185,0.0026709994,0.002136225,-0.007847723,0.0896729,0.0,0.0,0.0,-1.0
37328327,37328104,0.0016937719,0.00018834058,-0.00744592,0.091121495,0.0,0.0,0.0,-1.0
37377000,37376774,-0.0023596033,-0.0007931226,-0.0067550912,0.091121495,0.0,0.0,0.0,-1.0
37429423,37429193,-0.002628666,0.0020507176,-0.005853134,0.091121495,0.0,0.0,0.0,-1.0
37478092,37477861,-0.000985418,0.0029878365,-0.006181917,0.091121495,0.0,0.0,0.0,-1.0
37528013,37527778,-0.0014245696,0.0001778143,-0.0070301862,0.091121495,0.0,0.0,0.0,-1.0
37580433,37580194,-0.0035724828,9.4014176e-05,-0.009983129,0.0903972,0.0,0.0,0.0,-1.0
37629148,37628922,-0.0027347223,0.0034731617,-0.0074510616,0.091121495,0.0,0.0,0.0,-1.0
37677761,37677535,-0.0032047618,0.004626046,-0.0077025928,0.091845796,0.0,0.0,0.0,-1.0
37730187,37729954,-0.00093035353,0.003819304,-0.00793178,0.09257009,0.0,0.0,0.0,-1.0
37778869,37778630,0.00020753656,-0.0019355207,-0.008342857,0.09257009,0.0,0.0,0.0,-1.0
37828765,37828538,-0.00077144505,-0.0028793642,-0.017569134,0.09257009,0.0,0.0,0.0,-1.0
37877437,37877209,-0.0028457076,4.052649e-05,-0.023972461,0.09257009,0.0,0.0,0.0,-1.0
37929859,37929625,-0.0030722185,0.00018441313,-0.032436404,0.091121495,0.0,0.0,0.0,-1.0
37978525,37978295,-0.0034555676,-0.0016787593,-0.035465404,0.091121495,0.0,0.0,0.0,-1.0
38028446,38028213,-0.00044384538,0.00070810196,-0.034060806,0.091121495,0.0,0.0,0.0,-1.0
38077120,38076885,0.0022527585,0.0012266925,-0.034525402,0.091121495,0.0,0.0,0.0,-1.0
38129568,38129340,0.0030993067,0.00086231274,-0.040451813,0.091121495,0.0,0.0,0.0,-1.0
38178195,38177969,0.002093693,0.00053012586,-0.047632564,0.0896729,0.0,0.0,0.0,-1.0
38226878,38226652,0.00038663863,-0.00041473756,-0.047969233,0.08894859,0.0,0.0,0.0,-1.0
38280543,38280303,-0.0014716024,0.0018387238,-0.0444936,0.08894859,0.0,0.0,0.0,-1.0
38329201,38328974,-0.002579908,0.0018874144,-0.04172284,0.08894859,0.0,0.0,0.0,-1.0
38379130,38378892,-0.0019248384,6.815541e-05,-0.039928377,0.0896729,0.0,0.0,0.0,-1.0
38430282,38430059,-0.0017602589,-0.0009345349,-0.037068073,0.091121495,0.0,0.0,0.0,-1.0
38478964,38478730,-0.0008809643,9.742518e-05,-0.03680272,0.091121495,0.0,0.0,0.0,-1.0
38528894,38528657,0.00027881068,-0.00046310312,-0.03677297,0.09836449,0.0,0.0,0.0,-1.0
38577543,38577319,-0.0014698697,-0.00085185166,-0.03466625,0.10198598,0.0,0.0,0.0,-1.0
38629958,38629733,-0.008175161,-0.0016457776,-0.032377005,0.10271028,0.0,0.0,0.0,-1.0
38681131,38680901,-0.010098237,-0.0034165957,-0.027980667,0.10271028,0.0,0.0,0.0,-1.0
38728561,38728323,-0.0029717109,-0.00030947322,-0.026237976,0.10271028,0.0,0.0,0.0,-1.0
38777219,38776993,0.006350683,0.003366909,-0.024394702,0.10488318,0.0,0.0,0.0,-1.0
38830886,38830657,0.0061163087,0.0023222337,-0.025352936,0.10488318,0.0,0.0,0.0,-1.0
38878325,38878086,0.0021676894,0.00045715293,-0.023395546,0.10488318,0.0,0.0,0.0,-1.0
38926979,38926750,-0.0010990343,0.0029962214,-0.021931982,0.103434585,0.0,0.0,0.0,-1.0
38980645,38980417,-0.004388642,0.004001675,-0.02411344,0.096191585,0.0,0.0,0.0,-1.0
39029369,39029136,-0.0033115621,0.0038211744,-0.021318786,0.096191585,0.0,0.0,0.0,-1.0
39079235,39079004,-0.00024761297,0.0030277928,-0.020283787,0.10053739,0.0,0.0,0.0,-1.0
39129150,39128921,0.002467376,0.0013634327,-0.020543443,0.10488318,0.0,0.0,0.0,-1.0
39179071,39178840,0.0033507738,0.0022232162,-0.019624608,0.107780375,0.0,0.0,0.0,-1.0
39228991,39228764,0.002617187,0.0041529955,-0.018842632,0.10995327,0.0,0.0,0.0,-1.0
39278948,39278716,0.00092180225,0.0015731093,-0.016171739,0.10995327,0.0,0.0,0.0,-1.0
39330085,39329848,-0.00036504702,0.0010652974,-0.013989319,0.10995327,0.0,0.0,0.0,-1.0
39378747,39378516,-0.0017798416,0.0025691523,-0.013240637,0.10995327,0.0,0.0,0.0,-1.0
39427458,39427228,-0.0014763649,0.002284099,-0.011273282,0.10271028,0.0,0.0,0.0,-1.0
39481086,39480849,0.00011609755,0.00062734965,-0.010742358,0.10198598,0.0,0.0,0.0,-1.0
39528500,39528272,0.0009773592,0.004063657,-0.010582274,0.09981308,0.0,0.0,0.0,-1.0
39578426,39578191,0.002164578,0.0061459616,-0.009282388,0.09981308,0.0,0.0,0.0,-1.0
39627095,39626863,0.001991392,0.002136891,-0.00918681,0.09908878,0.0,0.0,0.0,-1.0
39679509,39679278,0.0024953948,-0.00038259086,-0.0109285815,0.09908878,0.0,0.0,0.0,-1.0
39728178,39727947,0.0010575245,0.0040957425,-0.012025008,0.09908878,0.0,0.0,0.0,-1.0
39778089,39777865,0.0016060282,0.004665423,-0.018412733,0.09908878,0.0,0.0,0.0,-1.0
39828012,39827785,-0.00015187653,0.0024026965,-0.021065062,0.09691589,0.0,0.0,0.0,-1.0
39879178,39878951,-0.0014903363,0.00538985,-0.021090169,0.09691589,0.0,0.0,0.0,-1.0
39927850,39927621,-0.0008410196,0.005762222,-0.019535022,0.096191585,0.0,0.0,0.0,-1.0
39977770,39977542,-0.0015596596,0.0032410237,-0.019505681,0.096191585,0.0,0.0,0.0,-1.0
40030181,40029956,-0.0032488487,0.006049134,-0.0203014,0.096191585,0.0,0.0,0.0,-1.0
40078865,40078631,-0.0034324543,0.007967586,-0.022688014,0.096191585,0.0,0.0,0.0,-1.0
40127550,40127318,-0.0017939244,0.0054324176,-0.023804625,0.096191585,0.0,0.0,0.0,-1.0
40179989,40179760,0.0009131424,0.0024731057,-0.025902767,0.091845796,0.0,0.0,0.0,-1.0
40232359,40232129,0.0057352306,9.3930375e-06,-0.026409784,0.091121495,0.0,0.0,0.0,-1.0
40278536,40278302,0.0028789665,0.00031632386,-0.026710376,0.091121495,0.0,0.0,0.0,-1.0
40327196,40326972,-0.0039216815,0.004299451,-0.028400617,0.0903972,0.0,0.0,0.0,-1.0
40384616,40384382,-0.0049167145,0.0020105566,-0.027558766,0.091121495,0.0,0.0,0.0,-1.0
40432038,40431805,-0.0009967657,-0.0014078341,-0.026486909,0.091121495,0.0,0.0,0.0,-1.0
40478208,40477978,0.0035129269,0.0019181056,-0.02891667,0.086051404,0.0,0.0,0.0,-1.0
40531874,40531641,0.00452138,0.00404545,-0.027591646,0.086051404,0.0,0.0,0.0,-1.0
40580544,40580312,0.0026377493,0.0011413811,-0.024555063,0.086051404,0.0,0.0,0.0,-1.0
40627974,40627737,-0.0006747312,0.00011522113,-0.020325802,0.0882243,0.0,0.0,0.0,-1.0
40677888,40677657,0.00061903347,0.0026880207,-0.019005824,0.0882243,0.0,0.0,0.0,-1.0
40730298,40730067,-0.00019200768,0.004076233,-0.016469037,0.0882243,0.0,0.0,0.0,-1.0
40778967,40778739,-0.0009036286,0.00060199085,-0.01686816,0.0882243,0.0,0.0,0.0,-1.0
40827638,40827409,-0.0006212995,0.00041575002,-0.017348275,0.0882243,0.0,0.0,0.0,-1.0
40877564,40877328,-0.001031088,0.0033024345,-0.015296537,0.08894859,0.0,0.0,0.0,-1.0
40929982,40929745,-0.0018564501,0.004488026,-0.0141223,0.095467284,0.0,0.0,0.0,-1.0
40981148,40980912,-0.0015075157,0.0033697037,-0.013469321,0.096191585,0.0,0.0,0.0,-1.0
41027343,41027116,-0.00051335915,0.0023356483,-0.010670553,0.096191585,0.0,0.0,0.0,-1.0
41079733,41079501,0.0021118587,0.003544872,-0.011868375,0.096191585,0.0,0.0,0.0,-1.0
41129655,41129423,0.0031382188,0.0047125206,-0.013226141,0.096191585,0.0,0.0,0.0,-1.0
41178316,41178090,0.0006303287,0.005007513,-0.012816154,0.09908878,0.0,0.0,0.0,-1.0
41230733,41230505,-0.0025459367,0.0020713548,-0.01382059,0.10198598,0.0,0.0,0.0,-1.0
41280659,41280425,-0.00068119494,0.0017905593,-0.013952223,0.103434585,0.0,0.0,0.0,-1.0
41328119,41327892,0.0010521546,0.0019974138,-0.016715383,0.103434585,0.0,0.0,0.0,-1.0
41377994,41377765,0.0014905295,0.0027591183,-0.017424569,0.103434585,0.0,0.0,0.0,-1.0
41431659,41431428,5.2857027e-05,0.0059082913,-0.018772252,0.10271028,0.0,0.0,0.0,-1.0
41479083,41478851,-0.001739369,0.003992562,-0.02017771,0.10198598,0.0,0.0,0.0,-1.0
41527749,41527522,-0.000710609,0.0023693142,-0.020709898,0.10198598,0.0,0.0,0.0,-1.0
41580178,41579949,0.00062656344,0.0029283871,-0.021307698,0.10053739,0.0,0.0,0.0,-1.0
41630081,41629856,-7.599793e-05,0.0044274167,-0.02298706,0.10053739,0.0,0.0,0.0,-1.0
41678760,41678528,-0.00084177614,0.0035751548,-0.023975627,0.10053739,0.0,0.0,0.0,-1.0
41731171,41730943,0.00034394336,0.0022772353,-0.024530834,0.09908878,0.0,0.0,0.0,-1.0
41779838,41779613,0.0015448935,0.004061423,-0.02675795,0.091845796,0.0,0.0,0.0,-1.0
41829766,41829533,0.0019196977,0.004802643,-0.026690498,0.091845796,0.0,0.0,0.0,-1.0
41879688,41879451,0.0013069366,0.005033902,-0.026527911,0.091845796,0.0,0.0,0.0,-1.0
41927100,41926874,0.0018286401,0.004472352,-0.026700374,0.091845796,0.0,0.0,0.0,-1.0
41979526,41979292,0.0020762042,0.0042954977,-0.026102051,0.091845796,0.0,0.0,0.0,-1.0
42029444,42029213,0.0016308108,0.0030690709,-0.024844058,0.09474299,0.0,0.0,0.0,-1.0
42076862,42076631,0.0005460291,0.0045256456,-0.025541374,0.095467284,0.0,0.0,0.0,-1.0
42129275,42129046,-0.0007449327,0.0031378702,-0.026490401,0.095467284,0.0,0.0,0.0,-1.0
42181695,42181464,-0.0020605708,0.0023174002,-0.026783463,0.095467284,0.0,0.0,0.0,-1.0
42227875,42227636,-0.0014100699,0.0031935335,-0.028944694,0.095467284,0.0,0.0,0.0,-1.0
42280282,42280051,-0.0006615158,0.0037087924,-0.028899204,0.09474299,0.0,0.0,0.0,-1.0
42328952,42328723,2.2001794e-05,0.0032311594,-0.028437912,0.09401869,0.0,0.0,0.0,-1.0
42378875,42378642,0.0011165349,0.0021092545,-0.028137594,0.0932944,0.0,0.0,0.0,-1.0
42427542,42427312,0.0011230833,0.0024467353,-0.027583076,0.0932944,0.0,0.0,0.0,-1.0
42477467,42477232,-0.0011214329,0.0056045717,-0.026948785,0.091121495,0.0,0.0,0.0,-1.0
42528636,42528399,0.0017653037,0.006265911,-0.026481934,0.0903972,0.0,0.0,0.0,-1.0
42578552,42578317,0.0029593264,0.0060600685,-0.025237137,0.0896729,0.0,0.0,0.0,-1.0
42630963,42630733,0.0014773378,0.0034166572,-0.024498947,0.0896729,0.0,0.0,0.0,-1.0
42679638,42679410,0.0011534229,0.001020981,-0.02383601,0.0896729,0.0,0.0,0.0,-1.0
42728306,42728077,0.0011093466,0.0011892418,-0.023145672,0.0896729,0.0,0.0,0.0,-1.0
42776980,42776745,-0.00037069462,0.0014354825,-0.022101892,0.0896729,0.0,0.0,0.0,-1.0
42829394,42829160,-0.00030160337,0.0011689728,-0.020834874,0.0896729,0.0,0.0,0.0,-1.0
42879309,42879080,-0.0002821779,0.0010899038,-0.019954229,0.0896729,0.0,0.0,0.0,-1.0
42927973,42927750,-0.0017422556,0.0005962752,-0.01905111,0.0903972,0.0,0.0,0.0,-1.0
42982891,42982662,-0.0025154836,0.0020666781,-0.017956052,0.0903972,0.0,0.0,0.0,-1.0
43034061,43033830,-0.0045885234,0.0027678167,-0.017520903,0.091121495,0.0,0.0,0.0,-1.0
43078979,43078755,-0.0064431787,0.0040432764,-0.01822941,0.09257009,0.0,0.0,0.0,-1.0
43127657,43127427,-0.008380183,0.0035552306,-0.017206302,0.095467284,0.0,0.0,0.0,-1.0
43182572,43182338,-0.009869596,0.0040443125,-0.017216,0.10126168,0.0,0.0,0.0,-1.0
43228744,43228513,-0.01056093,0.0052847574,-0.015044528,0.103434585,0.0,0.0,0.0,-1.0
43277413,43277184,-0.0056367004,0.009687426,-0.01554461,0.10488318,0.0,0.0,0.0,-1.0
43328578,43328351,0.00020060825,0.002120723,-0.01660412,0.10488318,0.0,0.0,0.0,-1.0
43379741,43379518,0.0023445042,-0.0014467355,-0.013495048,0.10560747,0.0,0.0,0.0,-1.0
43428425,43428189,0.0013769122,0.0012678026,-0.015633242,0.10560747,0.0,0.0,0.0,-1.0
43477096,43476863,-0.00040949296,0.0035083438,-0.01532631,0.10560747,0.0,0.0,0.0,-1.0
43529507,43529275,0.00029399357,0.0019903039,-0.016002087,0.10705608,0.0,0.0,0.0,-1.0
43584424,43584188,0.0010935831,0.0010881833,-0.014028239,0.10922897,0.0,0.0,0.0,-1.0
43628092,43627865,0.00277013,0.0010294686,-0.0150544075,0.10922897,0.0,0.0,0.0,-1.0
43680511,43680282,0.0038351289,0.002161571,-0.015434143,0.10922897,0.0,0.0,0.0,-1.0
43731684,43731448,0.0023848687,0.0024926972,-0.01646802,0.10705608,0.0,0.0,0.0,-1.0
43777850,43777623,-9.831852e-06,0.0007581893,-0.015402243,0.10415888,0.0,0.0,0.0,-1.0
43827774,43827543,-0.0011934211,0.0027906818,-0.016085604,0.103434585,0.0,0.0,0.0,-1.0
43882685,43882453,-0.0013067642,0.0038479327,-0.016736608,0.09908878,0.0,0.0,0.0,-1.0
43928853,43928628,0.00048923533,0.003228384,-0.017643875,0.09908878,0.0,0.0,0.0,-1.0
43977534,43977303,0.0008291088,0.0018515647,-0.01947048,0.09908878,0.0,0.0,0.0,-1.0
44027446,44027220,-0.0005629906,0.0018028137,-0.020654593,0.09474299,0.0,0.0,0.0,-1.0
44079915,44079685,0.00075747794,0.0045824745,-0.019850058,0.0932944,0.0,0.0,0.0,-1.0
44128537,44128311,0.0014408071,0.003720923,-0.021183986,0.09257009,0.0,0.0,0.0,-1.0
44177208,44176976,-0.00020453829,0.0012281901,-0.023835871,0.09257009,0.0,0.0,0.0,-1.0
44230868,44230639,0.00076195016,0.0028093709,-0.022193762,0.09257009,0.0,0.0,0.0,-1.0
44279551,44279311,0.0021194217,0.003632479,-0.01942945,0.0896729,0.0,0.0,0.0,-1.0
44330717,44330479,0.00015040125,0.0039695413,-0.018803364,0.0846028,0.0,0.0,0.0,-1.0
44380630,44380396,-0.001692505,0.003921858,-0.01695731,0.0846028,0.0,0.0,0.0,-1.0
44429301,44429069,-0.0013963277,0.0037459058,-0.0124062635,0.0846028,0.0,0.0,0.0,-1.0
44479235,44478993,-0.00043151164,0.0017733463,-0.012580714,0.0846028,0.0,0.0,0.0,-1.0
44527888,44527658,-0.00063192344,0.0023509844,-0.01395529,0.0846028,0.0,0.0,0.0,-1.0
44581548,44581321,8.0688435e-05,0.0013477439,-0.015404583,0.08315421,0.0,0.0,0.0,-1.0
44630230,44629996,0.0010932499,0.00023932359,-0.014734495,0.08315421,0.0,0.0,0.0,-1.0
44677642,44677416,0.0018284627,0.00015765878,-0.014554402,0.0846028,0.0,0.0,0.0,-1.0
44732560,44732328,0.001606842,0.0030341998,-0.01464555,0.0846028,0.0,0.0,0.0,-1.0
44779984,44779756,0.0012897872,0.0036111448,-0.017135436,0.0875,0.0,0.0,0.0,-1.0
44828660,44828422,0.0016039651,0.001947976,-0.018237637,0.0875,0.0,0.0,0.0,-1.0
44879826,44879590,0.0006246589,0.0012950132,-0.017565804,0.0875,0.0,0.0,0.0,-1.0
44930984,44930757,-0.00058069936,0.0019864,-0.020163435,0.09401869,0.0,0.0,0.0,-1.0
44978411,44978179,-0.0013538408,0.0020596292,-0.019494105,0.09981308,0.0,0.0,0.0,-1.0
45029577,45029347,-0.0057158624,-0.0004684509,-0.018053079,0.10198598,0.0,0.0,0.0,-1.0
45079495,45079266,-0.009868014,-0.0016795624,-0.016879734,0.10198598,0.0,0.0,0.0,-1.0
45129410,45129184,-0.006539168,0.0032773481,-0.019690458,0.10198598,0.0,0.0,0.0,-1.0
45181833,45181602,0.0009053055,0.0054642395,-0.022009376,0.10198598,0.0,0.0,0.0,-1.0
45230505,45230271,0.0036371092,0.0032331683,-0.022264356,0.10198598,0.0,0.0,0.0,-1.0
45280423,45280190,0.001812735,0.003476026,-0.02102553,0.10560747,0.0,0.0,0.0,-1.0
45330338,45330110,0.00019971738,0.0015580446,-0.020907953,0.107780375,0.0,0.0,0.0,-1.0
45379016,45378782,0.00051812304,0.0024779814,-0.020856345,0.10995327,0.0,0.0,0.0,-1.0
45430170,45429947,0.0024650483,0.0035262168,-0.021001473,0.10995327,0.0,0.0,0.0,-1.0
45478846,45478620,0.0031156794,0.003846585,-0.021410605,0.10995327,0.0,0.0,0.0,-1.0
45528771,45528539,0.00029659495,-0.0004659452,-0.029493196,0.10488318,0.0,0.0,0.0,-1.0
45578693,45578458,-0.0014311392,-0.0038699592,-0.029035369,0.10415888,0.0,0.0,0.0,-1.0
45628608,45628379,-0.0014790071,0.0007844642,-0.025588142,0.10415888,0.0,0.0,0.0,-1.0
45679874,45679641,0.00091877725,0.003569688,-0.025322445,0.10271028,0.0,0.0,0.0,-1.0
45728440,45728215,-0.00060270465,0.0035692055,-0.023741132,0.10126168,0.0,0.0,0.0,-1.0
45778365,45778135,-0.0006566614,0.00237878,-0.01971606,0.0896729,0.0,0.0,0.0,-1.0
45829535,45829303,-0.000230295,0.0024108605,-0.020290116,0.086051404,0.0,0.0,0.0,-1.0
45878208,45877973,0.0002615942,0.0023482025,-0.02033354,0.086051404,0.0,0.0,0.0,-1.0
45928118,45927891,0.0001586136,0.0042898674,-0.018766351,0.086051404,0.0,0.0,0.0,-1.0
45980539,45980307,-0.0003136927,0.0026548656,-0.019092346,0.086051404,0.0,0.0,0.0,-1.0
46029215,46028979,-0.0013045616,0.0013639348,-0.018849034,0.086051404,0.0,0.0,0.0,-1.0
46077912,46077682,0.00054337695,0.00053846906,-0.017958205,0.086051404,0.0,0.0,0.0,-1.0
46130293,46130065,0.0026489666,0.00043202122,-0.017118227,0.0875,0.0,0.0,0.0,-1.0
46181466,46181234,0.0011432753,-0.0026280845,-0.015701005,0.0882243,0.0,0.0,0.0,-1.0
46228884,46228658,-0.002256704,0.00040833472,-0.015624035,0.0882243,0.0,0.0,0.0,-1.0
46277553,46277327,-0.003953293,0.0018711576,-0.015559262,0.0882243,0.0,0.0,0.0,-1.0
46329979,46329743,-0.0023635188,-0.0016104367,-0.015357693,0.0882243,0.0,0.0,0.0,-1.0
46377402,46377167,-0.0028177537,-0.0015970527,-0.01805051,0.08894859,0.0,0.0,0.0,-1.0
46428569,46428333,-0.0021478592,-0.0018994187,-0.02104428,0.0932944,0.0,0.0,0.0,-1.0
46477231,46477005,-0.0028824063,-0.0013642595,-0.021810269,0.09908878,0.0,0.0,0.0,-1.0
46528408,46528175,-0.007856803,0.00156524,-0.021261359,0.10198598,0.0,0.0,0.0,-1.0
46578314,46578091,-0.012276516,0.0027858184,-0.018420989,0.10198598,0.0,0.0,0.0,-1.0
46626992,46626763,-0.010083599,0.007218564,-0.018405633,0.10198598,0.0,0.0,0.0,-1.0
46679406,46679177,0.0005277803,0.004597246,-0.019527657,0.10198598,0.0,0.0,0.0,-1.0
46729325,46729097,0.005223864,0.00024308002,-0.020006783,0.10198598,0.0,0.0,0.0,-1.0
46777993,46777768,0.0031170347,0.001897071,-0.018030291,0.10198598,0.0,0.0,0.0,-1.0
46830424,46830184,0.0005202214,0.003248395,-0.017226636,0.10198598,0.0,0.0,0.0,-1.0
46879088,46878857,0.0015575235,0.0029868092,-0.016435489,0.10271028,0.0,0.0,0.0,-1.0
46928999,46928775,0.0027165357,0.0027279395,-0.014301685,0.10271028,0.0,0.0,0.0,-1.0
46977682,46977447,-0.0027677093,0.0013414775,-0.013234313,0.10271028,0.0,0.0,0.0,-1.0
47030103,47029870,-0.007004886,0.0017704427,-0.012697972,0.10271028,0.0,0.0,0.0,-1.0
47078759,47078533,-0.0039003612,0.0015536936,-0.012348286,0.10271028,0.0,0.0,0.0,-1.0
47127433,47127204,0.00428815,0.00052631926,-0.0130781075,0.10271028,0.0,0.0,0.0,-1.0
47177350,47177124,0.008960749,0.0023968718,-0.012268591,0.10053739,0.0,0.0,0.0,-1.0
47227273,47227042,0.0070580817,0.003105768,-0.012615253,0.096191585,0.0,0.0,0.0,-1.0
47280943,47280707,0.004838117,0.002954946,-0.012081321,0.0932944,0.0,0.0,0.0,-1.0
47327106,47326881,0.0042772386,0.0020671098,-0.012452343,0.0903972,0.0,0.0,0.0,-1.0
47380779,47380546,0.00028855941,0.0022760455,-0.013136499,0.0896729,0.0,0.0,0.0,-1.0
47430700,47430465,-0.0025338912,0.004389692,-0.0119948,0.08894859,0.0,0.0,0.0,-1.0
47480628,47480384,-0.0014795419,0.0045423843,-0.011988077,0.08894859,0.0,0.0,0.0,-1.0
47531780,47531552,-0.0020811572,0.0017493939,-0.011157822,0.08894859,0.0,0.0,0.0,-1.0
47579206,47578974,-0.0013515129,0.002611941,-0.0119029125,0.08894859,0.0,0.0,0.0,-1.0
47631625,47631393,0.0005695278,0.003346086,-0.0120459795,0.08894859,0.0,0.0,0.0,-1.0
47679049,47678816,0.0013353082,0.0014231936,-0.01281267,0.08894859,0.0,0.0,0.0,-1.0
47730206,47729980,-1.4806799e-06,0.0036079919,-0.013145496,0.08894859,0.0,0.0,0.0,-1.0
47782635,47782398,-0.00064442045,0.0033124774,-0.013948511,0.08894859,0.0,0.0,0.0,-1.0
47830053,47829821,-0.00060587085,0.0018457341,-0.014561518,0.08894859,0.0,0.0,0.0,-1.0
47877471,47877243,0.00030011567,0.0029731097,-0.0152792595,0.08894859,0.0,0.0,0.0,-1.0
47932396,47932155,0.0013125137,0.0035310222,-0.016108235,0.0896729,0.0,0.0,0.0,-1.0
47979806,47979578,0.0007316345,0.0018312341,-0.016906975,0.091121495,0.0,0.0,0.0,-1.0
48027227,48027001,0.00030036355,0.002556718,-0.018852709,0.095467284,0.0,0.0,0.0,-1.0
48079653,48079417,0.0005138663,0.003378166,-0.019446746,0.09691589,0.0,0.0,0.0,-1.0
48130810,48130585,0.0011246515,0.002679597,-0.019599084,0.09691589,0.0,0.0,0.0,-1.0
48178237,48178008,-0.0007187338,0.002550122,-0.0185124,0.09691589,0.0,0.0,0.0,-1.0
48229408,48229177,-0.0045372997,0.0029635828,-0.018856347,0.09691589,0.0,0.0,0.0,-1.0
48279326,48279096,-0.0051932237,0.0021140815,-0.018080752,0.09691589,0.0,0.0,0.0,-1.0
48328006,48327766,-0.0010505111,0.000671302,-0.018781228,0.09691589,0.0,0.0,0.0,-1.0
48379163,48378934,0.0017754096,0.0032446599,-0.018927662,0.09691589,0.0,0.0,0.0,-1.0
48430325,48430100,0.0021661923,0.0037797706,-0.019006928,0.09691589,0.0,0.0,0.0,-1.0
48479000,48478772,0.0022485373,0.0013024604,-0.01911153,0.09691589,0.0,0.0,0.0,-1.0
48527681,48527444,0.0028991203,0.0016718236,-0.018589107,0.09764019,0.0,0.0,0.0,-1.0
48577593,48577363,0.0015759615,0.003217095,-0.018151054,0.10198598,0.0,0.0,0.0,-1.0
48630014,48629778,0.0029258064,0.0019856778,-0.016663006,0.10271028,0.0,0.0,0.0,-1.0
48678684,48678451,0.0066452557,4.1246196e-05,-0.016397497,0.10271028,0.0,0.0,0.0,-1.0
48728603,48728371,0.0069954353,0.0010264965,-0.017316502,0.10271028,0.0,0.0,0.0,-1.0
48779762,48779537,0.0017033659,0.0037268838,-0.01675009,0.10271028,0.0,0.0,0.0,-1.0
48827189,48826961,-0.00065712625,0.0031131408,-0.01623804,0.10271028,0.0,0.0,0.0,-1.0
49328880,49328656,-0.0002415578,0.0017790917,-0.008899779,0.091121495,0.0,0.0,0.0,-1.0
49378801,49378571,0.0016946525,0.0031585225,-0.009111031,0.091121495,0.0,0.0,0.0,-1.0
49427472,49427243,0.0023963824,0.003332885,-0.00841359,0.091121495,0.0,0.0,0.0,-1.0
49532306,49532075,0.0022747747,0.0037867874,-0.008461537,0.091121495,0.0,0.0,0.0,-1.0
49578479,49578249,0.0019957449,0.0028157085,-0.008762567,0.091121495,0.0,0.0,0.0,-1.0
49627148,49626921,0.00078282243,0.0017881806,-0.009384441,0.091121495,0.0,0.0,0.0,-1.0
49682064,49681835,0.0008898649,0.0030928284,-0.010162004,0.091121495,0.0,0.0,0.0,-1.0
49728237,49728008,0.0021579782,0.0037896424,-0.010638319,0.091121495,0.0,0.0,0.0,-1.0
49776914,49776681,0.0012803794,0.002685117,-0.011459223,0.091121495,0.0,0.0,0.0,-1.0
49831825,49831591,0.0015721696,0.0010016431,-0.011896741,0.091121495,0.0,0.0,0.0,-1.0
49879239,49879015,0.0027104567,0.0033872817,-0.012632957,0.091121495,0.0,0.0,0.0,-1.0
49927916,49927686,0.000499712,0.00476915,-0.012981913,0.091121495,0.0,0.0,0.0,-1.0
49981579,49981350,-0.00064151554,0.0030785748,-0.011282049,0.091121495,0.0,0.0,0.0,-1.0
50029002,50028774,-0.0013560889,0.0024363613,-0.011856385,0.091845796,0.0,0.0,0.0,-1.0
50078918,50078693,0.0016654411,0.0011903498,-0.012769074,0.09257009,0.0,0.0,0.0,-1.0
50127588,50127364,0.0008458165,-0.00012455917,-0.013567148,0.09257009,0.0,0.0,0.0,-1.0
50180009,50179780,-0.0025832898,0.0010555481,-0.014022469,0.09401869,0.0,0.0,0.0,-1.0
50228680,50228452,-0.0030823825,0.003681025,-0.014645942,0.096191585,0.0,0.0,0.0,-1.0
50281099,50280869,-0.0013784894,0.004456266,-0.013016631,0.096191585,0.0,0.0,0.0,-1.0
50327278,50327044,-0.0006884275,0.004446653,-0.012424812,0.096191585,0.0,0.0,0.0,-1.0
50380940,50380707,0.00060954806,0.0063154115,-0.009590079,0.09836449,0.0,0.0,0.0,-1.0
50430857,50430627,0.0017398868,0.0051644444,-0.008150218,0.09908878,0.0,0.0,0.0,-1.0
50477035,50476802,0.0014331276,0.0022225478,-0.0069446643,0.09908878,0.0,0.0,0.0,-1.0
50530707,50530472,0.00034702945,0.0029908265,-0.007914361,0.09908878,0.0,0.0,0.0,-1.0
50581865,50581632,-1.1454561e-05,0.00460427,-0.009361517,0.09908878,0.0,0.0,0.0,-1.0
50629334,50629104,0.0003759711,0.0050434936,-0.008903681,0.09981308,0.0,0.0,0.0,-1.0
50681708,50681473,0.0008996163,0.0036486306,-0.007821734,0.10271028,0.0,0.0,0.0,-1.0
50730381,50730148,0.0013176765,0.0039948737,-0.007895485,0.10271028,0.0,0.0,0.0,-1.0
50779061,50778816,0.00071946415,0.0034931428,-0.0053019174,0.10271028,0.0,0.0,0.0,-1.0
50830219,50829985,-0.0007848326,0.0012286102,-0.0005609,0.10271028,0.0,0.0,0.0,-1.0
50880144,50879903,-0.0042300215,0.002991326,-0.0010283642,0.10271028,0.0,0.0,0.0,-1.0
50928801,50928574,-0.0027323037,0.006911859,-0.0028059161,0.10271028,0.0,0.0,0.0,-1.0
50979973,50979744,0.0023275793,0.003201996,-0.0034707084,0.10271028,0.0,0.0,0.0,-1.0
51029898,51029667,0.0032748631,0.000760385,-0.0037839257,0.10271028,0.0,0.0,0.0,-1.0
51079811,51079581,0.0029384198,0.0031799537,-0.005971674,0.10271028,0.0,0.0,0.0,-1.0
51129738,51129502,7.493212e-05,0.0023956865,-0.0061255344,0.10271028,0.0,0.0,0.0,-1.0
51177159,51176933,-0.00078489666,0.003335495,-0.005122601,0.10271028,0.0,0.0,0.0,-1.0
51227075,51226844,0.0015839771,0.001350697,-0.006834602,0.10271028,0.0,0.0,0.0,-1.0
51281988,51281756,0.0028677457,0.0022514819,-0.0087556215,0.10271028,0.0,0.0,0.0,-1.0
51329416,51329181,0.002629586,0.0033584381,-0.010169101,0.10271028,0.0,0.0,0.0,-1.0
51376847,51376608,0.0020702435,0.0023406048,-0.00886412,0.10271028,0.0,0.0,0.0,-1.0
51429250,51429021,0.0032107928,0.0008960245,-0.006441976,0.10271028,0.0,0.0,0.0,-1.0
51477925,51477691,0.0015323526,0.0011907908,-0.0036374736,0.09691589,0.0,0.0,0.0,-1.0
51527852,51527614,-0.0024452328,0.003405908,-0.0023662064,0.091845796,0.0,0.0,0.0,-1.0
51580259,51580027,-0.0017030081,0.0052066064,-0.0013640644,0.0875,0.0,0.0,0.0,-1.0
51628944,51628701,-0.0011952954,0.0029220723,-0.0011849803,0.086775705,0.0,0.0,0.0,-1.0
51677599,51677369,9.8474575e-06,0.0032410189,-0.0015492007,0.086775705,0.0,0.0,0.0,-1.0
51728772,51728539,0.00075898273,0.0054249465,-0.0029561697,0.086775705,0.0,0.0,0.0,-1.0
51779937,51779706,-0.00085559784,0.0044580414,-0.004620072,0.086775705,0.0,0.0,0.0,-1.0
51828602,51828376,8.5184925e-05,0.003649899,-0.0060925162,0.086775705,0.0,0.0,0.0,-1.0
51878527,51878297,-0.00043437036,0.0034130733,-0.0060819127,0.086775705,0.0,0.0,0.0,-1.0
51930951,51930716,7.147505e-05,0.002506879,-0.004725828,0.086775705,0.0,0.0,0.0,-1.0
51978372,51978137,0.0021646009,0.0026401307,-0.004054606,0.086775705,0.0,0.0,0.0,-1.0
52028330,52028099,0.0020103157,0.0027071887,-0.0053360164,0.086775705,0.0,0.0,0.0,-1.0
52080702,52080471,0.0014216929,0.0031976916,-0.0064953747,0.086775705,0.0,0.0,0.0,-1.0
52129370,52129143,0.0015540863,0.0032906795,-0.007343535,0.0875,0.0,0.0,0.0,-1.0
52180540,52180312,0.0024392726,0.0035993159,-0.00841427,0.08894859,0.0,0.0,0.0,-1.0
52227956,52227734,0.0022635858,0.00243852,-0.0095311375,0.08894859,0.0,0.0,0.0,-1.0
52280378,52280151,0.0008263822,0.0010454246,-0.010318603,0.08894859,0.0,0.0,0.0,-1.0
52329050,52328822,-0.00034100102,0.0008646194,-0.009534491,0.08894859,0.0,0.0,0.0,-1.0
52377720,52377494,0.00065614894,0.0029849918,-0.01044625,0.091121495,0.0,0.0,0.0,-1.0
52427654,52427419,9.762796e-05,0.0012950285,-0.010622061,0.0932944,0.0,0.0,0.0,-1.0
52477571,52477344,0.000980262,-0.0011811203,-0.010246374,0.096191585,0.0,0.0,0.0,-1.0
52528730,52528502,0.00091217185,-0.0008860536,-0.009958792,0.09691589,0.0,0.0,0.0,-1.0
52577438,52577194,0.00030049542,0.0010407213,-0.010293745,0.09836449,0.0,0.0,0.0,-1.0
52632315,52632086,0.00078400737,0.0045512537,-0.011277669,0.09836449,0.0,0.0,0.0,-1.0
52678496,52678266,-0.00037089552,0.00264802,-0.01148839,0.09908878,0.0,0.0,0.0,-1.0
52728417,52728180,-0.0017646911,0.0022907478,-0.011934893,0.10198598,0.0,0.0,0.0,-1.0
52780827,52780596,-0.00037433713,0.0035525227,-0.012337015,0.103434585,0.0,0.0,0.0,-1.0
52829492,52829267,0.0011658598,0.0035980328,-0.012670321,0.103434585,0.0,0.0,0.0,-1.0
52878176,52877942,0.00037357432,0.0037887094,-0.01296949,0.10415888,0.0,0.0,0.0,-1.0
52928092,52927860,0.0010007042,0.0052157543,-0.01292936,0.103434585,0.0,0.0,0.0,-1.0
52980519,52980275,0.0012480862,0.0035807407,-0.013153751,0.103434585,0.0,0.0,0.0,-1.0
53034176,53033940,0.00053598254,0.0009365936,-0.013181497,0.103434585,0.0,0.0,0.0,-1.0
53077851,53077619,0.00131594,-0.00034545353,-0.013258118,0.103434585,0.0,0.0,0.0,-1.0
53130274,53130038,0.0022660843,0.0022689106,-0.0131398775,0.103434585,0.0,0.0,0.0,-1.0
53181437,53181203,0.0010304217,0.0036131912,-0.012738422,0.103434585,0.0,0.0,0.0,-1.0
53228855,53228626,-0.00013320678,0.0012625732,-0.012973937,0.103434585,0.0,0.0,0.0,-1.0
53277522,53277298,0.00093469035,0.0017200899,-0.0130745005,0.103434585,0.0,0.0,0.0,-1.0
53329948,53329716,0.0012139479,0.003007645,-0.0130912,0.10271028,0.0,0.0,0.0,-1.0
53378621,53378385,0.00058819435,0.0017422419,-0.008846156,0.09836449,0.0,0.0,0.0,-1.0
53428542,53428307,0.00038949875,0.0027780607,-0.009171057,0.0896729,0.0,0.0,0.0,-1.0
53481021,53480781,0.00047259976,0.0035184554,-0.00900834,0.08894859,0.0,0.0,0.0,-1.0
53529624,53529393,0.0003265595,0.002553262,-0.008939142,0.0882243,0.0,0.0,0.0,-1.0
53578297,53578065,0.0011682751,0.0023485988,-0.008645537,0.08894859,0.0,0.0,0.0,-1.0
53626962,53626736,-0.00014452806,0.0008779367,-0.0087993005,0.08894859,0.0,0.0,0.0,-1.0
53680658,53680415,-0.0012869728,0.0024211528,-0.008450716,0.08894859,0.0,0.0,0.0,-1.0
53729310,53729072,-0.000115484974,0.0037301455,-0.008670537,0.08894859,0.0,0.0,0.0,-1.0
53779231,53778995,-0.0009837009,0.001793485,-0.008606065,0.08894859,0.0,0.0,0.0,-1.0
53830385,53830160,-0.00013009546,0.0014112357,-0.008785164,0.0896729,0.0,0.0,0.0,-1.0
53879119,53878883,0.0018886342,0.0011853747,-0.009146925,0.0896729,0.0,0.0,0.0,-1.0
53928981,53928752,-0.0023094937,0.0022218765,-0.008845587,0.0896729,0.0,0.0,0.0,-1.0
53977655,53977424,-0.003320955,0.0022083672,-0.009239125,0.09257009,0.0,0.0,0.0,-1.0
54030077,54029840,-0.0023308939,0.0022643853,-0.009541753,0.09474299,0.0,0.0,0.0,-1.0
54078744,54078513,0.002288934,0.0020212932,-0.009676268,0.09474299,0.0,0.0,0.0,-1.0
54127411,54127183,0.0034606552,0.0023922236,-0.009750537,0.09474299,0.0,0.0,0.0,-1.0
54177332,54177104,0.0015750249,0.0021817607,-0.01027552,0.09474299,0.0,0.0,0.0,-1.0
54229747,54229519,0.003292705,0.0016806774,-0.011015609,0.09474299,0.0,0.0,0.0,-1.0
54278424,54278191,0.004741216,0.0011203054,-0.011358656,0.09474299,0.0,0.0,0.0,-1.0
54327088,54326863,0.002963083,0.00142694,-0.011933323,0.09474299,0.0,0.0,0.0,-1.0
54377016,54376782,0.0006899349,0.0025872656,-0.011985674,0.09691589,0.0,0.0,0.0,-1.0
54429428,54429198,0.0014933493,0.0018598062,-0.012356887,0.09836449,0.0,0.0,0.0,-1.0
54478106,54477872,0.0031919903,0.00093651173,-0.012403933,0.10053739,0.0,0.0,0.0,-1.0
54526778,54526544,0.0023161129,0.0015914758,-0.01271357,0.10198598,0.0,0.0,0.0,-1.0
54579195,54578971,-5.6509838e-05,0.002433116,-0.013404303,0.10271028,0.0,0.0,0.0,-1.0
54627867,54627631,-0.00082885445,0.0019883416,-0.013892117,0.10271028,0.0,0.0,0.0,-1.0
54677783,54677551,-0.00066975196,0.0038133017,-0.014011242,0.10415888,0.0,0.0,0.0,-1.0
54730192,54729966,0.002751847,0.0031917968,-0.014741745,0.10633177,0.0,0.0,0.0,-1.0
54778865,54778638,0.0014121039,0.0019069597,-0.014927469,0.10705608,0.0,0.0,0.0,-1.0
54827541,54827310,-0.0008688258,0.0032173926,-0.014659976,0.10705608,0.0,0.0,0.0,-1.0
54881200,54880974,-0.0038833024,0.0032040637,-0.015094245,0.10705608,0.0,0.0,0.0,-1.0
54929876,54929645,-0.00038936746,0.0011399018,-0.0152405305,0.10488318,0.0,0.0,0.0,-1.0
54978543,54978317,-3.3468375e-06,0.0027340788,-0.015457504,0.09691589,0.0,0.0,0.0,-1.0
55027223,55026991,-0.0009174629,0.0038086702,-0.015602935,0.091121495,0.0,0.0,0.0,-1.0
55079630,55079406,-0.00044471325,0.0032453064,-0.01541474,0.091845796,0.0,0.0,0.0,-1.0
55129558,55129325,0.0009624613,0.0029069658,-0.015482483,0.09836449,0.0,0.0,0.0,-1.0
55178229,55177998,-0.00055765617,0.0023862747,-0.015029298,0.10271028,0.0,0.0,0.0,-1.0
55230652,55230420,-0.002434891,0.002347038,-0.015139747,0.10415888,0.0,0.0,0.0,-1.0
55279326,55279087,-0.0013599608,0.003093401,-0.015235234,0.10560747,0.0,0.0,0.0,-1.0
55329257,55329016,-0.0006747298,0.0032494501,-0.015403784,0.10560747,0.0,0.0,0.0,-1.0
55377902,55377677,-0.0013965261,0.0029418108,-0.0153509965,0.10560747,0.0,0.0,0.0,-1.0
55430351,55430125,-0.002351252,0.0028670335,-0.015261311,0.10705608,0.0,0.0,0.0,-1.0
55479004,55478780,-0.0007873631,0.003109923,-0.015159602,0.107780375,0.0,0.0,0.0,-1.0
55527667,55527437,0.0018061189,0.0016369565,-0.015231489,0.10488318,0.0,0.0,0.0,-1.0
55577596,55577357,0.0032997895,0.00096833485,-0.015012618,0.09836449,0.0,0.0,0.0,-1.0
55630011,55629773,0.00277952,0.002303568,-0.015023683,0.09401869,0.0,0.0,0.0,-1.0
55678680,55678451,0.002872154,0.003128113,-0.015229817,0.09401869,0.0,0.0,0.0,-1.0
55727341,55727116,0.0023589802,0.0025509947,-0.014888122,0.09474299,0.0,0.0,0.0,-1.0
55779762,55779533,0.0017581886,0.0014137133,-0.014687124,0.095467284,0.0,0.0,0.0,-1.0
55828434,55828205,0.00029498214,0.002119343,-0.014464264,0.096191585,0.0,0.0,0.0,-1.0
55878350,55878125,-0.00037339184,0.0028572956,-0.0145047335,0.09908878,0.0,0.0,0.0,-1.0
55930773,55930541,-0.00056673517,0.002390047,-0.014683873,0.10053739,0.0,0.0,0.0,-1.0
55979437,55979212,-0.00017903336,0.0030320042,-0.014820989,0.10053739,0.0,0.0,0.0,-1.0
56028112,56027885,-0.0009169483,0.002696504,-0.015257515,0.09764019,0.0,0.0,0.0,-1.0
56078050,56077805,-0.00077151693,0.003179488,-0.015593446,0.0882243,0.0,0.0,0.0,-1.0
56130460,56130221,-0.0014990236,0.0027260066,-0.016269024,0.0875,0.0,0.0,0.0,-1.0
56179115,56178892,-0.0013769248,0.0014524453,-0.016212108,0.08894859,0.0,0.0,0.0,-1.0
56227791,56227565,-0.00023717235,0.002120701,-0.016355734,0.0903972,0.0,0.0,0.0,-1.0
56280223,56279982,-7.450492e-05,0.0029114732,-0.016065884,0.091845796,0.0,0.0,0.0,-1.0
56328883,56328657,0.0009472245,0.0018696646,-0.0164754,0.091845796,0.0,0.0,0.0,-1.0
56380062,56379824,0.001988121,0.0025752806,-0.016834129,0.0896729,0.0,0.0,0.0,-1.0
56427469,56427245,0.0003375717,0.0027347247,-0.016686065,0.08242991,0.0,0.0,0.0,-1.0
56479897,56479662,-9.588109e-05,0.0041647875,-0.016635204,0.07663552,0.0,0.0,0.0,-1.0
56528564,56528333,0.0015822665,0.0037354364,-0.016695047,0.07663552,0.0,0.0,0.0,-1.0
56578487,56578257,0.0018400381,0.0013163884,-0.016494008,0.079532705,0.0,0.0,0.0,-1.0
56630896,56630670,0.0020886045,0.0002485615,-0.016225448,0.08098131,0.0,0.0,0.0,-1.0
56679579,56679343,0.0027315984,-0.0006345079,-0.016257398,0.08315421,0.0,0.0,0.0,-1.0
56728237,56728013,0.0027273837,-0.0029921688,-0.01569149,0.0875,0.0,0.0,0.0,-1.0
56776967,56776741,0.0046196473,-0.002052113,-0.015992574,0.0875,0.0,0.0,0.0,-1.0
56829328,56829101,0.0023365382,0.0021871466,-0.015196754,0.08894859,0.0,0.0,0.0,-1.0
56879258,56879023,-0.0004684319,0.0028449951,-0.015299312,0.091845796,0.0,0.0,0.0,-1.0
56927930,56927694,0.00010534077,-0.0036460797,-0.015295933,0.0932944,0.0,0.0,0.0,-1.0
56980338,56980109,-0.0027467683,-0.0039520566,-0.014616029,0.10198598,0.0,0.0,0.0,-1.0
57029017,57028783,-0.0077461577,0.0022041823,-0.014291981,0.103434585,0.0,0.0,0.0,-1.0
57078938,57078711,-0.0041520502,0.0055299886,-0.013627959,0.10415888,0.0,0.0,0.0,-1.0
57127600,57127373,-0.0008640994,0.0038667324,-0.014053995,0.10415888,0.0,0.0,0.0,-1.0
57180014,57179790,-0.00028052068,0.001962334,-0.014295206,0.10415888,0.0,0.0,0.0,-1.0
57228696,57228462,-0.0007984161,0.002415099,-0.014515171,0.10415888,0.0,0.0,0.0,-1.0
57277359,57277134,-0.0005151755,0.0013015779,-0.014621873,0.10415888,0.0,0.0,0.0,-1.0
57327279,57327054,-0.00010167427,0.0005654294,-0.01432334,0.10415888,0.0,0.0,0.0,-1.0
57379705,57379471,-0.0021873894,0.0034057912,-0.014082979,0.10415888,0.0,0.0,0.0,-1.0
57428369,57428143,-0.0008250063,0.0053813034,-0.013697254,0.10415888,0.0,0.0,0.0,-1.0
57477038,57476814,0.0012485762,0.0034402602,-0.013098061,0.10415888,0.0,0.0,0.0,-1.0
57528217,57527983,0.005672914,0.0019429638,-0.013243147,0.095467284,0.0,0.0,0.0,-1.0
57579376,57579150,0.013427503,0.0021172317,-0.013448914,0.09474299,0.0,0.0,0.0,-1.0
57628054,57627823,0.00478788,0.0012791656,-0.011484842,0.09474299,0.0,0.0,0.0,-1.0
57676720,57676495,-0.005519588,-0.002064936,-0.0095196515,0.09474299,0.0,0.0,0.0,-1.0
57729141,57728911,-0.009856519,-0.0011877218,-0.006532395,0.095467284,0.0,0.0,0.0,-1.0
57779064,57778831,-0.0030871348,0.0020662819,-0.0039506573,0.096191585,0.0,0.0,0.0,-1.0
