timestamp,gyro_rad[0],gyro_rad[1],gyro_rad[2],gyro_integral_dt,accelerometer_timestamp_relative,accelerometer_m_s2[0],accelerometer_m_s2[1],accelerometer_m_s2[2],accelerometer_integral_dt,accelerometer_clipping
22224183,0.00093976,0.0112195555,0.003319371,4973,0,-0.07120903,-0.10885311,-9.726792,4973,0
22229146,-0.017758034,0.0040338896,-0.00034119195,4963,0,0.29370794,0.009660101,-9.649489,4963,0
22244124,-0.012860192,0.0065559302,-0.0016580828,4993,0,0.320544,0.24930462,-9.668182,4993,0
22249113,-0.005666546,0.0071396385,0.0023655398,4989,0,-0.22006087,-0.27736035,-10.215312,4989,0
22254107,0.00065909646,0.0019506407,0.0021326193,4994,0,-0.055151314,0.21531206,-9.8454,4994,0
22259096,-0.0116235595,0.0050572846,-0.004050658,4989,0,0.35578284,-0.027247582,-9.891154,4989,0
22264087,-0.0057136924,-0.0016330247,0.004116058,4991,0,-0.16951267,-0.38330698,-9.828615,4991,0
22269079,-0.008433582,0.012867739,0.0012286573,4992,0,-0.15846726,0.4448841,-9.890793,4992,0
22274071,-0.007540193,0.0015092107,-0.0038240112,4992,0,0.56572455,-0.31459984,-10.093244,4992,0
22279063,-0.00745842,-0.009726333,0.0036696286,4992,0,-0.45460808,0.06498287,-9.951208,4992,0
22284054,-0.00540139,0.023645444,-0.0015540466,4991,0,-0.07458694,0.2424909,-9.8384285,4991,0
22289049,-0.0057823565,0.0019091078,0.0011604792,4995,0,0.92004097,-0.86233735,-9.863568,4995,0
22294038,-0.017630571,-0.01995594,0.0053924033,4989,0,-0.86209786,0.9954086,-9.862255,4989,0
22299036,0.010544964,0.03833606,-0.008888446,4998,0,0.37161702,-0.7302421,-10.443225,4998,0
22304021,-0.015859766,-0.02790952,0.008827939,4985,0,0.38602406,0.40490907,-9.248427,4985,0
22309013,-0.0022362398,0.015238741,-0.0027263314,4992,0,-0.72768897,-0.28114292,-10.394815,4992,0
22314005,-0.0001008952,0.022788864,-0.0024987403,4992,0,0.50223494,-0.08697338,-9.636393,4992,0
22318997,-0.02207943,-0.0349288,0.006900391,4992,0,0.20299317,0.3714977,-10.134953,4992,0
22323988,0.0057033948,0.037148092,-0.0035118498,4991,0,-0.34897658,-0.9492876,-9.836264,4991,0
22328980,-0.017339278,-0.02411852,0.007247585,4992,0,0.35216957,1.3150452,-9.707004,4992,0
22333971,0.003995286,0.027482113,0.00064826634,4991,0,-0.031706512,-1.4550102,-10.464716,4991,0
22338964,-0.019762069,-0.01975141,0.0015698855,4993,0,0.0005279316,1.792101,-9.5276,4993,0
22343956,0.0072948863,0.022959212,0.0048673316,4992,0,0.19727427,-2.0159664,-10.543222,4992,0
22348948,-0.016233986,-0.013452591,0.0018754484,4992,0,0.1621964,2.1839452,-9.117679,4992,0
22353940,-0.0015002706,0.014449167,0.010354984,4992,0,0.014421954,-2.3343754,-10.805422,4992,0
22358930,-0.008404604,-0.001974394,-0.004654344,4990,0,-0.27856335,2.1706588,-8.962899,4990,0
22363922,-0.004235911,0.0037894985,0.0152441105,4992,0,0.56130916,-2.1676483,-10.632839,4992,0
22368914,-0.0015498106,0.0008320417,-0.0072726673,4992,0,-0.6735861,2.0908222,-9.287196,4992,0
22373932,-0.005992133,0.011643992,0.012146088,5018,0,0.80621946,-2.0194852,-10.659085,5018,0
22378897,-0.006291254,-0.0071831616,-0.003922123,4965,0,-0.8059116,1.9851519,-9.143681,4965,0
22383889,-0.0112915,0.011178036,0.008243114,4992,0,0.892553,-1.7523463,-10.547471,4992,0
22388881,-0.004398308,-0.0069955075,0.001106052,4992,0,-0.70980906,1.5283313,-9.410178,4992,0
22393873,-0.013585055,0.010027928,0.004730448,4992,0,0.34500617,-1.5936368,-10.06526,4992,0
22398865,-0.008957716,0.0013732099,0.0018221777,4992,0,-0.057427652,1.6098855,-10.074999,4992,0
22403857,-0.010386969,0.0090312995,-0.0041043507,4992,0,-0.25791332,-1.493921,-9.883822,4992,0
22408850,-0.008040193,-0.014158381,0.0049696486,4993,0,0.60453606,1.296767,-9.988182,4993,0
22413842,-0.0045338185,0.024833223,0.0015461701,4992,0,-0.6139623,-1.0801886,-9.892367,4992,0
22418832,-0.008837506,-0.0089374995,0.0064457315,4990,0,0.844324,0.61082506,-9.887865,4990,0
22423824,-0.0041141836,0.0050563756,-0.0012012535,4992,0,-0.81712866,-0.20991005,-10.0078335,4992,0
22428816,-0.012218175,0.0027726444,0.0034767604,4992,0,0.9404506,-0.25688037,-9.648731,4992,0
22433806,-0.008621912,0.0015555911,0.00084150844,4990,0,-0.7811703,0.6056487,-9.973616,4990,0
22438801,-0.013708202,0.008477792,0.001225232,4995,0,0.57293344,-1.0114603,-10.044161,4995,0
22443802,0.005545598,-0.00018454946,0.0041466653,5001,0,-0.2848937,1.2982401,-10.030851,5001,0
22448782,-0.007475051,0.009852223,0.0011235117,4980,0,-0.055717874,-0.95123875,-9.983794,4980,0
22453774,0.00082119164,0.0028739602,0.001258725,4992,0,0.40170017,0.40819559,-10.018258,4992,0
22458766,-0.010432197,0.0012250894,0.0018005399,4992,0,-0.23205325,-0.3804036,-9.472863,4992,0
22463757,-0.015050323,0.0040166974,0.0016537762,4991,0,0.49010035,-0.15639967,-9.853499,4991,0
22468750,-0.0077962675,0.0011937281,0.0017917514,4993,0,-0.62015027,0.4641088,-10.178541,4993,0
22473742,-0.012881267,0.011195478,0.0018419432,4992,0,0.5683841,-0.35385963,-9.848012,4992,0
22478733,0.0012631096,-0.0017914221,0.0053717997,4991,0,-0.39830977,0.88098884,-10.287361,4991,0
22483728,-0.0059171147,0.011604259,-0.0016670581,4995,0,0.16056383,-1.0297781,-9.606792,4995,0
22488718,0.0064883986,-0.005414647,0.0033978135,4990,0,0.41206947,0.35459685,-10.180113,4990,0
22493709,-0.020192599,-0.0029505063,-0.0045056227,4991,0,-0.43630323,-0.056136247,-9.703877,4991,0
22498699,-0.008041445,0.012042334,0.00097311375,4990,0,0.45153233,-0.53592825,-9.741616,4990,0
22503691,-0.008078354,-0.0040072706,0.0030229362,4992,0,-0.4909552,1.0242388,-10.173675,4992,0
22508684,-0.012573778,0.011473242,0.002012543,4993,0,0.5585015,-1.015061,-9.878283,4993,0
22513683,0.009800529,-0.001560882,0.0033246884,4999,0,-0.2587733,1.0178193,-10.449985,4999,0
22518667,-0.01131929,0.005942766,0.0018161173,4984,0,-0.0529455,-0.711677,-9.284691,4984,0
22523659,-0.009042978,0.009625572,0.00022630699,4992,0,0.5395371,-0.059326567,-9.913102,4992,0
22528720,-0.012510111,-0.005489865,0.0038641011,5061,0,-0.52573997,0.38094348,-10.026486,5061,0
22533643,-0.012560387,0.0065952386,-0.0010528144,4923,0,0.6816077,-0.70285356,-9.803806,4923,0
22538633,-0.0043793237,0.0001892224,0.0030688492,4990,0,-0.5372426,0.8626053,-10.50281,4990,0
22543625,-0.010446789,0.0016458308,-0.0016579577,4992,0,0.17309682,-0.46587485,-9.363681,4992,0
22548616,0.005312242,0.008670527,0.004713559,4991,0,0.23922366,0.068235986,-10.262474,4991,0
22553608,-0.002652147,0.0083593875,0.0012474667,4992,0,-0.5687692,0.12921475,-9.58843,4992,0
22558603,-0.013234295,0.004631943,0.0030268505,4995,0,0.88774914,-0.61522305,-9.892259,4995,0
22563592,-0.008927955,0.00044340084,0.0007255714,4989,0,-0.31974313,0.75084835,-10.21888,4989,0
22568584,-0.018939465,-0.0010676828,-0.0032645718,4992,0,0.051194407,-0.56641746,-9.602814,4992,0
22573575,-0.0054045375,-0.0027093717,0.0033831343,4991,0,0.16636558,0.20267981,-10.419195,4991,0
22578567,-0.0011308382,0.0131931435,0.0013527535,4992,0,-0.4697161,0.17832796,-9.320442,4992,0
22583561,-0.0025910782,0.009410295,0.009061939,4994,0,0.48819435,-0.56423384,-10.407582,4994,0
22588551,0.00031488863,-0.001438601,0.000488302,4990,0,-0.038114116,0.8603405,-10.217234,4990,0
22593545,-0.005036366,0.0027110209,-0.00023886899,4994,0,-0.14996453,-0.5452933,-9.418249,4994,0
22598535,-0.018735878,-0.0011921923,0.003443843,4990,0,0.71404415,-0.2050156,-10.210154,4990,0
22603526,-0.0031080598,0.00833383,0.0060694814,4991,0,-0.763251,0.25858712,-9.298924,4991,0
22608518,-0.009298876,0.0072762882,0.005923708,4992,0,0.31888774,-0.40057585,-10.328763,4992,0
22613510,-0.006119667,0.0021931946,-0.0047825663,4992,0,0.19319397,0.7734548,-10.279095,4992,0
22618501,-0.0004395674,-0.0058682906,-0.0007152797,4991,0,-0.59540766,-0.52056104,-9.3675995,4991,0
22623494,-0.014151872,0.010398203,0.0009566707,4993,0,0.9484259,-0.39604676,-10.270077,4993,0
22628487,-0.009918176,-0.0012876269,0.00065051066,4993,0,-0.63255984,0.607819,-9.545697,4993,0
22633478,-0.010876683,0.009919466,0.0044495054,4991,0,-0.12923814,-0.6342946,-9.819168,4991,0
22638471,-0.0026112807,0.010191319,0.0036673665,4993,0,0.7334683,0.6173826,-10.62996,4993,0
22643460,0.001542162,-0.00049221894,0.0005695297,4989,0,-0.81738114,-0.12803566,-9.292527,4989,0
22648452,-0.010349316,-0.0025332328,0.0013996244,4992,0,0.9581009,-0.58617896,-10.33452,4992,0
22653443,-0.006974604,-0.0031430589,-0.0015167941,4991,0,-0.11999153,0.70495886,-9.876764,4991,0
22658436,-0.014663104,0.009338208,0.00016132001,4993,0,-0.7696989,-0.6199107,-9.501882,4993,0
22663427,-0.0070491107,0.011304216,0.004759429,4991,0,1.1742293,0.18779625,-10.519771,4991,0
22668431,-0.0015842988,0.0007947903,0.0021004719,5004,0,-0.7580892,0.30976695,-9.571475,5004,0
22673411,-0.016888529,-0.0036956402,-0.00053858594,4980,0,0.099999435,-0.58519495,-9.781141,4980,0
22678405,0.0011735468,0.0026752981,0.003020806,4994,0,0.7314509,0.6411869,-10.490573,4994,0
22683397,-0.0072793784,0.0078518335,0.0016087553,4992,0,-1.2327341,-0.21398771,-9.239867,4992,0
22688386,-0.005158237,0.012574306,0.005026408,4989,0,1.0286254,-0.54797155,-10.198899,4989,0
22693378,0.007993157,0.0058268737,0.0053024604,4992,0,-0.27750146,0.7123445,-10.194025,4992,0
22698424,-0.015413395,-0.0010670767,-0.0054472703,5046,0,-0.42673922,-0.2745065,-9.634918,5046,0
22703361,-0.0031833332,0.00046253778,-0.0002482002,4937,0,1.368628,-0.16242965,-10.32946,4937,0
22708370,-0.010036798,0.0008886369,0.0017433591,5009,0,-1.1750056,0.4567531,-9.464627,5009,0
22713344,-0.021233734,0.013282543,0.00012482978,4974,0,0.20584632,-0.66351336,-9.497635,4974,0
22718363,-0.00096944947,0.008445818,0.010861792,5019,0,0.4908229,0.39615974,-10.596484,5019,0
22723328,-0.0052481736,-0.0076588457,-0.0015537399,4965,0,-0.75568795,0.20950866,-9.925476,4965,0
22728370,-0.008605382,0.00021076378,0.0002875266,5042,0,0.8806502,-0.5496024,-9.873101,5042,0
22733311,0.0020225265,0.008324719,0.007060989,4941,0,-0.14114694,0.5460733,-10.012594,4941,0
22738365,-0.018093733,0.00721814,-0.0015829672,5054,0,-0.71983564,-0.51322204,-9.429661,5054,0
22743295,-0.0072883293,0.0039861323,0.0071935393,4930,0,1.3788642,-0.02364542,-10.491615,4930,0
22748287,0.0027717615,0.0014030793,0.0023729166,4992,0,-1.3344699,0.6629132,-10.086752,4992,0
22753280,-0.009768574,0.008084807,-0.0013200988,4993,0,0.45172372,-0.72428536,-9.328041,4993,0
22758270,0.0018630602,0.008926247,0.00929842,4990,0,0.82120675,0.06510032,-10.228393,4990,0
22763265,-0.011240208,0.0056496724,-0.0057017286,4995,0,-1.0305413,0.11504103,-9.711376,4995,0
22768260,-0.01828616,-0.010225689,0.002302789,4995,0,0.87290716,-0.50427884,-10.157085,4995,0
22773247,-0.0016271428,0.013885778,0.0075899553,4987,0,-0.35449645,0.59351635,-9.600895,4987,0
22778237,-0.015082976,0.0056117666,0.002857836,4990,0,-0.39382994,0.25091845,-10.146262,4990,0
22783231,-0.010769706,-0.00085066067,0.0041256924,4994,0,1.1458474,-0.464037,-10.347654,4994,0
22788221,0.011062569,-8.6561384e-05,0.008094637,4990,0,-0.78027827,0.4755774,-9.624847,4990,0
22793214,-0.010416548,-0.0015231972,0.0001391466,4993,0,0.17002928,-0.38735798,-9.909906,4993,0
22798204,-0.013416628,0.011496158,0.010786942,4990,0,0.5721527,-0.18795437,-9.887873,4990,0
22803196,-0.0025085001,0.01211152,0.005838348,4992,0,-1.0064477,0.32572734,-9.99315,4992,0
22808193,-0.011136164,0.00071237923,0.007209855,4997,0,0.62428755,-0.2524918,-9.83714,4997,0
22813180,-0.0049274964,0.0011807441,0.009447064,4987,0,0.375806,0.046670564,-9.974869,4987,0
22818172,-0.008870179,0.0029853994,-0.000884811,4992,0,-0.7916189,0.26545358,-9.777444,4992,0
22823163,-0.00913799,-0.00049334916,0.002245016,4991,0,0.7807411,-0.3762087,-10.156988,4991,0
22828158,-0.0029067881,0.00038883864,0.011171137,4995,0,-0.40661827,0.18501869,-9.708752,4995,0
22833147,-0.008936627,0.013826224,0.004006108,4989,0,-0.3886361,0.082827926,-9.997551,4989,0
22838139,-0.012092213,0.006078533,0.013176851,4992,0,0.97308993,-0.2347822,-9.793499,4992,0
22843130,-0.0040794425,-0.006769616,0.0023168752,4991,0,-0.45533553,0.10607038,-10.253964,4991,0
22848122,-0.01355612,0.00078135834,-0.0014081233,4992,0,0.028804779,0.08119374,-9.957289,4992,0
22853138,-0.011259707,-0.003780814,0.008964787,5016,0,0.53707737,-0.19083062,-9.898107,5016,0
22858106,0.0034834382,0.014551905,0.0061308634,4968,0,-0.9667908,0.40591678,-10.02544,4968,0
22863100,-0.0128418,0.012209725,0.008824777,4994,0,0.5667873,-0.2460626,-9.757421,4994,0
22868089,-0.0020523833,0.008084124,0.0120721655,4989,0,0.2594217,-0.115506686,-9.8876915,4989,0
22873080,-0.002959798,-0.0010457176,0.003118045,4991,0,-0.49049076,0.16165563,-9.982151,4991,0
22878073,-0.010905075,-0.010048406,0.0005620262,4993,0,0.58758026,-0.5957025,-10.115903,4993,0
22883064,0.0026759524,0.0050646616,0.00621768,4991,0,-0.005848312,0.1437714,-9.571481,4991,0
22888056,-0.016093986,0.015137617,0.0014561794,4992,0,-0.56978136,0.24305446,-9.949784,4992,0
22893048,-0.011884396,-5.689737e-05,0.010243289,4992,0,1.0162612,-0.32211313,-10.119122,4992,0
22898041,-0.0065154745,-0.0017962805,0.0065358845,4993,0,-0.38496163,0.32555076,-9.94535,4993,0
22903032,-0.008581471,0.003361369,-0.0047755875,4991,0,-0.054448966,0.17225449,-9.891953,4991,0
22908023,-0.0012895626,-0.00015588496,0.007385705,4991,0,0.17475928,-0.32349983,-10.121794,4991,0
22913015,0.0010738586,0.009117827,0.0013303458,4992,0,-0.26688042,0.27743575,-9.450861,4992,0
22918006,-0.025051331,0.0069961147,8.9697925e-05,4991,0,0.1784952,-0.7254061,-10.185972,4991,0
22922998,-0.00418928,-0.0016238255,0.009508616,4992,0,0.42045328,0.32477248,-10.075602,4992,0
22927990,-0.004980709,0.0026852342,-0.00091349985,4992,0,-0.5551802,0.27183568,-9.828797,4992,0
22932981,-0.013128598,0.0076120542,0.0002817246,4991,0,0.48499382,-0.14386208,-10.1202135,4991,0
22937973,0.001805413,-0.0027023552,0.009292197,4992,0,0.057677116,0.04485741,-9.97972,4992,0
22942965,-0.00019810983,0.0052134846,-0.0040312046,4992,0,-0.23598446,-0.0027690397,-9.615631,4992,0
22947963,-0.0070668887,0.014709316,0.004054322,4998,0,0.11764049,-0.28959826,-10.079871,4998,0
22952948,-0.0004135979,0.0032985487,0.010788886,4985,0,0.32069415,0.20521651,-9.694251,4985,0
22957942,-0.022837266,0.0016097178,-0.007733858,4994,0,-0.297602,-0.1784541,-9.9821415,4994,0
22962931,-0.010827712,-0.0055422587,0.0009935243,4989,0,0.18801157,-0.0075748586,-10.149322,4989,0
22967924,0.0046980875,-0.0019521753,0.0030883038,4993,0,-0.18856464,0.45017537,-9.803376,4993,0
22972915,-0.013136467,0.015250739,0.0023885951,4991,0,0.19420452,-0.4735072,-9.588047,4991,0
22977907,-0.007573712,0.0031760195,0.011014795,4992,0,0.02372787,-0.031054411,-10.401575,4992,0
22992884,0.00094063685,0.004836016,0.0022461931,4993,0,-0.1760896,-0.35147992,-10.260218,4993,0
22997874,-0.0059054564,0.011493034,-0.0016809739,4990,0,0.24844049,0.5836368,-9.696784,4990,0
23002866,-0.01100934,0.00025922054,-0.002855585,4992,0,0.208749,-0.020766513,-9.857151,4992,0
23007865,-0.012957903,-0.0017417853,-0.0013713053,4999,0,-0.3697947,-0.96311116,-10.35861,4999,0
23012848,-0.0014177351,-0.009406013,-0.002034626,4983,0,0.43994227,0.71300954,-9.799912,4983,0
23017840,0.0036832986,0.020920137,-0.0022815675,4992,0,-0.3578185,0.3112511,-9.52502,4992,0
23022885,0.0014965838,-0.00039273963,-0.0022844574,5045,0,-0.35292742,-0.438713,-10.360188,5045,0
23027824,-0.01946372,-0.0067869313,-0.003102878,4939,0,0.6241371,-0.2992053,-10.306582,4939,0
23032815,-0.019907394,0.01167174,-0.0024552299,4991,0,0.2564523,0.1755783,-8.686604,4991,0
23037807,-0.01944431,-0.00018035923,0.0006144872,4992,0,-0.3767773,0.012696081,-10.080631,4992,0
23042800,0.0040350547,0.00027906682,-0.00093409425,4993,0,-0.4720256,0.19833764,-11.148862,4993,0
23047791,0.011399971,-0.003555932,-0.00037965673,4991,0,0.35553887,-0.44717988,-9.64504,4991,0
23052783,-0.003424065,0.006695817,0.0044331797,4992,0,0.751586,0.048822038,-9.989582,4992,0
23057776,-0.017530229,0.0053879926,0.004894086,4993,0,0.22345841,0.60786885,-9.347209,4993,0
23062767,-0.031590957,0.009773932,0.0057339044,4991,0,-0.8991804,-0.4844583,-8.257437,4991,0
23067758,-0.025088144,0.0010045723,0.0037367295,4991,0,-0.43083057,-0.4251437,-11.501345,4991,0
23072749,0.011433277,-0.009796758,0.0086643435,4991,0,0.8382809,0.20333958,-10.645198,4991,0
23077741,0.00946995,0.0114781475,0.005374484,4992,0,0.8861799,0.5535861,-10.571649,4992,0
23082733,0.028911408,0.02477495,0.004464993,4992,0,-0.45206675,0.10912247,-9.077629,4992,0
23087729,-0.0059342305,0.04705265,-0.002878139,4996,0,-1.6539748,-0.45772225,-8.441879,4996,0
23092717,-0.00057733944,0.067540154,-0.0015502999,4988,0,-1.0810908,-0.15443675,-10.811911,4988,0
23097714,0.006774077,0.070022054,-0.006803161,4997,0,0.8278387,-0.2058734,-10.9801445,4997,0
23102700,0.015087817,0.066885285,-0.007674101,4986,0,1.4507864,0.25975224,-11.685448,4986,0
23107692,0.024185192,0.07615445,-0.0052463408,4992,0,0.3514941,0.16446453,-9.245624,4992,0
23112685,0.018129297,0.09883485,-0.0068056216,4993,0,-1.0460737,0.08857379,-8.506286,4993,0
23117675,0.024605012,0.121699974,-0.0041068434,4990,0,-1.1915355,0.27735844,-9.378411,4990,0
23122667,0.024905661,0.11452687,-0.006310074,4992,0,-0.37944064,-0.14428963,-10.376868,4992,0
23127659,0.03388177,0.11759741,-0.008694856,4992,0,0.4731313,-0.5072325,-12.075289,4992,0
23132657,0.03793246,0.13201258,-0.005350931,4998,0,0.9512063,0.5522843,-10.978285,4998,0
23137643,-0.0053412323,0.12167693,-0.007410473,4986,0,0.115801044,-0.8460067,-10.461724,4986,0
23142635,-0.02764775,0.13871029,0.0020889742,4992,0,0.11647858,0.4949112,-9.185216,4992,0
23147630,-0.040068384,0.13595432,-0.011639706,4995,0,-0.6004394,-0.041296694,-9.36674,4995,0
23152618,-0.019160481,0.14977226,-0.0023765382,4988,0,0.06416174,-0.07304915,-9.655971,4988,0
23157609,0.0030286447,0.12185515,-0.0035238904,4991,0,0.97100085,0.40937755,-10.474098,4991,0
23162601,0.00518291,0.089934595,0.008721457,4992,0,-0.11460691,-0.57778734,-9.769632,4992,0
23167594,0.0308073,0.091796055,0.0013961671,4993,0,-0.2054543,0.80251,-9.675797,4993,0
23172585,0.033256467,0.0819694,0.0031320062,4991,0,-0.33141476,-0.31748196,-9.806452,4991,0
23177620,0.0041390643,0.10188892,0.01356145,5035,0,-0.33440834,-0.6021408,-10.677361,5035,0
23182572,0.026437458,0.08256341,0.00769184,4952,0,0.13993303,0.7816619,-11.063394,4952,0
23187560,0.03636873,0.056665655,-6.2215244e-05,4988,0,0.4147667,0.3892876,-10.454119,4988,0
23192552,0.009898899,0.065551594,0.0009202054,4992,0,0.33921772,-0.69183356,-10.601681,4992,0
23197543,-0.001399168,0.079415455,0.0011286177,4991,0,-0.0962506,-0.4371185,-9.748584,4991,0
23202536,0.028149143,0.08420001,0.005471722,4993,0,0.23673186,0.39079127,-10.09305,4993,0
23207527,0.0357642,0.049537376,0.0071328455,4991,0,0.141334,0.25220802,-10.216921,4991,0
23212519,0.01607426,0.08636483,0.010962271,4992,0,-0.3175959,-0.33113623,-9.539984,4992,0
23217511,0.010341832,0.09124859,0.010918545,4992,0,-0.059963014,-0.011649735,-10.296298,4992,0
23222503,0.015991898,0.04262675,0.005801573,4992,0,-0.31650797,0.28267553,-10.158425,4992,0
23227494,0.034479793,0.08018821,0.0059844926,4991,0,0.029486587,-0.36852,-10.349769,4991,0
23232486,0.04822341,0.019967198,0.014225517,4992,0,0.03552576,0.65956426,-9.795953,4992,0
23237480,0.03572085,0.009930399,0.009819206,4994,0,-0.08417271,0.081714645,-10.00542,4994,0
23242469,0.023922473,0.026012486,0.0090606455,4989,0,-0.066446245,0.026045775,-10.189287,4989,0
23247461,0.031912692,0.007115398,-0.002441251,4992,0,-0.09700308,-0.1020844,-9.540099,4992,0
23252452,0.011911304,0.019964056,0.0132043995,4991,0,0.036985554,-0.15119478,-10.099839,4991,0
23257445,-0.0012642449,-0.016845284,0.014884666,4993,0,-0.021376392,-0.25509828,-9.283297,4993,0
23262437,0.0015097253,0.0040396727,0.0034759976,4992,0,-0.07712582,0.23847356,-10.233322,4992,0
23267428,-0.040162377,0.0036091693,-0.0004458367,4991,0,-0.7933419,-0.46169436,-9.76047,4991,0
23272421,-0.080932476,0.033812013,0.006519565,4993,0,0.2257059,-0.24846432,-10.272835,4993,0
23277413,-0.08401716,0.029439565,0.012788982,4992,0,-0.27991575,0.2824165,-9.703847,4992,0
23282405,-0.053174373,0.030064829,0.009287691,4992,0,0.26410604,0.2589833,-10.637382,4992,0
23287395,-0.085672446,0.035442833,0.007785266,4990,0,-0.5017812,-0.72520477,-11.437311,4990,0
23292386,-0.13091919,0.046227887,0.008014248,4991,0,-0.21989104,-0.07118951,-10.886285,4991,0
23297378,-0.1186953,0.085683405,0.022214133,4992,0,-0.29227522,0.09476747,-11.032921,4992,0
23302370,-0.08233875,0.094692945,0.023306202,4992,0,0.18425909,0.17662176,-11.024747,4992,0
23307361,-0.09578528,0.08199322,0.021872627,4991,0,0.23610462,-0.41601154,-11.199673,4991,0
23312354,-0.15578249,0.07822514,0.022210639,4993,0,-0.3074534,0.1335128,-9.596504,4993,0
23317367,-0.12897086,0.056315113,0.022158433,5013,0,0.4721317,0.11367713,-9.910862,5013,0
23322337,-0.0864169,0.035413537,0.022725489,4970,0,-0.3126316,0.113494456,-9.634585,4970,0
23327329,-0.07177036,0.010364705,0.043345373,4992,0,0.81402415,0.34112784,-10.202869,4992,0
23332321,-0.1040177,-0.005118951,0.026978755,4992,0,0.18607138,-0.14081559,-9.662215,4992,0
23337312,-0.10119406,-0.0019731687,0.014755757,4991,0,-0.17785847,-0.15892234,-9.34299,4991,0
23342304,-0.079863146,-0.024356183,0.022156917,4992,0,-0.08984501,-0.30054325,-10.043147,4992,0
23347298,-0.06643942,-0.00033348743,0.032723393,4994,0,0.013455201,0.28543568,-10.248015,4994,0
23352288,-0.0673888,-0.013098492,0.03150514,4990,0,-0.18408309,0.64970535,-10.306572,4990,0
23357280,-0.06293964,-0.0050140787,0.020650264,4992,0,-0.42339295,-0.15413658,-10.627997,4992,0
23362271,-0.09103989,0.043737445,0.019473702,4991,0,0.13274622,-0.67606145,-10.654217,4991,0
23367263,-0.08325187,-0.012837385,0.021832742,4992,0,-0.039344806,0.53219616,-9.404003,4992,0
23372255,-0.049975153,-0.033882514,0.026135942,4992,0,-0.009244656,0.17810373,-11.124272,4992,0
23377247,-0.043637257,-0.025375016,0.029993001,4992,0,0.32716691,0.39575076,-10.3945675,4992,0
23382239,-0.08183918,-0.044671603,0.008562226,4992,0,-0.25526035,-0.9762633,-10.070541,4992,0
23387230,-0.09891831,-0.00041937883,0.02211626,4991,0,-0.20736977,-0.13692626,-11.633995,4991,0
23392222,-0.06520302,0.0036352784,0.023138043,4992,0,0.41960672,0.080085844,-10.645514,4992,0
23397213,-0.04895134,-0.018763406,0.030495202,4991,0,-0.70909405,-0.37755075,-10.546104,4991,0
23402206,-0.049638435,0.040486474,0.029903062,4993,0,-0.58059067,0.9556149,-10.714198,4993,0
23407197,-0.066316165,0.046838302,0.017214127,4991,0,0.82935995,-0.19929242,-10.253036,4991,0
23412192,-0.0630802,0.028952409,0.023433072,4995,0,-0.54200464,-0.110396005,-11.054321,4995,0
23417181,-0.08381155,0.043785345,0.024487821,4989,0,0.09742107,-0.5901491,-11.223925,4989,0
23422172,-0.0838084,0.06570857,0.037578214,4991,0,-0.08053402,-0.008663642,-10.840002,4991,0
23427164,-0.09046839,0.06365021,0.01569816,4992,0,-0.20210855,-0.78719807,-10.311595,4992,0
23432156,-0.10015672,0.07254871,0.019036561,4992,0,-0.29919025,0.3506073,-11.470041,4992,0
23437148,-0.12614259,0.10406263,0.019066976,4992,0,0.36984017,-0.005245141,-10.822139,4992,0
23442139,-0.13354187,0.06087525,0.025761139,4991,0,-0.26297432,-0.3583333,-9.908308,4991,0
23447131,-0.10339004,0.052963533,0.018854065,4992,0,-0.47024897,0.0987902,-10.831914,4992,0
23452123,-0.12303283,0.04074808,0.018217659,4992,0,0.2271278,0.05288461,-10.077499,4992,0
23457116,-0.14360379,0.02473314,0.019002235,4993,0,0.1118752,-0.034177586,-10.602837,4993,0
23462106,-0.114776015,-0.0106815845,0.010787038,4990,0,0.34561545,0.22897081,-10.40105,4990,0
23467100,-0.07118327,-0.089786075,0.014009402,4994,0,0.053508833,-0.09970326,-10.650314,4994,0
23472090,-0.096277505,-0.06802715,0.012395434,4990,0,0.2752368,0.34869385,-9.6828,4990,0
23477082,-0.11748419,-0.13589156,0.0054682493,4992,0,-0.015929729,0.2192183,-10.018258,4992,0
23482073,-0.10201124,-0.16787551,0.0069048475,4991,0,0.27265096,0.5242676,-11.524844,4991,0
23487073,-0.08670577,-0.2051918,0.005119423,5000,0,0.27998063,-0.861309,-10.331932,5000,0
23492057,-0.0895225,-0.268876,0.0100612035,4984,0,0.07197519,-1.1431015,-10.300104,4984,0
23497049,-0.094228685,-0.25199667,0.009620481,4992,0,-0.08180331,0.014331962,-11.179676,4992,0
23502098,-0.097385794,-0.24443659,-0.0014248529,5049,0,0.027606875,-0.061495412,-10.328799,5049,0
23507033,-0.08644655,-0.27677307,0.003989875,4935,0,0.22464798,0.088853054,-10.69991,4935,0
23512024,-0.09044775,-0.28493854,0.009005936,4991,0,-0.045264456,0.2637666,-10.679583,4991,0
23517016,-0.065760866,-0.28524262,0.0063608987,4992,0,0.18785483,0.4678199,-10.1970415,4992,0
23522008,-0.082306236,-0.25423837,-0.0076378714,4992,0,-0.29846448,-0.5149938,-10.600097,4992,0
23526999,-0.088576846,-0.24566258,-0.009907778,4991,0,-0.5824767,0.044593465,-10.125214,4991,0
23531991,-0.08197428,-0.2224853,-0.0043698624,4992,0,0.05737732,0.09957787,-10.929848,4992,0
23536983,-0.05181846,-0.22373103,-0.0028170014,4992,0,0.0040906966,-0.11198225,-10.303281,4992,0
23541975,-0.04355473,-0.20843995,-0.008849438,4992,0,-0.34571433,0.21164037,-10.730974,4992,0
23546966,-0.06613824,-0.17855844,-0.0032883715,4991,0,-0.0996989,0.13691317,-11.472195,4991,0
23551958,-0.06444467,-0.15210882,-0.005880931,4992,0,0.040507965,0.057162516,-10.839847,4992,0
23556950,-0.03213727,-0.1516833,-0.010895127,4992,0,-0.310571,-0.3812176,-11.001551,4992,0
23561941,-0.0149203325,-0.12875068,-0.0013405839,4991,0,-0.18905982,0.18392423,-10.815475,4991,0
23566933,-0.03539479,-0.080652215,0.00130804,4992,0,-0.24276407,0.11174587,-10.998014,4992,0
23571925,-0.04539197,-0.078251585,-0.014592871,4992,0,-0.16155416,-0.7456155,-10.853251,4992,0
23576918,-0.0030513245,-0.047370173,-0.0054737516,4993,0,-0.5657983,0.17176874,-10.8644705,4993,0
23581906,-0.00068863056,0.0010417063,0.00073728146,4988,0,0.019378291,-0.116633266,-10.447134,4988,0
23586900,-0.008609849,-0.039678335,0.0032822879,4994,0,0.31904572,-0.39947167,-9.906809,4994,0
23591904,0.025881995,-0.03232071,-0.0031448572,5004,0,-0.10721811,0.31469902,-10.961976,5004,0
23596887,0.062207036,-0.03393593,0.002169967,4983,0,0.52375424,-0.26023355,-10.088852,4983,0
23601897,0.055032443,-0.059879646,0.006338104,5010,0,0.50693613,-0.6405441,-9.937915,5010,0
23606868,0.062303092,-0.08499581,0.0022264458,4971,0,-0.1267603,0.14674868,-9.214426,4971,0
23611890,0.081227325,-0.12483165,0.009555696,5022,0,0.6772629,0.36427847,-10.035553,5022,0
23616851,0.10450318,-0.1614772,0.006333297,4961,0,0.27291963,-0.40137938,-10.023563,4961,0
23621902,0.10092941,-0.21360925,0.014128693,5051,0,0.13030595,0.0062155346,-8.968861,5051,0
23626834,0.09895981,-0.2277048,0.018230688,4932,0,-0.03526032,-0.070889756,-10.341273,4932,0
23631830,0.14961466,-0.23231976,0.018313121,4996,0,0.2627116,0.8862911,-9.785784,4996,0
23636818,0.12762898,-0.3101901,0.016164776,4988,0,0.08867564,-0.33475974,-9.6319275,4988,0
23641807,0.12323176,-0.3099398,0.021245249,4989,0,0.21898282,-0.35637474,-9.98726,4989,0
23646803,0.1390624,-0.33003208,0.025974633,4996,0,0.28818658,0.18014602,-9.590127,4996,0
23651795,0.16410398,-0.35323343,0.019841189,4992,0,0.062186595,-0.69290495,-9.899625,4992,0
23656833,0.16521274,-0.37420332,0.021090599,5038,0,-0.03609398,0.50635016,-11.201637,5038,0
23661777,0.14052124,-0.37966034,0.027641725,4944,0,0.154726,0.4425219,-10.333753,4944,0
23666769,0.14418629,-0.390791,0.021499604,4992,0,0.078331634,-0.78287,-10.389369,4992,0
23671761,0.16265997,-0.38909134,0.029708944,4992,0,-0.24876839,-0.682702,-10.04686,4992,0
23676753,0.16486888,-0.3541312,0.035308342,4992,0,0.1622587,0.18967952,-10.579568,4992,0
23681744,0.1580047,-0.3902453,0.03364738,4991,0,-0.023628006,0.6860306,-9.8976345,4991,0
23686735,0.14322127,-0.3947969,0.03461966,4991,0,-0.3041747,-0.5773352,-10.239559,4991,0
23691728,0.14327656,-0.32910573,0.03675462,4993,0,-0.1545289,-0.8173443,-9.034771,4993,0
23696719,0.14378683,-0.33488667,0.036353584,4991,0,0.042337403,0.048739836,-9.36494,4991,0
23701711,0.14044362,-0.35475495,0.039934482,4992,0,-0.3285592,0.21129143,-10.05975,4992,0
23706703,0.13705853,-0.32987887,0.036992576,4992,0,0.057757523,-0.029681815,-10.15025,4992,0
23711695,0.12992048,-0.3314448,0.035155956,4992,0,-0.100275345,-0.6387557,-9.341065,4992,0
23716686,0.109227434,-0.31011894,0.04078765,4991,0,-0.5628084,-0.050228115,-10.38284,4991,0
23721679,0.09379354,-0.26491272,0.046248004,4993,0,-0.19136181,0.6853833,-11.231338,4993,0
23726669,0.10263862,-0.26465765,0.045931034,4990,0,-0.14375977,0.7530939,-10.204465,4990,0
23731662,0.0812705,-0.22418483,0.0489184,4993,0,-0.6695088,-0.37626457,-10.462979,4993,0
23736662,0.06575372,-0.1719602,0.053585287,5000,0,-0.39455438,-0.5669651,-9.909103,5000,0
23741651,0.06383774,-0.11536211,0.05800014,4989,0,-0.26940647,-0.3213026,-9.993801,4989,0
23746636,0.07157131,-0.07624484,0.05195077,4985,0,-0.36780402,0.11056538,-10.273078,4985,0
23751632,0.037745424,-0.06673061,0.04906638,4996,0,-0.14218605,-0.9664706,-10.135419,4996,0
23756620,0.012427,0.005539043,0.06533705,4988,0,-0.23580329,-0.24549422,-9.966588,4988,0
23761612,0.02876106,0.034811787,0.060378157,4992,0,-0.21088307,0.38965142,-10.820975,4992,0
23766603,0.030750336,0.0475267,0.06587406,4991,0,-0.14911303,0.57803106,-10.647495,4991,0
23771596,-0.00051199103,0.08898393,0.06783275,4993,0,-0.2851425,0.09854135,-10.551077,4993,0
23776588,0.004975692,0.109603465,0.07005802,4992,0,-0.18412903,0.17914082,-9.690373,4992,0
23781580,0.014566473,0.14737172,0.071847364,4992,0,-0.39248067,-0.6348117,-9.438575,4992,0
23786572,0.030980958,0.1921775,0.07506428,4992,0,-0.19761002,0.041857615,-9.968361,4992,0
23791563,-0.0011067442,0.17091179,0.07450323,4991,0,-0.08022408,0.32610852,-10.026411,4991,0
23796554,-0.050347354,0.197119,0.067885675,4991,0,0.0075221043,-1.3472655,-9.816734,4991,0
23801546,-0.0203629,0.24354745,0.0746993,4992,0,-0.12119165,-0.13264129,-10.255806,4992,0
23806537,-0.029720688,0.26987407,0.081474654,4991,0,-0.27455717,0.4472634,-11.032886,4991,0
23811555,-0.06454562,0.28096884,0.07162786,5018,0,-0.08344678,-0.41115028,-11.217083,5018,0
23816521,-0.07042807,0.31032842,0.072383106,4966,0,0.028946511,0.122129574,-10.523678,4966,0
23821513,-0.06885741,0.33211112,0.0687548,4992,0,-0.28748438,0.16380149,-10.121763,4992,0
23826505,-0.073338635,0.34191164,0.069160715,4992,0,0.04842451,0.12647472,-10.029684,4992,0
23831500,-0.10100795,0.33612683,0.06968301,4995,0,-0.16957115,-0.876233,-10.009206,4995,0
23836490,-0.116369866,0.32480896,0.061740972,4990,0,0.334561,-1.1267184,-9.685918,4990,0
23841480,-0.09415669,0.32151312,0.060592733,4990,0,-0.0068186023,-0.1437777,-9.398709,4990,0
23846471,-0.10103608,0.31296903,0.06595356,4991,0,-0.08920507,0.1825849,-9.832382,4991,0
23851464,-0.08289054,0.30523556,0.06283998,4993,0,-0.22161773,0.7531975,-10.610503,4993,0
23856455,-0.093926534,0.31894845,0.055283524,4991,0,-0.02542246,-0.34564847,-10.006342,4991,0
23861447,-0.115664534,0.32742295,0.05640793,4992,0,-0.16557772,-0.84542745,-9.54724,4992,0
23866445,-0.11674987,0.34075576,0.058523167,4998,0,-0.56092304,-0.5794844,-9.283047,4998,0
23871430,-0.08968168,0.35724038,0.061472055,4985,0,0.2013279,0.60932374,-10.047718,4985,0
23876426,-0.08352219,0.33777976,0.05907581,4996,0,0.010223308,0.20641285,-9.783751,4996,0
23881414,-0.09008486,0.29808837,0.054616302,4988,0,-0.14580795,-0.33768523,-10.136115,4988,0
23886410,-0.08618602,0.31611502,0.057615653,4996,0,0.22509867,-0.0766428,-10.430322,4996,0
23891397,-0.06909622,0.3067329,0.05829013,4987,0,0.23414052,-0.2623568,-9.297924,4987,0
23896389,-0.046593823,0.24917786,0.052906886,4992,0,0.11621431,0.28690496,-9.869909,4992,0
23901381,-0.052861795,0.250098,0.052461542,4992,0,-0.0005005784,-0.44696128,-10.3085785,4992,0
23906372,-0.051507033,0.22580412,0.05688919,4991,0,0.31287417,-0.20184898,-9.13858,4991,0
23911365,-0.027519211,0.18462811,0.048131466,4993,0,-0.13542435,-0.21486032,-9.936219,4993,0
23916356,-0.007943878,0.17156115,0.053954735,4991,0,0.12043805,0.25190514,-9.455311,4991,0
23921349,0.0007711373,0.121445596,0.05713878,4993,0,0.18732922,0.49996653,-9.756988,4993,0
23926340,-0.0014203407,0.10496214,0.05138834,4991,0,-0.12940839,-0.08108731,-9.295495,4991,0
23931332,0.0063207485,0.13268612,0.049318783,4992,0,-0.07754103,-0.6496123,-9.319787,4992,0
23936323,0.024153551,0.1190423,0.056452032,4991,0,0.10165886,-0.18627697,-9.216205,4991,0
23941315,0.030765463,0.109748855,0.05616419,4992,0,-0.015801098,0.025015665,-9.134122,4992,0
23946307,0.046123173,0.12552121,0.054662608,4992,0,-0.31090984,0.2996171,-9.90282,4992,0
23951298,0.052249648,0.14053136,0.051044714,4991,0,-0.018341107,-0.10134738,-9.494406,4991,0
23956291,0.050911244,0.14771707,0.050076313,4993,0,-0.047010753,-0.32526913,-9.820168,4993,0
23961282,0.059819918,0.15144809,0.049569532,4991,0,0.057408903,-0.03968457,-10.203045,4991,0
23966284,0.07233099,0.14608598,0.043602604,5002,0,0.026336648,-0.017241612,-9.971978,5002,0
23971266,0.07505672,0.1744273,0.043039367,4982,0,-0.115455255,-0.40734,-9.926006,4982,0
23976258,0.06767339,0.18021813,0.042509507,4992,0,-0.09521521,-0.43261427,-10.639237,4992,0
23981303,0.0716253,0.21603979,0.042485982,5045,0,-0.19276777,0.050274763,-10.475026,5045,0
23986241,0.08467519,0.19489962,0.037338484,4938,0,-0.05423832,0.07628682,-9.925087,4938,0
23991233,0.0893855,0.20009823,0.043820173,4992,0,-0.2973694,0.15624997,-10.003079,4992,0
23996224,0.07769533,0.22933723,0.040490907,4991,0,-0.13857883,-0.3545862,-9.428293,4991,0
24001216,0.07559271,0.20416738,0.038414165,4992,0,-0.08372063,-0.33304372,-9.166373,4992,0
24006208,0.086589985,0.20317973,0.035916384,4992,0,-0.060361624,0.25331548,-9.446793,4992,0
24011200,0.079139106,0.22449395,0.040031772,4992,0,-0.24587758,-0.08646217,-9.348038,4992,0
24016194,0.063645445,0.26134,0.036277533,4994,0,-0.096873395,-0.8310536,-9.234758,4994,0
24021183,0.082025334,0.249297,0.031491786,4989,0,0.04262353,-0.036807645,-9.594579,4989,0
24026175,0.065943,0.23744643,0.027162487,4992,0,-0.032863557,-0.20796268,-10.027052,4992,0
24031167,0.06405446,0.25447837,0.033339724,4992,0,0.06395799,-0.10032916,-9.693637,4992,0
24036159,0.06286726,0.22934243,0.0308246,4992,0,0.04720547,-0.038469974,-9.928796,4992,0
24041150,0.062233537,0.2335951,0.02452396,4991,0,-0.022251336,-0.38279557,-10.067354,4991,0
24046142,0.05722546,0.22765847,0.02797454,4992,0,0.17821902,0.19229072,-9.516735,4992,0
24051134,0.03826423,0.18180591,0.026090946,4992,0,-0.015414048,-0.23267302,-9.051452,4992,0
24056126,0.05351089,0.1873569,0.027156696,4992,0,-0.17393641,-0.07665348,-8.746964,4992,0
24061118,0.061318733,0.15865034,0.032185044,4992,0,0.16374804,0.24336651,-8.977279,4992,0
24066109,0.04659964,0.13777146,0.025043366,4991,0,0.0067391787,-0.20935988,-8.513377,4991,0
24071101,0.021690035,0.10728082,0.019146644,4992,0,-0.027339486,-0.40234464,-9.183526,4992,0
24076092,0.020341331,0.092861034,0.0217578,4991,0,0.18515763,-0.008301209,-8.92553,4991,0
24081085,0.018903214,0.075493224,0.021491393,4993,0,0.46140534,-0.6107096,-9.159593,4993,0
24086076,0.01566053,0.040696517,0.021766338,4991,0,0.21446209,-0.19637728,-8.719631,4991,0
24091068,-0.0023097212,0.022084836,0.019264929,4992,0,0.15337387,-0.3884092,-9.3161335,4992,0
24096060,-0.009087416,0.0029139135,0.017395087,4992,0,0.1459025,-0.011268635,-8.581203,4992,0
24101052,-0.0039369403,-0.021123046,0.02325125,4992,0,-0.22666734,0.08978474,-9.021764,4992,0
24106049,-0.0057138395,-0.026084345,0.021686176,4997,0,0.020336179,-0.314149,-9.42567,4997,0
24111035,-0.0004854019,-0.042830873,0.021872316,4986,0,-0.19009036,0.112393856,-8.992533,4986,0
24116027,-0.019773057,-0.06685189,0.013042889,4992,0,-0.066393405,-0.25852945,-9.014558,4992,0
24121059,-0.023496319,-0.076996244,0.0115494495,5032,0,0.054388043,-0.2672982,-8.931078,5032,0
24126010,-0.008671631,-0.078588046,0.018606756,4951,0,-0.13130085,0.14128901,-8.768021,4951,0
24131002,-0.0051185633,-0.09954226,0.023202905,4992,0,0.05523553,-0.15541326,-8.830681,4992,0
24135994,-0.007226552,-0.11272802,0.0169415,4992,0,-0.28658038,0.03037662,-8.240437,4992,0
24140986,-0.020470649,-0.097008586,0.010025467,4992,0,-0.061953053,-0.11279609,-8.361224,4992,0
24145977,-0.030290572,-0.11667319,0.013594667,4991,0,-0.10297682,-0.013810104,-9.04974,4991,0
24150969,-0.019773021,-0.10512428,0.013112375,4992,0,-0.028030364,-0.061771452,-9.034329,4992,0
24155964,-0.006172119,-0.10982576,0.0127979135,4995,0,-0.082602024,-0.20743632,-9.438915,4995,0
24160952,-0.025462117,-0.090885326,0.005370001,4988,0,-0.03850129,-0.27146336,-9.439448,4988,0
24165961,-0.027882248,-0.069936745,0.0021666926,5009,0,-0.00806538,-0.05983779,-8.88452,5009,0
24170936,-0.02327538,-0.08581753,-0.001393005,4975,0,0.101003975,-0.062845126,-9.226913,4975,0
24175957,-0.006906222,-0.053802487,0.0042728973,5021,0,-0.12838803,-0.42925096,-9.064261,5021,0
24180919,-0.0048146383,-0.054416914,0.0035843104,4962,0,-0.2707735,0.059857514,-8.909994,4962,0
24185952,-0.0072088623,-0.020990547,-0.0013321555,5033,0,-0.045762245,-0.03999781,-9.383212,5033,0
24190903,-0.008977308,-0.0315837,-0.0061042695,4951,0,-0.22915603,-0.11277042,-9.392976,4951,0
24195951,-0.0052676685,0.0033905287,-0.0036056798,5048,0,-0.030062368,0.02362697,-9.338172,5048,0
24200891,0.010850386,-0.011639887,-0.0023845793,4940,0,-0.09773148,-0.17591755,-9.184781,4940,0
24205882,0.013660272,0.002424506,-0.00243551,4991,0,-0.08409997,-0.14164613,-8.886363,4991,0
24210870,0.00021929198,-0.0003069275,-0.013306107,4988,0,0.026991883,-0.37725803,-8.809948,4988,0
24215862,0.0013385828,-0.0017899014,-0.0096577415,4992,0,-0.059415948,0.031030586,-8.333902,4992,0
24220853,0.010279877,-0.031460483,-0.0047558816,4991,0,-0.0428515,0.22204608,-8.720125,4991,0
24225845,0.014775931,-0.0146324085,-0.011362893,4992,0,-0.21165696,-0.40574956,-8.709807,4992,0
24245814,-0.0026209264,-0.06357694,-0.017729701,4994,0,0.22798337,-0.015762392,-9.03258,4994,0
24250804,-0.010032014,-0.07686797,-0.022813004,4990,0,0.19855037,-0.31040943,-8.855516,4990,0
24255796,-0.034491964,-0.09753236,-0.027318688,4992,0,0.18226695,-0.45079148,-9.289216,4992,0
24260788,-0.038178388,-0.071548335,-0.030646939,4992,0,0.035344653,-0.19060773,-8.897171,4992,0
24265779,-0.03298487,-0.1288368,-0.024554182,4991,0,0.11546019,-0.062649414,-8.950471,4991,0
24270772,-0.02355956,-0.105129145,-0.022517754,4993,0,-0.085096,-0.14651872,-9.80546,4993,0
24275763,-0.027385341,-0.117442794,-0.024501897,4991,0,0.12985682,0.14943449,-9.44501,4991,0
24280755,-0.037761528,-0.12123997,-0.030202646,4992,0,-0.07586645,-0.028182821,-9.399231,4992,0
24285746,-0.03645424,-0.13090003,-0.034822278,4991,0,-0.18885945,-0.10235311,-9.845447,4991,0
24290759,-0.02639622,-0.134568,-0.022129,5013,0,0.02757387,-0.22510114,-9.315635,5013,0
24295734,-0.013481744,-0.14324576,-0.030978274,4975,0,-0.12202539,-0.11925438,-9.373257,4975,0
24300722,-0.018307656,-0.1515017,-0.030709509,4988,0,-0.31040943,0.03141586,-9.196484,4988,0
24305715,-0.033758197,-0.15412466,-0.03240804,4993,0,0.033972275,-0.22416143,-9.150492,4993,0
24310706,-0.031427983,-0.1581162,-0.03417129,4991,0,-0.17836216,-0.5220749,-8.622212,4991,0
24315697,-0.012421577,-0.15619813,-0.031403746,4991,0,-0.13432446,0.117245205,-9.23439,4991,0
24320689,-0.008358503,-0.14122804,-0.032281775,4992,0,-0.1735488,-0.088522695,-9.462156,4992,0
24325681,-0.012416545,-0.14684883,-0.03804454,4992,0,-0.15118957,0.16872112,-8.8819275,4992,0
24330677,-0.019970318,-0.12899695,-0.04418497,4996,0,-0.31703183,-0.013062854,-9.343414,4996,0
24335664,-0.013462179,-0.0987145,-0.042412546,4987,0,-0.25151157,-0.3065415,-9.390249,4987,0
24340656,-0.011115912,-0.09146472,-0.045716997,4992,0,0.19764866,-0.76568145,-8.992689,4992,0
24345653,-0.0066495608,-0.095284134,-0.049345892,4997,0,-0.37394732,-0.17797104,-9.310272,4997,0
24350655,-0.005653359,-0.050541077,-0.050894126,5002,0,-0.06764246,0.28626812,-9.592636,5002,0
24355631,-0.020595137,-0.05666587,-0.056109525,4976,0,0.10256258,-0.19917756,-9.38368,4976,0
24360652,-0.013429586,-0.050424464,-0.055939555,5021,0,-0.071768574,-0.32336396,-9.917337,5021,0
24365615,-0.010596111,-0.048619516,-0.055365704,4963,0,-0.15184404,-0.12064209,-9.414144,4963,0
24370637,-0.012123319,-0.027329085,-0.059562404,5022,0,-0.044129644,-0.13571642,-9.751305,5022,0
24375598,-0.019649195,-0.017517874,-0.06426013,4961,0,-0.1306785,-0.20409065,-9.488489,4961,0
24380637,-0.012298787,-0.026326953,-0.061728813,5039,0,-0.14492093,0.09353015,-9.574851,5039,0
24385585,-0.017027123,-0.009172686,-0.06185591,4948,0,-0.00059897936,-0.38062578,-9.49088,4948,0
24390577,-0.0003563429,-0.017394383,-0.05926225,4992,0,-0.07168057,0.07594137,-9.285038,4992,0
24395566,-0.005700035,-0.015452622,-0.060801644,4989,0,-0.2847323,0.063505314,-9.609012,4989,0
24400559,-0.017535029,-0.031965617,-0.07002573,4993,0,-0.1454351,-0.19575466,-9.337926,4993,0
24405549,-0.023139954,-0.03555821,-0.06386812,4990,0,-0.11130294,0.044266053,-9.507052,4990,0
24410540,-0.009664062,-0.04778692,-0.06778301,4991,0,-0.29806423,0.078892514,-9.665064,4991,0
24415533,-0.007714627,-0.04315014,-0.065963745,4993,0,-0.0651046,0.19219421,-9.87211,4993,0
24420527,-0.03086597,-0.04599194,-0.0716558,4994,0,-0.06398729,-0.19738016,-9.327315,4994,0
24425516,-0.052048363,-0.07431944,-0.07825241,4989,0,-0.15690808,-0.6371374,-9.404004,4989,0
24430508,-0.03745542,-0.07739133,-0.071409196,4992,0,0.08579133,-0.17188007,-9.16028,4992,0
24435500,-0.031306636,-0.09430533,-0.07184683,4992,0,0.065611504,-0.26668146,-9.245083,4992,0
24440491,-0.042114448,-0.12539086,-0.074966535,4991,0,-0.009913551,-0.06348587,-9.065702,4991,0
24445491,-0.06642108,-0.12908031,-0.07782688,5000,0,0.087816454,-0.53641725,-9.760882,5000,0
24450474,-0.053833008,-0.118568085,-0.07609715,4983,0,0.121900395,-0.18211077,-9.62679,4983,0
24455466,-0.04196898,-0.11955352,-0.07699694,4992,0,-0.12114863,-0.04151788,-9.677648,4992,0
24460519,-0.053603232,-0.11230109,-0.08011929,5053,0,0.078024514,-0.011182706,-10.027476,5053,0
24465450,-0.062165674,-0.093188465,-0.07753868,4931,0,-0.054740272,0.014793726,-10.246598,4931,0
24470442,-0.061688133,-0.06189401,-0.08306509,4992,0,-0.113895394,-0.39374298,-10.112877,4992,0
24475433,-0.039117847,-0.051454823,-0.079830304,4991,0,-0.32988176,0.102429405,-10.853419,4991,0
24480424,-0.039056506,-0.0074753114,-0.07754223,4991,0,-0.048849754,-0.061628632,-10.85014,4991,0
24485422,-0.04144453,0.008443836,-0.081640966,4998,0,-0.30261576,-0.2620712,-10.538156,4998,0
24490416,-0.021833796,0.036870368,-0.081707634,4994,0,-0.42088312,0.4870113,-11.027255,4994,0
24495401,-0.01214323,0.06598791,-0.07987681,4985,0,-0.29921794,0.006292365,-11.271439,4985,0
24500392,0.0007637096,0.08255786,-0.0764464,4991,0,-0.18230419,-0.21502104,-10.831505,4991,0
24505384,0.013173707,0.115010105,-0.07690703,4992,0,-0.40791598,0.46806604,-10.704165,4992,0
24510375,0.013384896,0.13468197,-0.080799565,4991,0,-0.49085253,-0.054445945,-10.585457,4991,0
24515367,0.020815808,0.16131246,-0.07685364,4992,0,-0.09690157,-0.4549548,-10.587151,4992,0
24520359,0.021475755,0.17018066,-0.07585925,4992,0,-0.16728687,-0.2877681,-9.867427,4992,0
24525351,0.024548171,0.17112593,-0.07894105,4992,0,-0.08520895,-0.376415,-10.066043,4992,0
24530344,0.0397371,0.19126295,-0.079119034,4993,0,-0.043648444,0.17960095,-10.006937,4993,0
24535335,0.031678922,0.19052038,-0.082389966,4991,0,0.040341504,-0.109605424,-9.802289,4991,0
24540326,0.026149314,0.17480831,-0.08686671,4991,0,0.0029963623,-0.29890668,-10.309597,4991,0
24545318,0.030701013,0.1848836,-0.08407553,4992,0,0.14558266,-0.22294077,-10.245289,4992,0
24550312,0.037827805,0.18221766,-0.08047454,4994,0,0.05835528,-0.11986452,-10.23689,4994,0
24555301,0.039098043,0.15759154,-0.086978175,4989,0,0.22537962,-0.23906955,-10.196638,4989,0
24560293,0.03535264,0.15165119,-0.087507665,4992,0,0.30838546,-0.03486587,-10.809077,4992,0
24565285,0.03820549,0.12964758,-0.0834606,4992,0,0.13657334,0.063157775,-10.473332,4992,0
24570279,0.048793208,0.10376244,-0.08677107,4994,0,0.093183786,0.035166092,-11.095946,4994,0
24575269,0.061664402,0.10328584,-0.08129539,4990,0,-0.03114396,0.3976165,-11.399703,4990,0
24580269,0.05493983,0.08666885,-0.083481506,5000,0,0.3264408,0.15673713,-10.901608,5000,0
24585252,0.044684675,0.064845584,-0.08478009,4983,0,-0.2526532,0.08275624,-10.661911,4983,0
24590244,0.048765935,0.045208782,-0.08516584,4992,0,-0.09745168,-0.081516445,-10.689316,4992,0
24595241,0.05937423,0.030234594,-0.07913526,4997,0,0.065358564,0.01294552,-10.264716,4997,0
24600228,0.054155145,0.0019103173,-0.08064391,4987,0,0.031173889,-0.14467281,-10.246011,4987,0
24605219,0.041850783,-0.031354778,-0.0847698,4991,0,0.099722765,-0.28288615,-10.398761,4991,0
24610211,0.04205119,-0.03759029,-0.07925665,4992,0,-0.024667528,0.16225688,-10.578963,4992,0
24615238,0.04198907,-0.054379355,-0.078014374,5027,0,0.18868984,-0.13816741,-10.252155,5027,0
24620198,0.033552602,-0.07287228,-0.07872305,4960,0,-0.054352634,-0.56525755,-10.84597,4960,0
24625186,0.026740432,-0.06623915,-0.078771405,4988,0,0.0066422615,-0.13965774,-11.080714,4988,0
24630178,0.019793976,-0.074701495,-0.077143125,4992,0,0.11190439,0.008193744,-10.860621,4992,0
24635170,0.01869539,-0.06932917,-0.07512776,4992,0,-0.2729709,-0.042341094,-11.314303,4992,0
24640162,0.028206406,-0.050058752,-0.07274825,4992,0,-0.23421982,0.26307422,-11.297819,4992,0
24645153,0.020602632,-0.04509344,-0.068708815,4991,0,-0.13450834,-0.34038916,-11.022258,4991,0
24650145,0.0045269965,-0.0414517,-0.07384037,4992,0,-0.21430409,-0.40807715,-10.907822,4992,0
24655137,0.0029912363,-0.024098765,-0.07094792,4992,0,-0.24229501,-0.27227852,-10.735467,4992,0
24660129,-0.003100573,-0.0077065304,-0.06673359,4992,0,-0.17816173,-0.41909823,-10.782987,4992,0
24665121,0.0010356837,-0.00649107,-0.064864874,4992,0,-0.083172694,0.22796552,-10.858583,4992,0
24670113,-0.011635964,-0.013796699,-0.06649682,4992,0,-0.08633923,-0.06545702,-10.993489,4992,0
24675104,-0.020281883,0.010390916,-0.06521096,4991,0,-0.071491815,-0.16899991,-11.171448,4991,0
24680095,-0.02839991,0.014669637,-0.06986379,4991,0,0.027265547,-0.19205637,-10.746972,4991,0
24685088,-0.023340255,0.021635754,-0.06092537,4993,0,-0.15859823,-0.1548573,-11.170792,4993,0
24690080,-0.030478314,0.032855503,-0.067063764,4992,0,-0.02920906,-0.15353368,-11.001952,4992,0
24695071,-0.039322123,0.023504399,-0.06643395,4991,0,-0.09337416,-0.41473567,-10.586012,4991,0
24700062,-0.03978637,0.036432646,-0.06999761,4991,0,-0.10900042,-0.23157631,-10.83219,4991,0
24705054,-0.042496905,0.02991069,-0.06592067,4992,0,-0.08941456,0.022357827,-10.769252,4992,0
24710047,-0.044808593,0.025254171,-0.06864101,4993,0,-0.24414252,-0.100286126,-10.783753,4993,0
24715039,-0.042442687,0.017770039,-0.0683792,4992,0,-0.35065743,-0.26109573,-11.199024,4992,0
24720030,-0.038661357,0.035660144,-0.068276525,4991,0,-0.028079124,0.25599724,-10.98238,4991,0
24725021,-0.031195216,0.01586987,-0.07129135,4991,0,-0.13364372,0.8169181,-11.209602,4991,0
24730013,-0.029582823,0.0071166926,-0.06555998,4992,0,-0.058619183,0.077751994,-11.299569,4992,0
24735005,-0.038486257,0.009474267,-0.06790346,4992,0,0.07899474,-0.6663574,-10.808367,4992,0
24739996,-0.024454817,-0.018090146,-0.068213634,4991,0,0.23233236,-0.27604848,-10.220631,4991,0
24744989,-0.029588917,-0.018568346,-0.06957171,4993,0,-0.009607716,-0.10950573,-11.020781,4993,0
24749981,-0.029301561,-0.03188936,-0.06978112,4992,0,0.3012738,0.123702615,-10.756248,4992,0
24754972,-0.031063125,-0.049713105,-0.07343253,4991,0,0.13670076,-0.3718025,-10.527446,4991,0
24759965,-0.032944694,-0.057997394,-0.07037441,4993,0,0.041237887,-0.33857495,-10.979896,4993,0
24764956,-0.039947104,-0.06173587,-0.07627468,4991,0,0.17867349,-0.33122504,-10.831324,4991,0
24769972,-0.03324337,-0.067930855,-0.07173811,5016,0,0.026643371,0.5632055,-11.29253,5016,0
24774939,-0.04623922,-0.068195,-0.07444298,4967,0,-0.17049421,-0.116635494,-11.371433,4967,0
24779932,-0.03454874,-0.07532277,-0.0731058,4993,0,-0.26599208,-0.10350757,-11.200287,4993,0
24784923,-0.03298101,-0.06573109,-0.07568772,4991,0,-0.052043103,-0.48879397,-11.090595,4991,0
24789915,-0.015396118,-0.061087515,-0.07222394,4992,0,-0.111228265,0.5727122,-11.091559,4992,0
24794906,-0.020743739,-0.07308792,-0.078442276,4991,0,-0.26337314,-0.0066170893,-11.010503,4991,0
24799898,-0.030594343,-0.05619215,-0.07673183,4992,0,-0.07583261,-0.67612696,-10.824956,4992,0
24804890,-0.014246472,-0.06092169,-0.07005455,4992,0,0.037808094,-0.120824,-10.560406,4992,0
24809882,-0.018205758,-0.05677836,-0.081195794,4992,0,-0.06913717,-0.578432,-10.810343,4992,0
24814874,-0.032959145,-0.05712265,-0.07870567,4992,0,0.03648658,-0.5944988,-10.902326,4992,0
24819865,-0.042176194,-0.05253354,-0.07363796,4991,0,0.14156848,-0.41690323,-11.099668,4991,0
24824857,-0.02336183,-0.040717814,-0.07728722,4992,0,-0.25519595,0.3390288,-11.829029,4992,0
24829848,-0.025503077,-0.040708046,-0.0745834,4991,0,-0.0075259544,0.14939158,-11.706973,4991,0
24834841,-0.03183015,-0.038161572,-0.07044693,4993,0,-0.23190823,0.3674358,-11.747012,4993,0
24839832,-0.025651718,-0.029791629,-0.075809345,4991,0,-0.15515299,0.72258574,-11.304246,4991,0
24844824,-0.024404665,-0.03563959,-0.079897806,4992,0,-0.41168222,-0.21813379,-11.235724,4992,0
24849816,-0.019970402,-0.03217696,-0.06941465,4992,0,-0.10365834,-0.6089386,-10.568559,4992,0
24854808,-0.017696002,-0.02098365,-0.071800835,4992,0,0.007135465,-0.525949,-10.142203,4992,0
24859799,-0.006210488,-0.0067978986,-0.07952031,4991,0,-0.17041244,0.24294567,-10.613662,4991,0
24864796,-0.027643563,0.005791928,-0.07805544,4997,0,0.02605378,-0.36604953,-10.583518,4997,0
24869783,-0.030226521,0.020798119,-0.078378394,4987,0,-0.081674114,-0.28348047,-10.786035,4987,0
24874776,-0.027525628,0.030766066,-0.07893462,4993,0,-0.07896678,0.15704969,-11.298394,4993,0
24879766,-0.03523233,0.03355686,-0.0759965,4990,0,0.12797895,-0.20265427,-11.333019,4990,0
24884758,-0.04508104,0.03536835,-0.076435074,4992,0,-0.07064323,-0.27159464,-11.433892,4992,0
24889750,-0.03183855,0.04361324,-0.07439765,4992,0,-0.18167247,0.18150316,-11.802222,4992,0
24894755,-0.025955807,0.04436561,-0.07232164,5005,0,-0.1949187,0.29494303,-11.801281,5005,0
24899734,-0.028505495,0.044357464,-0.071783416,4979,0,-0.1750945,-0.21231613,-11.1302395,4979,0
24904723,-0.017739808,0.030010551,-0.06781508,4989,0,-0.018468529,-0.14174925,-10.839064,4989,0
24909719,-0.024585554,0.036087856,-0.07306863,4996,0,-0.11945977,-0.14624974,-10.919628,4996,0
24914715,-0.030736187,0.025243593,-0.0715173,4996,0,-0.009740974,-0.20840298,-10.541684,4996,0
24919700,-0.03413194,-0.001237948,-0.071364336,4985,0,-0.14272289,0.016043002,-10.750657,4985,0
24924765,-0.039870847,0.0120698195,-0.073255524,5065,0,0.03783891,-0.50269276,-10.760264,5065,0
24929684,-0.032831762,0.00044329255,-0.06328956,4919,0,0.10640361,-0.09203242,-10.552104,4919,0
24934705,-0.029970806,-0.0070566614,-0.06977325,5021,0,-0.09075303,0.3348974,-11.169312,5021,0
24939668,-0.025374519,-0.0047693984,-0.07159103,4963,0,-0.1707585,0.39025462,-11.362768,4963,0
24944706,-0.02673157,-0.011449851,-0.06483757,5038,0,0.024993172,0.059393913,-11.072467,5038,0
24949655,-0.022163803,-0.019233217,-0.06847507,4949,0,-0.059695337,-0.29733244,-10.976755,4949,0
24954700,-0.023406839,-0.01961533,-0.06800879,5045,0,-0.021572532,-0.123830006,-10.879391,5045,0
24959638,-0.006878665,-0.031319425,-0.06575852,4938,0,-0.0823747,0.20797054,-10.959332,4938,0
24964630,-0.01867459,-0.044655025,-0.06976425,4992,0,0.10130577,-0.43956393,-10.645966,4992,0
24969618,-0.016717125,-0.037648633,-0.06804583,4988,0,0.0072939666,-0.123248465,-10.544851,4988,0
24974610,-0.018743115,-0.050851848,-0.06445949,4992,0,-0.032026827,-0.13329339,-10.444696,4992,0
24979602,-0.01124826,-0.051222473,-0.06327073,4992,0,-0.047040626,-0.19748448,-11.123613,4992,0
24984594,-0.020830143,-0.053312317,-0.06520837,4992,0,0.060234107,-0.28795928,-10.415213,4992,0
24989586,-0.028186712,-0.065988734,-0.062382974,4992,0,-0.072378755,-0.1833722,-10.621734,4992,0
24994578,-0.015656725,-0.03871626,-0.057287708,4992,0,-0.017839309,0.1918979,-11.32307,4992,0
24999570,-0.0040359963,-0.050884653,-0.05439234,4992,0,-0.049064692,0.24408552,-10.707728,4992,0
25004560,-0.0011947996,-0.048226617,-0.053230837,4990,0,-0.3735703,0.06726379,-11.353825,4990,0
25009553,-0.009709083,-0.024591982,-0.05194424,4993,0,-0.16562743,-0.06726206,-11.046323,4993,0
25014544,-0.011293283,-0.03661651,-0.046414435,4991,0,-0.23454502,-0.094446495,-10.784357,4991,0
25019535,-0.0051983222,-0.015277564,-0.045244202,4991,0,-0.35404232,-0.007963264,-11.207137,4991,0
25024528,-0.0030327567,-0.007706905,-0.040289555,4993,0,-0.16313896,-0.19162443,-10.868759,4993,0
25029525,-0.011022227,-0.0036929774,-0.036529794,4997,0,-0.2933928,-0.061356146,-10.780165,4997,0
25034512,-0.011308334,0.004982725,-0.03619521,4987,0,-0.036057863,0.37842688,-10.404244,4987,0
25039503,-0.0032947075,0.008252499,-0.028943915,4991,0,-0.16840416,0.28990266,-10.666751,4991,0
25044495,-0.014810375,0.019517059,-0.022024907,4992,0,0.0039678235,-0.29828218,-10.292815,4992,0
25049486,-0.016887521,0.014337847,-0.022192363,4991,0,-0.10439103,-0.29492798,-10.267793,4991,0
25054478,-0.0065169297,0.04057401,-0.01639434,4992,0,-0.16728306,-0.0064219516,-10.473283,4992,0
25059470,-0.0042443043,0.04729773,-0.015276333,4992,0,-0.09104883,0.06374346,-10.061024,4992,0
25064462,-0.007644684,0.036714528,-0.0084829405,4992,0,-0.13752995,-0.0645469,-10.306241,4992,0
25069453,-0.005029203,0.03777758,-0.0054300185,4991,0,0.0014016662,-0.047971938,-10.386816,4991,0
25074445,-0.011993701,0.039905317,-0.0021169698,4992,0,-0.05965497,-0.28172457,-9.973314,4992,0
25079437,-0.019122237,0.039927095,0.0007215531,4992,0,-0.094989575,-0.23288067,-9.929579,4992,0
25084429,-0.016614811,0.041497514,0.007026225,4992,0,-0.15799004,0.0131578855,-10.213689,4992,0
25089421,-0.013414153,0.040066686,0.011961737,4992,0,-0.1817391,0.10545844,-10.381568,4992,0
25094455,-0.00511617,0.026666686,0.014952272,5034,0,-0.14596674,-0.06829197,-10.202516,5034,0
25099405,-0.00013382974,0.021313658,0.021229688,4950,0,-0.23450138,0.10387439,-10.60821,4950,0
25104396,-0.008455373,0.020519674,0.023538206,4991,0,0.03141003,-0.29195023,-10.827372,4991,0
25109393,-0.010322193,0.0073656156,0.024740918,4997,0,-0.0063427305,0.097182326,-10.638167,4997,0
25114379,-0.007798797,-0.006766688,0.025620759,4986,0,0.32267785,-0.22945829,-10.581006,4986,0
25119371,0.0013495886,-0.019165266,0.03046747,4992,0,0.21119073,0.08344117,-10.746117,4992,0
25124363,-0.004040064,-0.03716898,0.032533128,4992,0,0.21035719,0.07030234,-10.31082,4992,0
25129355,0.009403069,-0.037648678,0.035648357,4992,0,-0.22005942,-0.0818443,-9.976715,4992,0
25134346,0.018833248,-0.036856595,0.038319655,4991,0,-0.19325785,0.17986947,-9.768489,4991,0
25139338,0.024891732,-0.060453102,0.041404612,4992,0,-0.21055415,0.24490754,-9.767971,4992,0
25144330,0.011313346,-0.05757528,0.040592887,4992,0,-0.17637081,-0.3500123,-9.550557,4992,0
25149322,-0.00200806,-0.06868877,0.042367406,4992,0,-0.06894775,-0.58137137,-9.678297,4992,0
25154315,0.014930166,-0.07084359,0.047926866,4993,0,0.06639122,0.117391005,-10.118384,4993,0
25159309,0.007485043,-0.07906978,0.051948614,4994,0,-0.10818942,0.02510567,-10.81953,4994,0
25164297,0.018382156,-0.084997,0.05397955,4988,0,0.104723915,-0.17866024,-10.731586,4988,0
25169288,0.0034764071,-0.077049986,0.061580803,4991,0,0.22759143,-0.15917127,-10.669485,4991,0
25174282,0.0063542947,-0.09177767,0.06383466,4994,0,-0.089598924,-0.43734884,-9.9043455,4994,0
25179272,-0.0034783068,-0.093645416,0.06757669,4990,0,-0.12692533,0.1921235,-9.539339,4990,0
25184265,0.00029583817,-0.08831649,0.07456785,4993,0,-0.50240725,0.45533705,-9.412809,4993,0
25189262,0.011485374,-0.08165726,0.076274015,4997,0,-0.36652884,-0.055006903,-9.460068,4997,0
25194248,0.014869312,-0.08354504,0.08113193,4986,0,-0.3086783,0.21231611,-10.341597,4986,0
25199239,-0.00043266127,-0.06496923,0.079521075,4991,0,0.2597025,-0.06394434,-10.45078,4991,0
25204238,0.005552938,-0.06590395,0.078514904,4999,0,0.38949713,-0.32249293,-10.580584,4999,0
25209223,0.0055065583,-0.060769632,0.084912434,4985,0,0.38522118,-0.34798938,-10.0812,4985,0
25214215,0.0038481574,-0.052708983,0.09060053,4992,0,-0.19135042,-0.21978672,-9.712404,4992,0
25219208,0.0038984802,-0.05089417,0.08960779,4993,0,-0.3071101,0.1503426,-9.443391,4993,0
25224198,0.00781108,-0.046513073,0.093736075,4990,0,-0.9759881,-0.091881916,-9.398567,4990,0
25249171,-0.004352857,-0.033816822,0.10736731,5006,0,-0.17147028,-0.006398341,-9.61733,5006,0
25254149,0.021586148,-0.026759654,0.11801239,4978,0,-0.4523065,0.5115295,-9.610489,4978,0
25259140,0.026859466,-0.01923737,0.116341814,4991,0,-0.59600353,0.25658515,-9.462392,4991,0
25264133,0.009629537,-0.019947289,0.1178737,4993,0,-0.34313685,-0.5139362,-9.774554,4993,0
25269124,-0.0037257895,-0.013448305,0.12028397,4991,0,0.16478883,-0.3984764,-10.24204,4991,0
25274117,-0.011394179,-0.0011942264,0.12015275,4993,0,0.51766807,-0.43766803,-10.56945,4993,0
25279108,0.0030783934,-0.01621946,0.1270683,4991,0,0.30008477,0.049515128,-10.621222,4991,0
25284099,0.003708253,-0.008376761,0.13093667,4991,0,-0.22197568,-0.13184191,-9.881902,4991,0
25289091,0.015817482,-0.008780761,0.13772538,4992,0,-0.61136675,0.26907763,-9.561164,4992,0
25294083,0.016061986,-0.0008602337,0.14065857,4992,0,-0.68234986,0.18017091,-9.434192,4992,0
25299075,0.0033358203,-0.0062634544,0.14263359,4992,0,-0.4082126,0.17155948,-9.927941,4992,0
25304066,-0.007712202,-0.0017942064,0.14578778,4991,0,0.21703313,-0.18171604,-10.295468,4991,0
25309058,-0.010914932,-0.0036669015,0.14663063,4992,0,0.5818338,-0.33169582,-10.562869,4992,0
25314050,-0.0026893453,-0.0074909693,0.15278356,4992,0,0.27622885,0.29595014,-10.3897,4992,0
25319042,-0.0018842702,-0.0015304744,0.15498814,4992,0,-0.2343995,0.018810637,-9.724489,4992,0
25324033,0.0075172926,-0.0056293933,0.16314416,4991,0,-0.6514411,0.27519786,-9.4157095,4991,0
25329025,0.0044687884,-3.3230604e-05,0.16196285,4992,0,-0.7194658,-0.22335091,-9.032885,4992,0
25334024,0.007832035,0.007935252,0.16807379,4999,0,-0.20501058,-0.07387455,-9.842054,4999,0
25339009,-0.00607819,-0.00012774712,0.16613598,4985,0,0.39923355,-0.2685797,-10.124066,4985,0
25344000,-0.007623462,0.0027866669,0.16756324,4991,0,0.6626507,-0.23093265,-10.263789,4991,0
25348992,-0.003285153,0.0029700836,0.17322475,4992,0,0.085211016,-0.0567295,-9.578587,4992,0
25353984,0.009881787,0.0030330329,0.18324149,4992,0,-0.250674,0.02419734,-8.912645,4992,0
25358978,0.012425513,0.0038087647,0.18324201,4994,0,-0.9850912,0.06163218,-8.424298,4994,0
25363968,0.006418669,0.008348206,0.1847537,4990,0,-0.47759187,0.045778174,-8.789737,4990,0
25368960,0.0053872564,0.006559168,0.18902108,4992,0,-0.07188913,-0.07946176,-9.656595,4992,0
25373951,0.0034550752,0.0128152445,0.18937455,4991,0,0.579739,-0.066056125,-10.066826,4991,0
25378943,-0.0059375456,0.018585702,0.1896673,4992,0,0.5148793,-0.06379478,-9.542443,4992,0
25383935,-0.009156901,0.011018303,0.19523416,4992,0,-0.22665298,-0.13997263,-8.882579,4992,0
25388926,-0.006381841,0.011110247,0.20150338,4991,0,-0.9080708,0.32749718,-8.27715,4991,0
25393919,-0.0018640266,0.022967001,0.20175174,4993,0,-0.82179993,0.15793061,-8.887121,4993,0
25398910,0.0014159564,0.035679888,0.20469254,4991,0,-0.34300384,0.15595424,-10.055011,4991,0
25403906,-0.0071780533,0.029881155,0.20349969,4996,0,0.5234401,-0.40159613,-10.592009,4996,0
25408895,-0.0020156056,0.03162256,0.20316266,4989,0,0.48878944,-0.15729563,-10.527693,4989,0
25413886,-0.001385694,0.03196777,0.21015285,4991,0,0.05721594,0.06085385,-9.428668,4991,0
25418930,-0.012341312,0.02140538,0.21844813,5044,0,-0.66671634,0.21401626,-8.804837,5044,0
25423869,-0.013414093,0.018257825,0.21631777,4939,0,-0.94779646,-0.10711352,-8.764573,4939,0
25428861,-0.018910993,0.01666861,0.2208737,4992,0,-0.11799109,-0.18039194,-9.745302,4992,0
25433853,-0.028772334,0.019286498,0.21830016,4992,0,0.655886,-0.4246913,-10.028933,4992,0
25438845,-0.012529416,0.01523392,0.22436364,4992,0,0.7576405,-0.018293014,-9.764828,4992,0
25443836,0.00045580236,0.0118267285,0.23210445,4991,0,0.03227366,0.12653682,-8.921757,4991,0
25448828,-0.005965458,0.0040973835,0.23368473,4992,0,-0.75801283,0.18101023,-7.961638,4992,0
25453820,-0.016330298,0.011817122,0.23505391,4992,0,-1.0367001,-0.35417414,-7.8423233,4992,0
25458812,-0.026478061,0.018894317,0.23597136,4992,0,-0.1535977,-0.04912799,-9.0000925,4992,0
