timestamp,timestamp_sample,vibe[0],vibe[1],vibe[2],output_tracking_error[0],output_tracking_error[1],output_tracking_error[2],control_mode_flags,filter_fault_flags,pos_horiz_accuracy,pos_vert_accuracy,mag_test_ratio,vel_test_ratio,pos_test_ratio,hgt_test_ratio,tas_test_ratio,hagl_test_ratio,beta_test_ratio,time_slip,accel_device_id,gyro_device_id,baro_device_id,mag_device_id,gps_check_fail_flags,innovation_check_flags,solution_status_flags,reset_count_vel_ne,reset_count_vel_d,reset_count_pos_ne,reset_count_pod_d,reset_count_quat,pre_flt_fail_innov_heading,pre_flt_fail_innov_vel_horiz,pre_flt_fail_innov_vel_vert,pre_flt_fail_innov_height,pre_flt_fail_mag_field_disturbed,health_flags,timeout_flags
22425494,22424948,1.5436039e-09,8.014498e-05,0.009695924,0.0006115755,0.008967348,0.015327787,531,0,0.3891427,0.68665975,0.021333678,0.0,0.010284664,0.0014623515,0.0,0.0,0.0,0.0,4259850,4325386,3997730,396825,0,0,229,1,3,1,3,2,0,0,0,0,0,0,0
22628246,22627750,1.6659305e-09,8.0415e-05,0.010480342,0.00071848737,0.009855192,0.018014232,531,0,0.38875467,0.68081146,0.016280117,0.0,0.014431193,0.008600087,0.0,0.0,0.0,0.0,4259850,4325386,3997730,396825,0,0,229,1,3,1,3,2,0,0,0,0,0,0,0
22817569,22817187,2.1114357e-09,8.289979e-05,0.011207213,0.00072326267,0.010449277,0.017694775,531,0,0.38234076,0.6833726,0.012072404,0.0,0.020443289,0.003702013,0.0,0.0,0.0,0.0,4259850,4325386,3997730,396825,0,0,229,1,3,1,3,2,0,0,0,0,0,0,0
23029226,23028839,2.312699e-09,8.452903e-05,0.009862011,0.0005896296,0.011094416,0.018653985,659,0,0.38157484,0.67733014,0.01589468,0.0,0.026948107,0.014715678,0.0,0.0,0.0,0.0,4259850,4325386,3997730,396825,0,0,229,1,3,1,3,2,0,0,0,0,0,0,0
23223433,23222777,1.1543457e-08,9.124545e-05,0.0107570775,0.001575296,0.0057907505,0.009622486,659,0,0.4368595,0.66949666,0.059034165,0.0,0.0020326572,0.00019776549,0.0,0.0,0.0,0.0,4259850,4325386,3997730,396825,0,0,229,1,3,1,3,2,0,0,0,0,0,0,0
23430538,23429977,2.2504471e-08,0.00011555848,0.011077805,0.0027253504,0.0042820913,0.0069765286,659,0,0.49900496,0.66172796,0.07521521,0.0,0.0030359332,5.400049e-05,0.0,0.0,0.0,0.0,4259850,4325386,3997730,396825,0,0,229,1,3,1,3,2,0,0,0,0,0,0,0
23628834,23628349,4.0463743e-08,0.00013500109,0.011242557,0.0030804717,0.0039702016,0.008748319,659,0,0.56930196,0.6661225,0.084867515,0.0,0.004587161,0.0018193,0.0,0.0,0.0,0.0,4259850,4325386,3997730,396825,0,0,229,1,3,1,3,2,0,0,0,0,0,0,0
23822459,23822019,6.1705286e-08,0.0001420408,0.011224821,0.0037705034,0.0061929356,0.016805388,659,0,0.64438343,0.6565679,0.13161148,0.0,0.006498956,0.0015570468,0.0,0.0,0.0,0.0,4259850,4325386,3997730,396825,0,0,229,1,3,1,3,2,0,0,0,0,0,0,0
24025472,24024809,6.748194e-08,0.00013323469,0.010302167,0.0045303106,0.006783404,0.020466598,659,0,0.73789376,0.651239,0.10474531,0.0,0.008600234,0.0057917214,0.0,0.0,0.0,0.0,4259850,4325386,3997730,396825,0,0,229,1,3,1,3,2,0,0,0,0,0,0,0
24431252,24430415,4.283641e-08,0.00010674188,0.009015409,0.0035156005,0.004549879,0.014301083,659,0,0.9476696,0.64817005,0.10027425,0.0,0.013112823,0.0063476977,0.0,0.0,0.0,0.0,4259850,4325386,3997730,396825,0,0,229,1,3,1,3,2,0,0,0,0,0,0,0
24629091,24628702,4.3705924e-08,0.00010427409,0.00989096,0.0038856827,0.0030494959,0.006695295,659,0,1.0687584,0.6411775,0.100349285,0.0,0.015990376,0.009859303,0.0,0.0,0.0,0.0,4259850,4325386,3997730,396825,0,0,229,1,3,1,3,2,0,0,0,0,0,0,0
24822987,24822622,3.7501625e-08,9.340348e-05,0.009455044,0.0043627224,0.0029603066,0.0039769537,659,0,1.2013274,0.6344343,0.12953113,0.0,0.019364962,0.00068606413,0.0,0.0,0.0,0.0,4259850,4325386,3997730,396825,0,0,229,1,3,1,3,2,0,0,0,0,0,0,0
25031429,25029840,3.044088e-08,8.3971216e-05,0.0093356315,0.0048059262,0.006553543,0.019235069,659,0,1.345327,0.6278183,0.11379259,0.0,0.022550635,0.017787853,0.0,0.0,0.0,0.0,4259850,4325386,3997730,396825,0,0,229,1,3,1,3,2,0,0,0,0,0,0,0
25427110,25426626,2.9760889e-08,7.399644e-05,0.009906195,0.003368015,0.008385444,0.016919125,659,0,1.6652603,0.6252156,0.08034337,0.0,0.030618662,0.009784423,0.0,0.0,0.0,0.0,4259850,4325386,3997730,396825,0,0,229,1,3,1,3,2,0,0,0,0,0,0,0
25625361,25624675,4.3907175e-08,7.56832e-05,0.011435637,0.0034545315,0.0112929,0.02152563,659,0,1.8383696,0.6190631,0.09603952,0.0,0.03474409,0.0025554616,0.0,0.0,0.0,0.0,4259850,4325386,3997730,396825,0,0,229,1,3,1,3,2,0,0,0,0,0,0,0
25823917,25822967,6.0535086e-08,8.1928316e-05,0.0109971315,0.0035584976,0.015075402,0.030374194,659,0,2.0081172,0.6210084,0.11079422,0.0,0.038450208,0.0011564494,0.0,0.0,0.0,0.0,4259850,4325386,3997730,396825,0,0,229,1,3,1,3,2,0,0,0,0,0,0,0
26030976,26030278,7.0274496e-08,8.054034e-05,0.010469891,0.0042831344,0.019198017,0.0403307,659,0,2.2032566,0.6166591,0.11853275,0.0,0.043058746,0.0018385693,0.0,0.0,0.0,0.0,4259850,4325386,3997730,396825,0,0,229,1,3,1,3,2,0,0,0,0,0,0,0
26423312,26422497,7.971722e-08,7.692024e-05,0.008903058,0.0045611127,0.03215149,0.07318395,659,0,2.579511,0.60494894,0.14101091,0.0,0.0510434,0.0043343105,0.0,0.0,0.0,0.0,4259850,4325386,3997730,396825,0,0,229,1,3,1,3,2,0,0,0,0,0,0,0
26626016,26625154,8.431811e-08,8.149689e-05,0.009035797,0.0053191236,0.03877064,0.09250562,659,0,2.7666824,0.5993168,0.13314009,0.0,0.054536343,0.0028267663,0.0,0.0,0.0,0.0,4259850,4325386,3997730,396825,0,0,229,1,3,1,3,2,0,0,0,0,0,0,0
26828577,26828071,8.808547e-08,8.3439816e-05,0.0077166157,0.0053582997,0.04535303,0.11137546,659,0,2.950292,0.6026501,0.1545437,0.0,0.057121936,0.015554299,0.0,0.0,0.0,0.0,4259850,4325386,3997730,396825,0,0,229,1,3,1,3,2,0,0,0,0,0,0,0
27028097,27026559,8.16722e-08,7.984407e-05,0.00734986,0.004821731,0.014901426,0.040822443,659,0,3.2073257,0.5971446,0.08430571,0.0,0.057121936,0.0054153535,0.0,0.0,0.0,0.0,4259850,4325386,3997730,396825,0,0,229,1,3,1,3,2,0,0,0,0,0,0,0
27423218,27422836,5.7837397e-08,7.264973e-05,0.007028996,0.004023833,0.019247213,0.058092177,659,0,3.5486407,0.59367853,0.111095555,0.0,0.06070571,0.0064017987,0.0,0.0,0.0,0.0,4259850,4325386,3997730,396825,0,0,229,1,3,1,3,2,0,0,0,0,0,0,0
27631137,27630143,4.858106e-08,6.5512926e-05,0.0071775196,0.003695913,0.018360512,0.05811505,659,0,3.7229266,0.5900155,0.12965438,0.0,0.06169953,0.008346471,0.0,0.0,0.0,0.0,4259850,4325386,3997730,396825,0,0,229,1,3,1,3,2,0,0,0,0,0,0,0
27828966,27828435,4.2375166e-08,6.0509963e-05,0.0074301916,0.0037881543,0.019334845,0.06430041,659,0,3.8693678,0.58495474,0.11833855,0.0,0.062313285,0.013667284,0.0,0.0,0.0,0.0,4259850,4325386,3997730,396825,0,0,229,1,3,1,3,2,0,0,0,0,0,0,0
28022751,28022388,4.1611298e-08,5.895586e-05,0.007494237,0.0037139014,0.019512776,0.06675876,659,0,4.0017085,0.5800536,0.09065501,0.0,0.062153142,0.004212475,0.0,0.0,0.0,0.0,4259850,4325386,3997730,396825,0,0,165,1,3,1,3,2,0,0,0,0,0,0,0
28428431,28427944,4.301714e-08,6.415791e-05,0.0073139505,0.0029628684,0.018082062,0.070221566,659,0,4.219943,0.57831377,0.10419365,0.0,0.06024329,0.0069141197,0.0,0.0,0.0,0.0,4259850,4325386,3997730,396825,0,0,165,1,3,1,3,2,0,0,0,0,0,0,0
28626843,28626357,4.0728374e-08,6.260923e-05,0.007132983,0.0031131185,0.016295765,0.068844296,659,0,4.30595,0.5736575,0.116557725,0.0,0.058903962,0.009351109,0.0,0.0,0.0,0.0,4259850,4325386,3997730,396825,0,0,165,1,3,1,3,2,0,0,0,0,0,0,0
28824934,28824411,4.5247024e-08,6.404302e-05,0.0073488373,0.00316199,0.015354008,0.06760224,659,0,4.364769,0.57545227,0.07941694,0.0,0.056874175,0.0060017463,0.0,0.0,0.0,0.0,4259850,4325386,3997730,396825,0,0,165,1,3,1,3,2,0,0,0,0,0,0,0
29027573,29027212,4.786125e-08,6.56043e-05,0.0076289224,0.0037549476,0.010716515,0.054344006,659,0,4.436357,0.57224274,0.1388973,0.0,0.054642458,0.00030815304,0.0,0.0,0.0,0.0,4259850,4325386,3997730,396825,0,0,165,1,3,1,3,2,0,0,0,0,0,0,0
29217004,29216635,4.7151396e-08,6.452524e-05,0.00822797,0.0033903904,0.01121956,0.058148716,659,0,4.468605,0.56656915,0.090314366,0.0,0.05210664,0.016690336,0.0,0.0,0.0,0.0,4259850,4325386,3997730,396825,0,0,165,1,3,1,3,2,0,0,0,0,0,0,0
29428838,29428306,4.7810534e-08,6.235093e-05,0.007492226,0.0025360982,0.005579579,0.042771194,659,0,4.5161247,0.5635388,0.07160294,0.0,0.049227223,0.0019839108,0.0,0.0,0.0,0.0,4259850,4325386,3997730,396825,0,0,165,1,3,1,3,2,0,0,0,0,0,0,0
29622913,29622223,4.410574e-08,6.0141403e-05,0.0070522316,0.0022393567,0.0032833375,0.03652765,659,0,4.5399,0.5594244,0.06845331,0.0,0.046749454,0.00246532,0.0,0.0,0.0,0.0,4259850,4325386,3997730,396825,0,0,165,1,3,1,3,2,0,0,0,0,0,0,0
29827821,29824894,4.8704088e-08,6.308153e-05,0.0075628036,0.00019800599,0.0044252165,0.035143036,8389347,0,4.5527067,0.56256974,0.042094238,0.0,0.0443451,0.010457407,0.0,0.0,0.0,0.0,4259850,4325386,3997730,396825,0,0,165,1,3,1,3,3,0,0,0,0,0,0,0
30029820,30027874,4.963547e-08,6.5496555e-05,0.0077635655,0.00015085533,0.0054713064,0.03500133,8389347,0,4.554309,0.55854213,0.11483501,0.0,0.042363804,0.017153772,0.0,0.0,0.0,0.0,4259850,4325386,3997730,396825,0,0,165,1,3,1,3,3,0,0,0,0,0,0,0
30230903,30226235,5.0371547e-08,6.525065e-05,0.007988749,5.9628226e-05,0.008086294,0.035311267,8389347,0,4.547772,0.5546819,0.07136678,0.0,0.040357962,0.0052393167,0.0,0.0,0.0,0.0,4259850,4325386,3997730,396825,0,0,165,1,3,1,3,3,0,0,0,0,0,0,0
30428971,30424283,5.045775e-08,6.602135e-05,0.0069629345,2.59375e-05,0.009036325,0.037540883,8389347,0,4.5239058,0.5566982,0.24308541,0.0,0.038616754,0.012521749,0.0,0.0,0.0,0.0,4259850,4325386,3997730,396825,0,0,165,1,3,1,3,3,0,0,0,0,0,0,0
30623162,30622577,4.721904e-08,6.494519e-05,0.0069762147,2.104086e-05,0.010240616,0.039550178,8389347,0,4.5050797,0.55303806,0.0705248,0.0,0.037152812,0.0062990347,0.0,0.0,0.0,0.0,4259850,4325386,3997730,396825,0,0,165,1,3,1,3,3,0,0,0,0,0,0,0
30816901,30816522,4.5622397e-08,6.510503e-05,0.0076297782,5.735064e-05,0.010732,0.04283567,8389347,0,4.481547,0.5494532,0.094430804,0.0,0.03572672,0.004283441,0.0,0.0,0.0,0.0,4259850,4325386,3997730,396825,0,0,165,1,3,1,3,3,0,0,0,0,0,0,0
31026035,31023717,4.057624e-08,6.470867e-05,0.008009679,3.0675143e-05,0.0123320585,0.046061967,8389347,0,4.455514,0.5459484,0.096002124,0.0,0.034410223,0.011319943,0.0,0.0,0.0,0.0,4259850,4325386,3997730,396825,0,0,165,1,3,1,3,3,0,0,0,0,0,0,0
31426884,31424767,3.3310457e-08,6.0199298e-05,0.008382296,3.4225493e-05,0.0126736425,0.051691238,8389347,0,4.404538,0.54709816,0.09183139,0.0,0.032805316,0.010470032,0.0,0.0,0.0,0.0,4259850,4325386,3997730,396825,0,0,165,1,3,1,3,3,0,0,0,0,0,0,0
31630450,31627687,3.2574388e-08,6.1000937e-05,0.008010207,4.4109343e-05,0.01241753,0.05190432,8389347,0,4.373711,0.5438312,0.097553745,0.0,0.032068152,0.0040461468,0.0,0.0,0.0,0.0,4259850,4325386,3997730,396825,0,0,165,1,3,1,3,3,0,0,0,0,0,0,0
31828123,31826105,3.0403278e-08,5.9834692e-05,0.0076223393,9.118111e-05,0.012635205,0.053665955,8389347,0,4.3428597,0.5407139,0.026378592,0.0,0.03149312,0.0055667385,0.0,0.0,0.0,0.0,4259850,4325386,3997730,396825,0,0,165,1,3,1,3,3,0,0,0,0,0,0,0
32026328,32024166,3.0609296e-08,6.123128e-05,0.0072202394,5.5122215e-05,0.011624672,0.059245534,8389347,0,4.3037744,0.54310066,0.035403743,0.0,0.03116374,0.008572195,0.0,0.0,0.0,0.0,4259850,4325386,3997730,396825,0,0,165,1,3,1,3,3,0,0,0,0,0,0,0
32223341,32222451,3.087612e-08,6.1488754e-05,0.007962803,7.0945556e-05,0.011995279,0.059617702,8389347,0,4.2754045,0.54025304,0.054729473,0.0,0.030819247,0.0013210155,0.0,0.0,0.0,0.0,4259850,4325386,3997730,396825,0,0,165,1,3,1,3,3,0,0,0,0,0,0,0
32431991,32429760,3.27928e-08,6.1803294e-05,0.008235463,8.7850305e-05,0.010701939,0.059832685,8389347,0,4.2561903,0.5386911,0.0705525,0.0,0.030829579,0.007369142,0.0,0.0,0.0,0.0,4259850,4325386,3997730,396825,0,0,165,1,3,1,3,3,0,0,0,0,0,0,0
32628757,32628055,3.29701e-08,6.104837e-05,0.007997176,7.578276e-05,0.011006822,0.061875474,8389347,0,4.230761,0.536039,0.05683967,0.0,0.0307548,0.0059147556,0.0,0.0,0.0,0.0,4259850,4325386,3997730,396825,0,0,165,1,3,1,3,3,0,0,0,0,0,0,0
32822679,32821978,3.1735535e-08,5.9433343e-05,0.0076522413,0.00010746288,0.010617726,0.06563433,8389347,0,4.207213,0.53983647,0.18727681,0.0,0.030889282,0.0021276348,0.0,0.0,0.0,0.0,4259850,4325386,3997730,396825,0,0,165,1,3,1,3,3,0,0,0,0,0,0,0
33031295,33029194,2.879916e-08,5.725197e-05,0.0071769166,9.518466e-05,0.011333295,0.06683333,8389347,0,4.186367,0.5373221,0.15673877,0.0,0.030978687,0.008984494,0.0,0.0,0.0,0.0,4259850,4325386,3997730,396825,0,0,165,1,3,1,3,3,0,0,0,0,0,0,0
33228199,33227572,2.642955e-08,5.5738947e-05,0.007845834,0.02825222,0.004628317,0.06100152,8389267,0,4.1673965,0.5348975,0.1225063,0.0,0.031242251,0.0030887197,0.0,0.0,0.0,0.0,4259850,4325386,3997730,396825,0,0,165,1,3,1,3,3,0,0,0,0,0,0,0
33429254,33425993,2.4822626e-08,5.4079e-05,0.007901438,0.015983973,0.016230227,0.055618767,8389267,0,4.342669,0.53260964,0.050351623,0.0,0.031242251,0.011638178,0.0,0.0,0.0,0.0,4259850,4325386,3997730,396825,0,0,165,1,3,1,3,3,0,0,0,0,0,0,0
33624708,33624052,2.4442482e-08,5.505243e-05,0.008914521,0.0055748294,0.013965646,0.048587676,8389267,0,4.317834,0.5355505,0.020619234,0.0,0.031966846,0.003079893,0.0,0.0,0.0,0.0,4259850,4325386,3997730,396825,0,0,165,1,3,1,3,3,0,0,0,0,0,0,0
33827325,33826834,2.3236218e-08,5.568556e-05,0.008553022,0.002689143,0.01368059,0.048796404,8389267,0,4.3143587,0.5346651,0.004337264,0.0,0.032450195,0.00325028,0.0,0.0,0.0,0.0,4259850,4325386,3997730,396825,0,0,165,1,3,1,3,3,0,0,0,0,0,0,0
34016699,34016276,2.0869207e-08,5.309677e-05,0.008180383,0.0039089853,0.011766518,0.041360304,8389267,0,4.29502,0.5377864,0.0029176374,0.0,0.03330082,0.0038902655,0.0,0.0,0.0,0.0,4259850,4325386,3997730,396825,0,0,165,1,3,1,3,3,0,0,0,0,0,0,0
34432549,34430733,1.763634e-08,5.0837574e-05,0.007488649,0.00083501544,0.011142015,0.03946085,8389267,0,4.292809,0.5351853,0.01683027,0.0,0.034589328,0.0029830385,0.0,0.0,0.0,0.0,4259850,4325386,3997730,396825,0,0,165,1,3,1,3,3,0,0,0,0,0,0,0
34625006,34624520,1.6893965e-08,4.9554536e-05,0.008138327,0.0010390811,0.009831298,0.034832414,8389267,0,4.290356,0.533448,0.028825179,0.0,0.03561278,0.004140351,0.0,0.0,0.0,0.0,4259850,4325386,3997730,396825,0,0,165,1,3,1,3,3,0,0,0,0,0,0,0
34823236,34822816,1.4579859e-08,4.9945855e-05,0.007842887,0.0025394482,0.008291383,0.02913419,8389267,0,4.2894583,0.5317531,0.01224642,0.0,0.036249638,0.000890464,0.0,0.0,0.0,0.0,4259850,4325386,3997730,396825,0,0,165,1,3,1,3,3,0,0,0,0,0,0,0
35026240,35025881,1.2704109e-08,4.941277e-05,0.007632901,0.0013915038,0.006743236,0.023770398,8389267,0,4.289884,0.5363106,0.04990005,0.0,0.03710861,0.0032015813,0.0,0.0,0.0,0.0,4259850,4325386,3997730,396825,0,0,165,1,3,1,3,3,0,0,0,0,0,0,0
35224562,35223913,1.5181e-08,5.2530446e-05,0.008338605,0.0009275022,0.0058862157,0.019397566,8389267,0,4.2825084,0.5335933,0.013059421,0.0,0.037957083,0.0008063475,0.0,0.0,0.0,0.0,4259850,4325386,3997730,396825,0,0,165,1,3,1,3,3,0,0,0,0,0,0,0
35422610,35422208,2.0533427e-08,5.711959e-05,0.008002425,0.000831544,0.005148454,0.016396435,8389267,0,4.286577,0.53212017,0.00811091,0.0,0.038704697,0.005285985,0.0,0.0,0.0,0.0,4259850,4325386,3997730,396825,0,0,165,1,3,1,3,3,0,0,0,0,0,0,0
35616511,35616155,2.5789124e-08,6.168362e-05,0.0077857333,0.001043437,0.0038676395,0.01470376,8389267,0,4.291286,0.5369454,0.002145709,0.0,0.03959619,0.0112644,0.0,0.0,0.0,0.0,4259850,4325386,3997730,396825,0,0,165,1,3,1,3,3,0,0,0,0,0,0,0
35828380,35827812,2.8429552e-08,6.260332e-05,0.008303067,0.0003171751,0.0030682043,0.014040656,8389267,0,4.306545,0.5366938,0.010954996,0.0,0.03979987,0.004051269,0.0,0.0,0.0,0.0,4259850,4325386,3997730,396825,0,0,165,1,3,1,3,3,0,0,0,0,0,0,0
36022529,36021752,2.9995327e-08,6.325123e-05,0.0077377125,0.0002521942,0.0043423153,0.020604173,8389267,0,4.30274,0.5341506,0.0016445937,0.0,0.03981358,0.010152844,0.0,0.0,0.0,0.0,4259850,4325386,3997730,396825,0,0,165,1,3,1,3,3,0,0,0,0,0,0,0
36229498,36228952,2.3125775e-08,5.7868976e-05,0.007406955,0.00029251448,0.0030571711,0.017464465,8389267,0,4.3192887,0.5339771,0.01334772,0.0,0.039320264,0.0035825346,0.0,0.0,0.0,0.0,4259850,4325386,3997730,396825,0,0,165,1,3,1,3,3,0,0,0,0,0,0,0
36423064,36422696,2.0803974e-08,5.4653996e-05,0.0071318666,0.00020562539,0.0023469094,0.014587027,8389267,0,4.3253093,0.5388437,0.0029716557,0.0,0.038208634,0.004752956,0.0,0.0,0.0,0.0,4259850,4325386,3997730,396825,0,0,165,1,3,1,3,3,0,0,0,0,0,0,0
36627143,36625501,1.9865995e-08,5.4530043e-05,0.0073438664,0.00018322786,0.0017933934,0.011584002,8389267,0,4.3308353,0.5374168,0.04632989,0.0,0.036569167,0.0034528384,0.0,0.0,0.0,0.0,4259850,4325386,3997730,396825,0,0,165,1,3,1,3,3,0,0,0,0,0,0,0
36824436,36823793,2.0121472e-08,5.283207e-05,0.007490014,0.00084393326,0.0015386088,0.009413405,8389267,0,4.335839,0.5360215,0.0196295,0.0,0.034814637,0.0033736979,0.0,0.0,0.0,0.0,4259850,4325386,3997730,396825,0,0,165,1,3,1,3,3,0,0,0,0,0,0,0
37022828,37022101,2.4055574e-08,5.48349e-05,0.00787247,0.0007229311,0.0028056893,0.009269637,8389267,0,4.33056,0.5334658,0.0004119991,0.0,0.032871753,0.00020250965,0.0,0.0,0.0,0.0,4259850,4325386,3997730,396825,0,0,165,1,3,1,3,3,0,0,0,0,0,0,0
37428088,37427694,2.3663763e-08,5.4538836e-05,0.007786223,0.0004388423,0.0027666995,0.0123179825,8389267,0,4.3492446,0.53829503,0.024346408,0.0,0.02889456,0.00922553,0.0,0.0,0.0,0.0,4259850,4325386,3997730,396825,0,0,165,1,3,1,3,3,0,0,0,0,0,0,0
37622057,37621637,1.9743988e-08,5.201138e-05,0.00752487,0.00029419345,0.0028363813,0.014242799,8389267,0,4.351816,0.536936,0.01991349,0.0,0.026877508,0.00032846996,0.0,0.0,0.0,0.0,4259850,4325386,3997730,396825,0,0,165,1,3,1,3,3,0,0,0,0,0,0,0
37824884,37824284,1.9667908e-08,5.449957e-05,0.00748383,0.0011655255,0.003258644,0.013167259,8389267,0,4.353216,0.5355298,0.067569256,0.0,0.025107538,0.00415742,0.0,0.0,0.0,0.0,4259850,4325386,3997730,396825,0,0,165,1,3,1,3,3,0,0,0,0,0,0,0
38027580,38027221,2.2616778e-08,5.4227115e-05,0.0074214293,0.0011880288,0.004164025,0.017653896,8389267,0,4.354482,0.5405001,0.041823592,0.0,0.023574091,0.009597306,0.0,0.0,0.0,0.0,4259850,4325386,3997730,396825,0,0,165,1,3,1,3,3,0,0,0,0,0,0,0
38221294,38220876,2.5412245e-08,5.506995e-05,0.007276651,0.0017788938,0.0047288015,0.017766701,8389267,0,4.3449016,0.5379159,0.09074548,0.0,0.022206739,0.004778898,0.0,0.0,0.0,0.0,4259850,4325386,3997730,396825,0,0,165,1,3,1,3,3,0,0,0,0,0,0,0
38424201,38423677,3.3393487e-08,6.0373182e-05,0.007100072,0.0020801795,0.00586156,0.024855226,8389267,0,4.3552585,0.53774023,0.035999235,0.0,0.020712834,0.009978205,0.0,0.0,0.0,0.0,4259850,4325386,3997730,396825,0,0,165,1,3,1,3,3,0,0,0,0,0,0,0
38626916,38626479,4.1700105e-08,6.221628e-05,0.0069998465,0.0021127004,0.012310108,0.039401207,8389347,0,4.35221,0.5362647,0.06459407,0.0,0.018407257,0.0048643085,0.0,0.0,0.0,0.0,4259850,4325386,3997730,396825,0,0,165,1,3,1,3,3,0,0,0,0,0,0,0
38831612,38829285,5.6711684e-08,7.379452e-05,0.0067737824,0.001621461,0.015156755,0.046817612,8389347,0,4.348925,0.54113877,0.16071375,0.0,0.015337605,0.0066265515,0.0,0.0,0.0,0.0,4259850,4325386,3997730,396825,0,0,165,1,3,1,3,3,0,0,0,0,0,0,0
39027992,39027583,6.3481885e-08,7.320549e-05,0.007961143,0.00020385234,0.00937168,0.045747623,8389347,0,4.346353,0.53968626,0.02534644,0.0,0.013047646,0.002803193,0.0,0.0,0.0,0.0,4259850,4325386,3997730,396825,0,0,165,1,3,1,3,3,0,0,0,0,0,0,0
39222221,39221535,6.8914765e-08,7.578096e-05,0.008544883,0.00044192903,0.013835268,0.058315504,8389347,0,4.332281,0.5370414,0.04802984,0.0,0.0102457125,0.0011499281,0.0,0.0,0.0,0.0,4259850,4325386,3997730,396825,0,0,165,1,3,1,3,3,0,0,0,0,0,0,0
39429200,39428770,7.761522e-08,8.317293e-05,0.009319551,0.0003163666,0.015737772,0.06897526,8389347,0,4.337944,0.53680986,0.14140594,0.0,0.0072193365,0.009510121,0.0,0.0,0.0,0.0,4259850,4325386,3997730,396825,0,0,165,1,3,1,3,3,0,0,0,0,0,0,0
39627698,39627190,7.7285776e-08,8.243432e-05,0.009029972,0.0003046212,0.020531228,0.08260768,8389347,0,4.332029,0.541724,0.0703347,0.0,0.0043229274,0.00803501,0.0,0.0,0.0,0.0,4259850,4325386,3997730,396825,0,0,165,1,3,1,3,3,0,0,0,0,0,0,0
39821276,39820760,7.10033e-08,7.822885e-05,0.008541745,0.0012568061,0.025135271,0.0962274,8389347,0,4.5328937,0.5389762,0.07636047,0.0,0.0043229274,0.0013568763,0.0,0.0,0.0,0.0,4259850,4325386,3997730,396825,0,0,165,1,3,1,3,3,0,0,0,0,0,0,0
40024097,40023563,6.9138615e-08,7.6507335e-05,0.008659067,0.0015814527,0.027091531,0.101036236,8389347,0,4.536232,0.5386161,0.054553084,0.0,0.004134632,0.0006701024,0.0,0.0,0.0,0.0,4259850,4325386,3997730,396825,0,0,165,1,3,1,3,3,0,0,0,0,0,0,0
40432204,40429168,7.2150264e-08,7.402689e-05,0.0075924112,0.002308272,0.030239874,0.10409672,8389347,0,4.5283904,0.54299945,0.17571206,0.0,0.007645408,0.0016240979,0.0,0.0,0.0,0.0,4259850,4325386,3997730,396825,0,0,165,1,3,1,3,3,0,0,0,0,0,0,0
40627864,40627463,7.7296754e-08,7.723937e-05,0.007575152,0.0026878892,0.033702545,0.11131768,8389347,0,4.506873,0.54006284,0.104260184,0.0,0.008731513,0.011843947,0.0,0.0,0.0,0.0,4259850,4325386,3997730,396825,0,0,165,1,3,1,3,3,0,0,0,0,0,0,0
40821880,40821432,7.623206e-08,8.088562e-05,0.0075879716,0.0029181293,0.03383547,0.11185578,8389347,0,4.4852386,0.53722364,0.11015191,0.0,0.010293005,0.00978991,0.0,0.0,0.0,0.0,4259850,4325386,3997730,396825,0,0,165,1,3,1,3,3,0,0,0,0,0,0,0
41026200,41024056,7.877184e-08,8.395614e-05,0.0074761184,0.0029007613,0.036815356,0.11694208,8389347,0,4.4736347,0.54199016,0.10192152,0.0,0.0126495175,0.005533841,0.0,0.0,0.0,0.0,4259850,4325386,3997730,396825,0,0,165,1,3,1,3,3,0,0,0,0,0,0,0
41227405,41227025,8.1323336e-08,8.320361e-05,0.0075329826,0.0017666549,0.032327402,0.10930091,8389347,0,4.4719634,0.5415188,0.06487583,0.0,0.01439396,0.0074794367,0.0,0.0,0.0,0.0,4259850,4325386,3997730,396825,0,0,165,1,3,1,3,3,0,0,0,0,0,0,0
41432360,41429662,8.728497e-08,8.6993554e-05,0.0076444875,0.0014394637,0.030612059,0.10576595,8389347,0,4.458797,0.5397332,0.03311225,0.0,0.015646467,0.004052937,0.0,0.0,0.0,0.0,4259850,4325386,3997730,396825,0,0,165,1,3,1,3,3,0,0,0,0,0,0,0
41624050,41623450,8.433222e-08,8.196205e-05,0.0070145195,0.0012652477,0.030133318,0.102690935,8389347,0,4.4449306,0.5379843,0.11681941,0.0,0.016645402,0.0008247906,0.0,0.0,0.0,0.0,4259850,4325386,3997730,396825,0,0,165,1,3,1,3,3,0,0,0,0,0,0,0
41824137,41821746,8.3884736e-08,8.419985e-05,0.0074217077,0.00093318033,0.027799584,0.09620786,8389347,0,4.4204917,0.54138,0.07448154,0.0,0.017050505,0.010261264,0.0,0.0,0.0,0.0,4259850,4325386,3997730,396825,0,0,165,1,3,1,3,3,0,0,0,0,0,0,0
42022730,42020146,8.285214e-08,8.0582926e-05,0.007981677,0.0012471742,0.025044307,0.08872656,8389347,0,4.41646,0.54074347,0.05088021,0.0,0.018370757,0.0014152323,0.0,0.0,0.0,0.0,4259850,4325386,3997730,396825,0,0,165,1,3,1,3,3,0,0,0,0,0,0,0
42227963,42227354,8.6642224e-08,8.314819e-05,0.008407551,0.0011352404,0.022013895,0.082735695,8389347,0,4.40206,0.538826,0.06182993,0.0,0.019349309,0.00666531,0.0,0.0,0.0,0.0,4259850,4325386,3997730,396825,0,0,165,1,3,1,3,3,0,0,0,0,0,0,0
42426159,42425694,8.163368e-08,7.759867e-05,0.007863542,0.001127416,0.021503285,0.07636552,8389347,0,4.387589,0.53694606,0.070939556,0.0,0.02030895,0.00087124825,0.0,0.0,0.0,0.0,4259850,4325386,3997730,396825,0,0,165,1,3,1,3,3,0,0,0,0,0,0,0
42630588,42628510,8.9483024e-08,8.437311e-05,0.0073320423,0.0008351143,0.016610527,0.07061011,8389347,0,4.3731427,0.54142904,0.050459504,0.0,0.021161439,0.011523727,0.0,0.0,0.0,0.0,4259850,4325386,3997730,396825,0,0,165,1,3,1,3,3,0,0,0,0,0,0,0
42827365,42826929,9.246032e-08,8.5517466e-05,0.0074030277,0.0013916044,0.018549718,0.07137278,8389347,0,4.359974,0.5395034,0.07633743,0.0,0.021091022,0.003917588,0.0,0.0,0.0,0.0,4259850,4325386,3997730,396825,0,0,165,1,3,1,3,3,0,0,0,0,0,0,0
43034228,43029551,9.5274984e-08,9.212164e-05,0.007943707,0.0017344705,0.019151125,0.06690541,8389347,0,4.348021,0.53758126,0.06139981,0.0,0.020528821,0.0020542333,0.0,0.0,0.0,0.0,4259850,4325386,3997730,396825,0,0,165,1,3,1,3,3,0,0,0,0,0,0,0
43223873,43223341,9.1879535e-08,9.043376e-05,0.007424036,0.0018840419,0.022028623,0.06940032,8389347,0,4.3367395,0.54207206,0.11912144,0.0,0.020428438,0.0003281231,0.0,0.0,0.0,0.0,4259850,4325386,3997730,396825,0,0,165,1,3,1,3,3,0,0,0,0,0,0,0
43419218,43417278,9.981487e-08,9.63739e-05,0.0080468515,0.0023840712,0.030351812,0.07986576,8389347,0,4.316526,0.538855,0.13606246,0.0,0.019225892,0.0072707254,0.0,0.0,0.0,0.0,4259850,4325386,3997730,396825,0,0,165,1,3,1,3,3,0,0,0,0,0,0,0
43616022,43615655,1.0289602e-07,9.309728e-05,0.008335146,0.0030684774,0.035143044,0.08167498,8389347,0,4.3072724,0.5369138,0.1947768,0.0,0.016965298,0.008658456,0.0,0.0,0.0,0.0,4259850,4325386,3997730,396825,0,0,165,1,3,1,3,3,0,0,0,0,0,0,0
43825402,43822818,9.666515e-08,9.080679e-05,0.0076248976,0.0044451873,0.04751115,0.094675116,8389347,0,4.3004355,0.5349957,0.20485534,0.0,0.014020364,0.0041166428,0.0,0.0,0.0,0.0,4259850,4325386,3997730,396825,0,0,165,1,3,1,3,3,0,0,0,0,0,0,0
44027927,44025585,9.403709e-08,8.4979525e-05,0.008013876,0.004576422,0.038955957,0.07359798,8389347,0,4.305265,0.5406462,0.16995901,0.0,0.011036111,0.0056029437,0.0,0.0,0.0,0.0,4259850,4325386,3997730,396825,0,0,165,1,3,1,3,3,0,0,0,0,0,0,0
44422511,44422134,8.239838e-08,7.739589e-05,0.008503784,0.0039192205,0.027268335,0.03843236,8389347,0,4.302069,0.5367291,0.0999865,0.0,0.0060873157,0.008069621,0.0,0.0,0.0,0.0,4259850,4325386,3997730,396825,0,0,165,1,3,1,3,3,0,0,0,0,0,0,0
44625457,44624937,7.6269274e-08,8.251206e-05,0.008644557,0.0037712806,0.023087604,0.022784542,8389347,0,4.303617,0.54111135,0.130352,0.0,0.0047949543,0.0003772519,0.0,0.0,0.0,0.0,4259850,4325386,3997730,396825,0,0,165,1,3,1,3,3,0,0,0,0,0,0,0
44825340,44823233,7.5170995e-08,8.212232e-05,0.008842772,0.004931448,0.01878257,0.0076418235,8389347,0,4.3064327,0.53906935,0.16433854,0.0,0.004036541,0.007245666,0.0,0.0,0.0,0.0,4259850,4325386,3997730,396825,0,0,165,1,3,1,3,3,0,0,0,0,0,0,0
45018213,45017194,7.4949526e-08,8.146489e-05,0.008830916,0.005061065,0.018380765,0.0047379266,8389347,0,4.301078,0.5359266,0.13974948,0.0,0.005775821,0.0064889407,0.0,0.0,0.0,0.0,4259850,4325386,3997730,396825,0,0,165,1,3,1,3,3,0,0,0,0,0,0,0
45231241,45228842,8.4001606e-08,8.444228e-05,0.007555735,0.005639614,0.01265489,0.018279903,8389347,0,4.3190126,0.53520256,0.16251485,0.0,0.009300336,0.0001317424,0.0,0.0,0.0,0.0,4259850,4325386,3997730,396825,0,0,165,1,3,1,3,3,0,0,0,0,0,0,0
45424718,45422727,9.534366e-08,9.366512e-05,0.007897588,0.0070756134,0.02122335,0.013606795,8389347,0,4.3168674,0.53844887,0.1991716,0.0,0.014082669,0.0038582748,0.0,0.0,0.0,0.0,4259850,4325386,3997730,396825,0,0,165,1,3,1,3,3,0,0,0,0,0,0,0
45623494,45621155,1.03008915e-07,9.295042e-05,0.006753138,0.008128203,0.018492568,0.027466798,8389347,0,4.337725,0.53773224,0.2891007,0.0,0.01877703,0.0025173023,0.0,0.0,0.0,0.0,4259850,4325386,3997730,396825,0,0,165,1,3,1,3,3,0,0,0,0,0,0,0
45830276,45828315,1.0594862e-07,9.521857e-05,0.007036518,0.0073246523,0.017867826,0.058903717,8389347,0,4.348697,0.5358332,0.2562976,0.0,0.023362124,0.0030905276,0.0,0.0,0.0,0.0,4259850,4325386,3997730,396825,0,0,165,1,3,1,3,3,0,0,0,0,0,0,0
46022437,46022071,9.5695526e-08,8.737281e-05,0.007477994,0.006656683,0.020295436,0.103675954,8389347,0,4.360319,0.5339509,0.24000557,0.0,0.02676993,0.008117864,0.0,0.0,0.0,0.0,4259850,4325386,3997730,396825,0,0,165,1,3,1,3,3,0,0,0,0,0,0,0
46229316,46224831,9.004792e-08,8.7985885e-05,0.0071067177,0.0066222576,0.03302588,0.13829358,8389347,0,4.3717074,0.53833157,0.27754977,0.0,0.030054502,0.009071195,0.0,0.0,0.0,0.0,4259850,4325386,3997730,396825,0,0,165,1,3,1,3,3,0,0,0,0,0,0,0
46423678,46423129,8.109124e-08,8.096218e-05,0.0069064414,0.006822846,0.028458366,0.13454637,8389347,0,4.384071,0.5364317,0.21471095,0.0,0.035234306,0.0053761615,0.0,0.0,0.0,0.0,4259850,4325386,3997730,396825,0,0,165,1,3,1,3,3,0,0,0,0,0,0,0
46617607,46617053,8.549162e-08,8.497698e-05,0.007561402,0.0072570373,0.040836535,0.17119573,8389347,0,4.3850803,0.53344107,0.24251749,0.0,0.03887377,0.0013405805,0.0,0.0,0.0,0.0,4259850,4325386,3997730,396825,0,0,165,1,3,1,3,3,0,0,0,0,0,0,0
46829684,46828736,9.4027655e-08,8.8726236e-05,0.0074538975,0.008080436,0.049367566,0.19375147,8389347,0,4.40882,0.5327813,0.3281771,0.0,0.043132726,0.0021301878,0.0,0.0,0.0,0.0,4259850,4325386,3997730,396825,0,0,165,1,3,1,3,3,0,0,0,0,0,0,0
47025446,47022637,8.6787274e-08,8.811205e-05,0.0076189283,0.008005689,0.013834921,0.06452431,8389347,0,4.641746,0.5360687,0.27158794,0.0,0.043132726,0.0018116015,0.0,0.0,0.0,0.0,4259850,4325386,3997730,396825,0,0,165,1,3,1,3,3,0,0,0,0,0,0,0
47431053,47428236,8.9111516e-08,9.2982205e-05,0.008493091,0.006527466,0.015099884,0.07080737,8389347,0,4.6811004,0.5337076,0.2658906,0.0,0.0527223,0.01219707,0.0,0.0,0.0,0.0,4259850,4325386,3997730,396825,0,0,165,1,3,1,3,3,0,0,0,0,0,0,0
47631307,47626666,8.0915804e-08,8.5133004e-05,0.007954419,0.00614606,0.013822695,0.0697501,8389347,0,4.692514,0.53200907,0.2083999,0.0,0.056888152,0.016354822,0.0,0.0,0.0,0.0,4259850,4325386,3997730,396825,0,0,165,1,3,1,3,3,0,0,0,0,0,0,0
47825253,47824729,7.4170984e-08,8.218259e-05,0.008391801,0.0052834135,0.016703915,0.08112997,8389347,0,4.690326,0.53538567,0.20123735,0.0,0.06148808,0.016456705,0.0,0.0,0.0,0.0,4259850,4325386,3997730,396825,0,0,165,1,3,1,3,3,0,0,0,0,0,0,0
48023601,48023026,6.853649e-08,7.60765e-05,0.008470379,0.005057965,0.018161222,0.07928157,8389347,0,4.7121644,0.53487283,0.17380139,0.0,0.06587527,0.014820334,0.0,0.0,0.0,0.0,4259850,4325386,3997730,396825,0,0,165,1,3,1,3,3,0,0,0,0,0,0,0
48218346,48216966,6.7082496e-08,7.460726e-05,0.007775957,0.0048976326,0.015767481,0.08172894,8389347,0,4.705333,0.5320175,0.17772503,0.0,0.07056573,0.0042186663,0.0,0.0,0.0,0.0,4259850,4325386,3997730,396825,0,0,165,1,3,1,3,3,0,0,0,0,0,0,0
48424633,48424193,6.7078886e-08,7.2560455e-05,0.008114474,0.005288065,0.032245595,0.10647115,8389347,0,4.7226577,0.5314965,0.22549307,0.0,0.07476701,0.007243532,0.0,0.0,0.0,0.0,4259850,4325386,3997730,396825,0,0,165,1,3,1,3,3,0,0,0,0,0,0,0
48624068,48622619,7.19514e-08,7.71691e-05,0.007882728,0.0043451935,0.039381582,0.123933755,8389347,0,4.7243114,0.53603804,0.13384312,0.0,0.07806278,0.00842739,0.0,0.0,0.0,0.0,4259850,4325386,3997730,396825,0,0,165,1,3,1,3,3,0,0,0,0,0,0,0
49627811,49627433,7.126584e-08,7.684118e-05,0.007658964,0.0005651343,0.038048048,0.11435888,8389347,0,4.707661,0.5342409,0.12781137,0.0,0.091398284,0.012447342,0.0,0.0,0.0,0.0,4259850,4325386,3997730,396825,0,0,165,1,3,1,3,3,0,0,0,0,0,0,0
49832199,49830239,6.23661e-08,7.4678406e-05,0.007541094,0.00053827075,0.040238075,0.12173869,8389347,0,4.6969957,0.53267497,0.12283441,0.0,0.09257288,0.0073364973,0.0,0.0,0.0,0.0,4259850,4325386,3997730,396825,0,0,165,1,3,1,3,3,0,0,0,0,0,0,0
50024683,50024060,5.8682904e-08,6.970945e-05,0.0077657527,0.0007613756,0.041031823,0.12640215,8389347,0,4.683518,0.5373534,0.14065613,0.0,0.09409696,0.014599103,0.0,0.0,0.0,0.0,4259850,4325386,3997730,396825,0,0,165,1,3,1,3,3,0,0,0,0,0,0,0
50224784,50222474,5.7690446e-08,7.360934e-05,0.008312352,0.0010772713,0.050726466,0.15616922,8389347,0,4.655798,0.53452545,0.09250499,0.0,0.095185384,0.0133033255,0.0,0.0,0.0,0.0,4259850,4325386,3997730,396825,0,0,165,1,3,1,3,3,0,0,0,0,0,0,0
50427318,50425174,5.967353e-08,7.092209e-05,0.00783606,0.0012359075,0.049296457,0.15030698,8389347,0,4.649282,0.53412557,0.06377892,0.0,0.09651099,0.010819563,0.0,0.0,0.0,0.0,4259850,4325386,3997730,396825,0,0,165,1,3,1,3,3,0,0,0,0,0,0,0
50629190,50628079,5.646326e-08,6.990461e-05,0.007849964,0.0014485201,0.04497693,0.13937032,8389347,0,4.6302876,0.5325156,0.12959471,0.0,0.09657864,0.019029172,0.0,0.0,0.0,0.0,4259850,4325386,3997730,396825,0,0,165,1,3,1,3,3,0,0,0,0,0,0,0
50831024,50826235,5.6037077e-08,6.881048e-05,0.007938132,0.002003951,0.039160237,0.121233284,8389347,0,4.610553,0.5309924,0.09460846,0.0,0.09639686,0.010640898,0.0,0.0,0.0,0.0,4259850,4325386,3997730,396825,0,0,165,1,3,1,3,3,0,0,0,0,0,0,0
51026724,51024529,5.3112196e-08,6.750944e-05,0.008371744,0.0022422036,0.03603039,0.11419249,8389347,0,4.589206,0.53561985,0.06619478,0.0,0.096598335,0.015914446,0.0,0.0,0.0,0.0,4259850,4325386,3997730,396825,0,0,165,1,3,1,3,3,0,0,0,0,0,0,0
51228169,51227353,4.7171522e-08,6.507007e-05,0.008158872,0.0026779126,0.034852233,0.10510723,8389347,0,4.5673776,0.53396106,0.10412314,0.0,0.095516466,0.0123518985,0.0,0.0,0.0,0.0,4259850,4325386,3997730,396825,0,0,165,1,3,1,3,3,0,0,0,0,0,0,0
51417873,51416813,3.9966068e-08,6.280483e-05,0.0075804573,0.0029112431,0.032432776,0.1014984,8389347,0,4.534733,0.53740686,0.097189315,0.0,0.09498017,0.0126479035,0.0,0.0,0.0,0.0,4259850,4325386,3997730,396825,0,0,165,1,3,1,3,3,0,0,0,0,0,0,0
51628844,51628436,3.6337763e-08,6.0238075e-05,0.0077517615,0.0027997019,0.021488544,0.06718307,8389347,0,4.522959,0.5369339,0.09998152,0.0,0.09434703,0.0054306225,0.0,0.0,0.0,0.0,4259850,4325386,3997730,396825,0,0,165,1,3,1,3,3,0,0,0,0,0,0,0
51822787,51822412,3.0660814e-08,5.617509e-05,0.007418861,0.0033266926,0.020611366,0.072463475,8389347,0,4.489202,0.53414977,0.15852295,0.0,0.09464004,0.0036768431,0.0,0.0,0.0,0.0,4259850,4325386,3997730,396825,0,0,165,1,3,1,3,3,0,0,0,0,0,0,0
52025450,52025078,2.2544157e-08,5.080658e-05,0.007432526,0.0033264454,0.016486328,0.06013062,8389347,0,4.474706,0.53370327,0.12034196,0.0,0.09500306,0.0067224912,0.0,0.0,0.0,0.0,4259850,4325386,3997730,396825,0,0,165,1,3,1,3,3,0,0,0,0,0,0,0
52228449,52227990,1.6034384e-08,4.923065e-05,0.007416796,0.0030986255,0.016815409,0.064120546,8389347,0,4.4490056,0.5320259,0.14754947,0.0,0.09429564,0.013166825,0.0,0.0,0.0,0.0,4259850,4325386,3997730,396825,0,0,165,1,3,1,3,3,0,0,0,0,0,0,0
52428301,52426135,1.23341835e-08,4.7944828e-05,0.00856384,0.0030077936,0.017631132,0.07036069,8389347,0,4.422627,0.5365615,0.11757878,0.0,0.09424987,2.5854094e-06,0.0,0.0,0.0,0.0,4259850,4325386,3997730,396825,0,0,165,1,3,1,3,3,0,0,0,0,0,0,0
52626841,52624433,1.004576e-08,4.8252867e-05,0.008517207,0.002310727,0.019663172,0.08095088,8389347,0,4.3957324,0.5347674,0.10069487,0.0,0.09343949,0.0052688294,0.0,0.0,0.0,0.0,4259850,4325386,3997730,396825,0,0,165,1,3,1,3,3,0,0,0,0,0,0,0
52827604,52827238,1.0323135e-08,4.8143636e-05,0.007959012,0.0018957083,0.022044318,0.09360934,8389347,0,4.3686094,0.53298056,0.084704444,0.0,0.09259251,0.001840118,0.0,0.0,0.0,0.0,4259850,4325386,3997730,396825,0,0,165,1,3,1,3,3,0,0,0,0,0,0,0
53033856,53030046,9.291021e-09,4.8761067e-05,0.007868277,0.0018452145,0.02180645,0.095521286,8389347,0,4.342323,0.53122425,0.09161079,0.0,0.09116799,0.0008487939,0.0,0.0,0.0,0.0,4259850,4325386,3997730,396825,0,0,165,1,3,1,3,3,0,0,0,0,0,0,0
53422827,53422339,9.574478e-09,5.423992e-05,0.0069565857,0.001176202,0.021886393,0.100470796,8389267,0,4.2814837,0.5325306,0.046494707,0.0,0.089057736,0.001552466,0.0,0.0,0.0,0.0,4259850,4325386,3997730,396825,0,0,165,1,3,1,3,3,0,0,0,0,0,0,0
53621078,53620431,7.957871e-09,5.3325308e-05,0.0065667564,0.0014287801,0.021853661,0.10247067,8389267,0,4.2562633,0.5306813,0.06971883,0.0,0.08882409,0.0035763537,0.0,0.0,0.0,0.0,4259850,4325386,3997730,396825,0,0,165,1,3,1,3,3,0,0,0,0,0,0,0
53828903,53827931,6.783451e-09,4.85916e-05,0.006552012,0.0017594266,0.019593136,0.09371603,8389267,0,4.2397227,0.5361058,0.07155982,0.0,0.08830723,0.0044641052,0.0,0.0,0.0,0.0,4259850,4325386,3997730,396825,0,0,165,1,3,1,3,3,0,0,0,0,0,0,0
54026765,54026042,7.961355e-09,4.7676775e-05,0.006392762,0.001811757,0.01922664,0.09355526,8389267,0,4.215311,0.53415364,0.08547487,0.0,0.08734279,0.008257089,0.0,0.0,0.0,0.0,4259850,4325386,3997730,396825,0,0,165,1,3,1,3,3,0,0,0,0,0,0,0
54224918,54224387,1.3624736e-08,5.2648495e-05,0.006263199,0.0016811326,0.020890092,0.10458552,8389267,0,4.1910477,0.5322347,0.06910609,0.0,0.0865449,0.015210556,0.0,0.0,0.0,0.0,4259850,4325386,3997730,396825,0,0,165,1,3,1,3,3,0,0,0,0,0,0,0
54428293,54427145,1.3209992e-08,5.465376e-05,0.0062230234,0.0016679466,0.0208563,0.10594198,8389267,0,4.1676893,0.5303128,0.0747811,0.0,0.08560821,0.0035464624,0.0,0.0,0.0,0.0,4259850,4325386,3997730,396825,0,0,165,1,3,1,3,3,0,0,0,0,0,0,0
54617707,54616666,1.1942609e-08,5.3782485e-05,0.0063366923,0.0014522712,0.028414907,0.13135442,8389267,0,4.3264084,0.53343457,0.048091095,0.0,0.08560821,0.012898984,0.0,0.0,0.0,0.0,4259850,4325386,3997730,396825,0,0,165,1,3,1,3,3,0,0,0,0,0,0,0
54824238,54823830,1.7038245e-08,5.6334786e-05,0.0067137755,0.0011199665,0.028093234,0.12931785,8389267,0,4.3095717,0.53265977,0.033374295,0.0,0.08550718,0.02179465,0.0,0.0,0.0,0.0,4259850,4325386,3997730,396825,0,0,165,1,3,1,3,3,0,0,0,0,0,0,0
55022685,55022320,1.8953164e-08,5.8439757e-05,0.0075863353,0.0007981394,0.025552118,0.11525002,8389267,0,4.284671,0.53072375,0.025985409,0.0,0.08571724,0.02042516,0.0,0.0,0.0,0.0,4259850,4325386,3997730,396825,0,0,165,1,3,1,3,3,0,0,0,0,0,0,0
55229979,55229428,1.3889657e-08,5.590559e-05,0.007894593,0.0013842739,0.02422051,0.10908514,8389267,0,4.260208,0.5287822,0.07767062,0.0,0.08577272,0.010019092,0.0,0.0,0.0,0.0,4259850,4325386,3997730,396825,0,0,165,1,3,1,3,3,0,0,0,0,0,0,0
55428225,55427860,1.2482438e-08,5.677181e-05,0.008033072,0.0012179164,0.022333257,0.10271727,8389267,0,4.236896,0.53300256,0.036175653,0.0,0.0863101,0.016113093,0.0,0.0,0.0,0.0,4259850,4325386,3997730,396825,0,0,165,1,3,1,3,3,0,0,0,0,0,0,0
55626645,55625950,1.3481465e-08,5.4119446e-05,0.007951061,0.0007937577,0.021255825,0.09986084,8389267,0,4.21465,0.5311263,0.031370062,0.0,0.086032845,0.017725965,0.0,0.0,0.0,0.0,4259850,4325386,3997730,396825,0,0,165,1,3,1,3,3,0,0,0,0,0,0,0
55825873,55824248,1.10046585e-08,5.187628e-05,0.007375971,0.0011973181,0.019147871,0.087439716,8389267,0,4.184862,0.5280564,0.06280377,0.0,0.08610009,0.011261591,0.0,0.0,0.0,0.0,4259850,4325386,3997730,396825,0,0,165,1,3,1,3,3,0,0,0,0,0,0,0
56018652,56018161,1.288198e-08,5.198982e-05,0.00683926,0.0014080798,0.021464242,0.09782737,8389267,0,4.1725354,0.52731735,0.06990701,0.0,0.085490674,0.012382745,0.0,0.0,0.0,0.0,4259850,4325386,3997730,396825,0,0,165,1,3,1,3,3,0,0,0,0,0,0,0
56424498,56423762,8.118305e-09,4.767756e-05,0.007734044,0.0017696804,0.017887985,0.07952638,8389267,0,4.124457,0.52842116,0.056692194,0.0,0.086684175,0.018066958,0.0,0.0,0.0,0.0,4259850,4325386,3997730,396825,0,0,165,1,3,1,3,3,0,0,0,0,0,0,0
56622619,56622193,6.574846e-09,4.6647274e-05,0.0072445865,0.0017365043,0.017644022,0.07948353,8389267,0,4.105664,0.5265503,0.081162944,0.0,0.086740315,0.022392357,0.0,0.0,0.0,0.0,4259850,4325386,3997730,396825,0,0,165,1,3,1,3,3,0,0,0,0,0,0,0
56829851,56829364,6.9141546e-09,4.7503465e-05,0.007248814,0.0021403583,0.019373639,0.0894165,8389267,0,4.0951505,0.5258322,0.09037492,0.0,0.08668458,0.009623643,0.0,0.0,0.0,0.0,4259850,4325386,3997730,396825,0,0,165,1,3,1,3,3,0,0,0,0,0,0,0
57029136,57027799,1.0848355e-08,5.1676e-05,0.0071623255,0.0019084155,0.017882142,0.08159235,8389267,0,4.077156,0.529967,0.09435955,0.0,0.086597905,0.0063539934,0.0,0.0,0.0,0.0,4259850,4325386,3997730,396825,0,0,165,1,3,1,3,3,0,0,0,0,0,0,0
57226608,57225859,1.7068087e-08,5.3941752e-05,0.006920161,0.0013114326,0.017241478,0.07610239,8389267,0,4.060007,0.52807164,0.064022094,0.0,0.08608008,0.023613682,0.0,0.0,0.0,0.0,4259850,4325386,3997730,396825,0,0,165,1,3,1,3,3,0,0,0,0,0,0,0
57424758,57424158,1.3007162e-08,5.362848e-05,0.007167297,0.001102946,0.015396126,0.067442454,8389267,0,4.043136,0.52617955,0.05416787,0.0,0.08531081,0.018180996,0.0,0.0,0.0,0.0,4259850,4325386,3997730,396825,0,0,165,1,3,1,3,3,0,0,0,0,0,0,0
57618478,57618113,2.050471e-08,5.7153098e-05,0.0070416247,0.001140902,0.0142283635,0.064451225,8389267,0,4.0271854,0.5303034,0.059042018,0.0,0.0838548,0.0071580224,0.0,0.0,0.0,0.0,4259850,4325386,3997730,396825,0,0,165,1,3,1,3,3,0,0,0,0,0,0,0
57821243,57820758,3.3234098e-08,6.3983294e-05,0.0067824177,0.0016570004,0.014034,0.06415005,8389267,0,4.0115232,0.52835816,0.055492163,0.0,0.082096614,0.009895371,0.0,0.0,0.0,0.0,4259850,4325386,3997730,396825,0,0,165,1,3,1,3,3,0,0,0,0,0,0,0
58024191,58023701,2.7164672e-08,6.0963277e-05,0.0070326137,0.0018999275,0.015266812,0.06919495,8389267,0,3.996706,0.5264237,0.10404155,0.0,0.0797933,0.016413553,0.0,0.0,0.0,0.0,4259850,4325386,3997730,396825,0,0,165,1,3,1,3,3,0,0,0,0,0,0,0
58227530,58226371,2.8611266e-08,6.0556038e-05,0.007316722,0.0027283793,0.016745511,0.077934854,8389267,0,3.9827058,0.5245186,0.12554683,0.0,0.07705338,0.0131894,0.0,0.0,0.0,0.0,4259850,4325386,3997730,396825,0,0,165,1,3,1,3,3,0,0,0,0,0,0,0
58422780,58420160,4.365455e-08,6.875486e-05,0.0076844436,0.0028352614,0.012937955,0.07408134,8389347,0,3.969278,0.52859485,0.13461457,0.0,0.07381583,0.020464115,0.0,0.0,0.0,0.0,4259850,4325386,3997730,396825,0,0,165,1,3,1,3,3,0,0,0,0,0,0,0
58628169,58627739,5.9399344e-08,7.042557e-05,0.009752905,0.0054443968,0.0155712925,0.053638317,8389347,0,3.9553852,0.5266483,0.13093676,0.0,0.06945055,0.019601636,0.0,0.0,0.0,0.0,4259850,4325386,3997730,396825,0,0,165,1,3,1,3,3,0,0,0,0,0,0,0
58827976,58825772,8.320613e-08,8.5392065e-05,0.011524379,0.0043782094,0.019906621,0.06025257,8389347,0,3.9424539,0.52476656,0.14558262,0.0,0.064525865,0.015921177,0.0,0.0,0.0,0.0,4259850,4325386,3997730,396825,0,0,165,1,3,1,3,3,0,0,0,0,0,0,0
59029068,59028580,9.3591375e-08,8.9788155e-05,0.010716166,0.0014429761,0.016617075,0.067177676,8389347,0,3.9299874,0.52292216,0.067941956,0.0,0.060219683,0.01926752,0.0,0.0,0.0,0.0,4259850,4325386,3997730,396825,0,0,165,1,3,1,3,3,0,0,0,0,0,0,0
59431763,59429687,1.04997625e-07,0.000100173354,0.01008086,0.004996647,0.03611626,0.11937191,8389347,0,3.907079,0.5251752,0.20712526,0.0,0.055222917,0.012617225,0.0,0.0,0.0,0.0,4259850,4325386,3997730,396825,0,0,165,1,3,1,3,3,0,0,0,0,0,0,0
59624327,59623661,1.0627395e-07,9.8228666e-05,0.009812631,0.0042004585,0.039551634,0.12128947,8389347,0,3.8968282,0.5234252,0.19572271,0.0,0.05397818,0.010835058,0.0,0.0,0.0,0.0,4259850,4325386,3997730,396825,0,0,165,1,3,1,3,3,0,0,0,0,0,0,0
59831207,59826284,1.00993205e-07,9.485046e-05,0.009315234,0.0021265852,0.046400588,0.11560874,8389347,0,3.8869174,0.5216321,0.24182886,0.0,0.05529398,0.006537899,0.0,0.0,0.0,0.0,4259850,4325386,3997730,396825,0,0,165,1,3,1,3,3,0,0,0,0,0,0,0
60029624,60029250,8.700104e-08,8.964046e-05,0.00847161,0.0017906306,0.04483193,0.10965773,8389347,0,3.884752,0.5268186,0.22828534,0.0,0.058515277,0.020057308,0.0,0.0,0.0,0.0,4259850,4325386,3997730,396825,0,0,165,1,3,1,3,3,0,0,0,0,0,0,0
60228726,60227689,7.654739e-08,8.08568e-05,0.0075435415,0.0022371174,0.043866485,0.09243754,8389347,0,3.8688416,0.5238809,0.26613984,0.0,0.062256113,0.010921272,0.0,0.0,0.0,0.0,4259850,4325386,3997730,396825,0,0,165,1,3,1,3,3,0,0,0,0,0,0,0
60428152,60425702,6.437537e-08,7.6777345e-05,0.007967616,0.002605885,0.047969956,0.08871071,8389347,0,3.8599482,0.5220693,0.30754754,0.0,0.067247786,0.01773836,0.0,0.0,0.0,0.0,4259850,4325386,3997730,396825,0,0,165,1,3,1,3,3,0,0,0,0,0,0,0
60621574,60619558,5.001466e-08,7.423681e-05,0.008555767,0.0029499957,0.048482127,0.07534031,8389347,0,3.8448708,0.5250447,0.31357276,0.0,0.071363136,0.007279012,0.0,0.0,0.0,0.0,4259850,4325386,3997730,396825,0,0,165,1,3,1,3,3,0,0,0,0,0,0,0
60824521,60822295,3.4447602e-08,6.833487e-05,0.008691675,0.002303618,0.04164806,0.06015359,8389347,0,3.8436213,0.52435046,0.2708899,0.0,0.0765722,0.0024429716,0.0,0.0,0.0,0.0,4259850,4325386,3997730,396825,0,0,165,1,3,1,3,3,0,0,0,0,0,0,0
61027543,61025162,2.6256874e-08,6.0915627e-05,0.008687821,0.0019423353,0.026632344,0.051547766,8389347,0,3.8355806,0.52252346,0.24708521,0.0,0.08108924,0.021930214,0.0,0.0,0.0,0.0,4259850,4325386,3997730,396825,0,0,165,1,3,1,3,3,0,0,0,0,0,0,0
61219391,61218931,2.3284699e-08,5.7759684e-05,0.008110245,0.0017833505,0.015296235,0.07680894,8389347,0,3.827562,0.5207283,0.31575844,0.0,0.08518746,0.014954403,0.0,0.0,0.0,0.0,4259850,4325386,3997730,396825,0,0,165,1,3,1,3,3,0,0,0,0,0,0,0
61422310,61421736,1.8422433e-08,5.7646612e-05,0.008264146,0.002576219,0.015171306,0.11693614,8389347,0,3.81964,0.52474236,0.2809421,0.0,0.08845999,0.019750632,0.0,0.0,0.0,0.0,4259850,4325386,3997730,396825,0,0,165,1,3,1,3,3,0,0,0,0,0,0,0
61629559,61629192,2.6855558e-08,6.768931e-05,0.00917366,0.0034443792,0.025314076,0.15140836,8389347,0,3.8124049,0.52295715,0.27064967,0.0,0.09102122,0.015467941,0.0,0.0,0.0,0.0,4259850,4325386,3997730,396825,0,0,165,1,3,1,3,3,0,0,0,0,0,0,0
61823235,61822797,3.902333e-08,7.181745e-05,0.010020543,0.0027760593,0.029453672,0.18054557,8389347,0,3.7991939,0.52015376,0.21370253,0.0,0.09311872,0.007143995,0.0,0.0,0.0,0.0,4259850,4325386,3997730,396825,0,0,165,1,3,1,3,3,0,0,0,0,0,0,0
62026211,62025603,5.2350355e-08,7.7038756e-05,0.0094473185,0.0021269028,0.028330078,0.17966682,8389347,0,3.7996502,0.519554,0.21516131,0.0,0.09583452,0.0058501284,0.0,0.0,0.0,0.0,4259850,4325386,3997730,396825,0,0,165,1,3,1,3,3,0,0,0,0,0,0,0
62228783,62228411,6.5742036e-08,8.1070415e-05,0.008947811,0.0015417767,0.022372127,0.17804286,8389347,0,3.7937942,0.523667,0.19202998,0.0,0.0979807,0.008871544,0.0,0.0,0.0,0.0,4259850,4325386,3997730,396825,0,0,165,1,3,1,3,3,0,0,0,0,0,0,0
62432232,62431218,6.809936e-08,8.519569e-05,0.008421424,0.0018480566,0.017593266,0.15818341,8389347,0,3.7944183,0.52305984,0.36905235,0.0,0.101934776,0.0021283722,0.0,0.0,0.0,0.0,4259850,4325386,3997730,396825,0,0,165,1,3,1,3,3,0,0,0,0,0,0,0
62627288,62625105,7.059586e-08,8.325851e-05,0.007357161,0.0025653087,0.0211058,0.1575499,8389347,0,3.7818878,0.52022797,0.38639298,0.0,0.1057712,0.0015782862,0.0,0.0,0.0,0.0,4259850,4325386,3997730,396825,0,0,165,1,3,1,3,3,0,0,0,0,0,0,0
62824314,62823547,6.970696e-08,8.2427105e-05,0.006925637,0.0029079393,0.054769225,0.15275684,8389347,0,3.9189067,0.5185298,0.39298058,0.0,0.1057712,0.011852865,0.0,0.0,0.0,0.0,4259850,4325386,3997730,396825,0,0,165,1,3,1,3,3,0,0,0,0,0,0,0
63032742,63030721,6.720943e-08,7.8138226e-05,0.006716338,0.0024412642,0.052716296,0.14651382,8389347,0,3.9128897,0.52261204,0.29011694,0.0,0.11141411,0.0016425513,0.0,0.0,0.0,0.0,4259850,4325386,3997730,396825,0,0,165,1,3,1,3,3,0,0,0,0,0,0,0
63224861,63224461,6.161081e-08,7.466893e-05,0.006474628,0.0022045,0.046807636,0.1350639,8389347,0,3.9072955,0.5208882,0.3545591,0.0,0.11520106,0.0063502514,0.0,0.0,0.0,0.0,4259850,4325386,3997730,396825,0,0,165,1,3,1,3,3,0,0,0,0,0,0,0
63428655,63427267,5.7969714e-08,7.306742e-05,0.0062768017,0.0023640534,0.04495717,0.13076892,8389347,0,3.9015012,0.519168,0.33428705,0.0,0.12032693,0.004905539,0.0,0.0,0.0,0.0,4259850,4325386,3997730,396825,0,0,165,1,3,1,3,3,0,0,0,0,0,0,0
63623645,63621026,5.5382515e-08,7.243354e-05,0.007003199,0.002687649,0.051040657,0.14104551,8389347,0,3.8960469,0.5232275,0.34099188,0.0,0.124445744,0.004010419,0.0,0.0,0.0,0.0,4259850,4325386,3997730,396825,0,0,165,1,3,1,3,3,0,0,0,0,0,0,0
63819842,63819456,5.3826874e-08,7.10933e-05,0.0068012998,0.0025129346,0.046356708,0.13100968,8389347,0,3.8906026,0.52150905,0.2975267,0.0,0.13017075,0.0019915914,0.0,0.0,0.0,0.0,4259850,4325386,3997730,396825,0,0,165,1,3,1,3,3,0,0,0,0,0,0,0
64031425,64026708,5.206812e-08,6.8494846e-05,0.006523137,0.0023842275,0.04438811,0.12722485,8389347,0,3.8854866,0.5197957,0.2597664,0.0,0.13428167,0.0055413498,0.0,0.0,0.0,0.0,4259850,4325386,3997730,396825,0,0,165,1,3,1,3,3,0,0,0,0,0,0,0
64225528,64225074,4.9776613e-08,6.509656e-05,0.0062389458,0.001901804,0.035425264,0.11245249,8389347,0,3.8802602,0.5181082,0.2378256,0.0,0.14049144,0.0054207332,0.0,0.0,0.0,0.0,4259850,4325386,3997730,396825,0,0,165,1,3,1,3,3,0,0,0,0,0,0,0
64423768,64423232,5.0040317e-08,6.7097026e-05,0.0061449837,0.0016054428,0.03238714,0.10783778,8389347,0,3.8752003,0.52218336,0.19519474,0.0,0.1444078,0.001194545,0.0,0.0,0.0,0.0,4259850,4325386,3997730,396825,0,0,165,1,3,1,3,3,0,0,0,0,0,0,0
64623763,64621574,5.122382e-08,6.811416e-05,0.006410412,0.001650136,0.033884596,0.114634864,8389347,0,3.8629217,0.51941955,0.18857884,0.0,0.14972545,0.0025435607,0.0,0.0,0.0,0.0,4259850,4325386,3997730,396825,0,0,165,1,3,1,3,3,0,0,0,0,0,0,0
64822284,64819833,5.3942937e-08,6.83047e-05,0.006891569,0.0019752108,0.034751244,0.11012965,8389347,0,3.857728,0.5177961,0.22288592,0.0,0.15474063,0.0032238294,0.0,0.0,0.0,0.0,4259850,4325386,3997730,396825,0,0,165,1,3,1,3,3,0,0,0,0,0,0,0
65027742,65027188,5.8939484e-08,7.108958e-05,0.007216394,0.0021004886,0.03738539,0.10974842,8389347,0,3.8529382,0.5219006,0.2086467,0.0,0.16177958,3.465695e-05,0.0,0.0,0.0,0.0,4259850,4325386,3997730,396825,0,0,165,1,3,1,3,3,0,0,0,0,0,0,0
65227565,65225443,6.302271e-08,7.402469e-05,0.0074501727,0.0024059284,0.04259652,0.108695,8389347,0,3.8552995,0.5213326,0.24087436,0.0,0.16948223,0.003421694,0.0,0.0,0.0,0.0,4259850,4325386,3997730,396825,0,0,165,1,3,1,3,3,0,0,0,0,0,0,0
65421731,65419415,7.321947e-08,7.841377e-05,0.007247255,0.0018746086,0.03894001,0.11343624,8389347,0,3.843864,0.5185857,0.14701739,0.0,0.17876054,0.005135919,0.0,0.0,0.0,0.0,4259850,4325386,3997730,396825,0,0,165,1,3,1,3,3,0,0,0,0,0,0,0
65628908,65626582,7.692229e-08,8.020462e-05,0.0075780265,0.0015163204,0.034826178,0.10699172,8389347,0,3.8463857,0.5179712,0.19636053,0.0,0.18622836,0.004626071,0.0,0.0,0.0,0.0,4259850,4325386,3997730,396825,0,0,165,1,3,1,3,3,0,0,0,0,0,0,0
65825378,65825016,7.809901e-08,8.0238824e-05,0.0076117744,0.0014187424,0.03665672,0.12267568,8389347,0,3.8419344,0.5220347,0.20587714,0.0,0.19505765,0.017635003,0.0,0.0,0.0,0.0,4259850,4325386,3997730,396825,0,0,165,1,3,1,3,3,0,0,0,0,0,0,0
66028084,66027657,9.029533e-08,9.19296e-05,0.008628291,0.001677359,0.043829195,0.15359199,8389347,0,3.837288,0.5203617,0.2611654,0.0,0.20196025,0.008146114,0.0,0.0,0.0,0.0,4259850,4325386,3997730,396825,0,0,165,1,3,1,3,3,0,0,0,0,0,0,0
66232637,66230682,1.0172665e-07,9.370715e-05,0.008684865,0.0021222595,0.046441596,0.159865,8389347,0,3.8328998,0.51871735,0.2521813,0.0,0.20811965,0.0009679145,0.0,0.0,0.0,0.0,4259850,4325386,3997730,396825,0,0,165,1,3,1,3,3,0,0,0,0,0,0,0
66430919,66428765,1.09976696e-07,0.00010363669,0.008544579,0.0022008447,0.044979118,0.1589218,8389347,0,3.828867,0.51710016,0.15344179,0.0,0.21379568,0.0062690107,0.0,0.0,0.0,0.0,4259850,4325386,3997730,396825,0,0,165,1,3,1,3,3,0,0,0,0,0,0,0
66628310,66627111,1.1532336e-07,0.00010355245,0.008673371,0.0018588434,0.047115996,0.17656687,8389347,0,3.8249195,0.5211707,0.24271083,0.0,0.22003722,0.009000648,0.0,0.0,0.0,0.0,4259850,4325386,3997730,396825,0,0,165,1,3,1,3,3,0,0,0,0,0,0,0
66830079,66825366,1.2556977e-07,0.00010876198,0.009305428,0.0020339643,0.04487079,0.17751458,8389347,0,3.8211555,0.51953226,0.2585148,0.0,0.22564101,0.006264129,0.0,0.0,0.0,0.0,4259850,4325386,3997730,396825,0,0,165,1,3,1,3,3,0,0,0,0,0,0,0
67019792,67019372,1.1997709e-07,9.992383e-05,0.0095763225,0.00237309,0.0483318,0.19832708,8389347,0,3.8174553,0.5178983,0.21552981,0.0,0.23260714,0.00012418152,0.0,0.0,0.0,0.0,4259850,4325386,3997730,396825,0,0,165,1,3,1,3,3,0,0,0,0,0,0,0
67229658,67226548,1.2231148e-07,0.00010689296,0.009106483,0.0032434969,0.063916735,0.2513602,8389347,0,3.8136663,0.5162486,0.2335496,0.0,0.23736168,0.0029042186,0.0,0.0,0.0,0.0,4259850,4325386,3997730,396825,0,0,165,1,3,1,3,3,0,0,0,0,0,0,0
67425354,67424979,1.2449851e-07,9.907494e-05,0.008652979,0.004738203,0.07131437,0.28181964,8389347,0,3.809607,0.52030677,0.23969705,0.0,0.24257416,0.006496353,0.0,0.0,0.0,0.0,4259850,4325386,3997730,396825,0,0,165,1,3,1,3,3,0,0,0,0,0,0,0
67625276,67623075,1.2838599e-07,0.000113204,0.008964417,0.0050080093,0.0767519,0.31946573,8389347,0,3.7991858,0.51764977,0.30180347,0.0,0.24742003,0.013719971,0.0,0.0,0.0,0.0,4259850,4325386,3997730,396825,0,0,165,1,3,1,3,3,0,0,0,0,0,0,0
67833416,67830580,1.2972927e-07,0.00010533301,0.008435258,0.004638581,0.05434877,0.24860051,8389347,0,3.8090405,0.51819247,0.34008282,0.0,0.25377348,0.008122352,0.0,0.0,0.0,0.0,4259850,4325386,3997730,396825,0,0,165,1,3,1,3,3,0,0,0,0,0,0,0
68026665,68024228,1.3134726e-07,0.00011732791,0.0077838455,0.0045311144,0.04964491,0.27607688,8389347,0,3.7984593,0.5212286,0.3407619,0.0,0.26033702,0.014409663,0.0,0.0,0.0,0.0,4259850,4325386,3997730,396825,0,0,165,1,3,1,3,3,0,0,0,0,0,0,0
68229295,68227036,1.3634377e-07,0.00012322597,0.0073429067,0.004205985,0.029475622,0.23786901,8389347,0,3.7950892,0.5195912,0.33732215,0.0,0.2673613,0.00094630854,0.0,0.0,0.0,0.0,4259850,4325386,3997730,396825,0,0,165,1,3,1,3,3,0,0,0,0,0,0,0
68430685,68429844,1.4791057e-07,0.00012794837,0.007229787,0.004073342,0.03115449,0.26939437,8389347,0,3.7918828,0.51800907,0.35895613,0.0,0.2793794,0.009798019,0.0,0.0,0.0,0.0,4259850,4325386,3997730,396825,0,0,165,1,3,1,3,3,0,0,0,0,0,0,0
68622417,68619340,1.3568045e-07,0.00011994606,0.007246489,0.0041546705,0.032987427,0.3117188,8389347,0,3.7822995,0.5154026,0.42018187,0.0,0.28959495,0.011798515,0.0,0.0,0.0,0.0,4259850,4325386,3997730,396825,0,0,165,1,3,1,3,3,0,0,0,0,0,0,0
68828525,68826507,1.4225866e-07,0.00012878614,0.0066770776,0.0033963071,0.02587168,0.29623604,8389347,0,3.7862217,0.5205983,0.38700384,0.0,0.3028959,0.0037757661,0.0,0.0,0.0,0.0,4259850,4325386,3997730,396825,0,0,165,1,3,1,3,3,0,0,0,0,0,0,0
69023203,69020194,1.4043654e-07,0.000119685625,0.0065971776,0.0024028593,0.039867047,0.36793843,8389347,0,3.7769547,0.5179709,0.3500657,0.0,0.3148606,0.004109106,0.0,0.0,0.0,0.0,4259850,4325386,3997730,396825,0,0,165,1,3,1,3,3,0,0,0,0,0,0,0
69427886,69425809,1.3840487e-07,0.000116435505,0.007554588,0.00044262438,0.07021254,0.44669628,8389347,0,3.7798002,0.51603407,0.2999489,0.0,0.34305495,0.009773706,0.0,0.0,0.0,0.0,4259850,4325386,3997730,396825,0,0,165,1,3,1,3,3,0,0,0,0,0,0,0
69629215,69628617,1.3690394e-07,0.0001226718,0.0075469534,0.00049653556,0.087971196,0.51073784,8389347,0,3.7781544,0.5201873,0.299221,0.0,0.3585852,0.002864046,0.0,0.0,0.0,0.0,4259850,4325386,3997730,396825,0,0,165,1,3,1,3,3,0,0,0,0,0,0,0
69831715,69826963,1.2934372e-07,0.00010935863,0.007881267,0.0007100193,0.10154916,0.5604,8389347,0,3.7767003,0.51867074,0.2386524,0.0,0.3724824,0.005451366,0.0,0.0,0.0,0.0,4259850,4325386,3997730,396825,0,0,165,1,3,1,3,3,0,0,0,0,0,0,0
70023199,70020861,1.2141878e-07,0.00010607436,0.0072149513,0.0008794917,0.13003357,0.69717664,8389347,0,3.7682645,0.5161464,0.2364348,0.0,0.3880432,0.012048128,0.0,0.0,0.0,0.0,4259850,4325386,3997730,396825,0,0,165,1,3,1,3,3,0,0,0,0,0,0,0
70224062,70223527,1.00990064e-07,9.220574e-05,0.0071725603,0.0017154689,0.15893534,0.7796695,8389347,0,3.7734315,0.5157169,0.25035554,0.0,0.39981294,0.009352982,0.0,0.0,0.0,0.0,4259850,4325386,3997730,396825,0,0,165,1,3,1,3,3,0,0,0,0,0,0,0
70430999,70426471,8.4712845e-08,8.8232206e-05,0.007675294,0.0016735261,0.16431542,0.8125061,8389347,0,3.7717772,0.51987106,0.2758695,0.0,0.4108204,0.0047962214,0.0,0.0,0.0,0.0,4259850,4325386,3997730,396825,0,0,165,1,3,1,3,3,0,0,0,0,0,0,0
70627786,70624629,7.9060364e-08,8.110195e-05,0.0076418687,0.0018851664,0.18722326,0.9092402,8389347,0,3.7698002,0.51833797,0.23340388,0.0,0.42081788,0.012918453,0.0,0.0,0.0,0.0,4259850,4325386,3997730,396825,0,0,165,1,3,1,3,3,0,0,0,0,0,0,0
70825037,70822929,7.3074816e-08,7.853071e-05,0.007112046,0.00213645,0.051599067,0.08712135,8389347,0,3.9090207,0.5168484,0.17922378,0.0,0.42081788,0.012103558,0.0,0.0,0.0,0.0,4259850,4325386,3997730,396825,0,0,165,1,3,1,3,3,0,0,0,0,0,0,0
71017214,71016850,6.8839945e-08,7.337838e-05,0.0069608255,0.0025635702,0.06837542,0.1405587,8389347,0,3.8992221,0.5199846,0.15102383,0.0,0.43183398,0.0049648033,0.0,0.0,0.0,0.0,4259850,4325386,3997730,396825,0,0,165,1,3,1,3,3,0,0,0,0,0,0,0
71229123,71228545,6.8251595e-08,7.5413445e-05,0.006898812,0.0032597452,0.0791127,0.15291527,8389347,0,3.9034622,0.51955813,0.23924224,0.0,0.43704593,0.0021105786,0.0,0.0,0.0,0.0,4259850,4325386,3997730,396825,0,0,165,1,3,1,3,3,0,0,0,0,0,0,0
71429242,71426892,7.0882045e-08,7.522184e-05,0.007664932,0.0035980411,0.09858423,0.21404426,8389347,0,3.9002101,0.51808834,0.27165952,0.0,0.44234353,0.008335785,0.0,0.0,0.0,0.0,4259850,4325386,3997730,396825,0,0,165,1,3,1,3,3,0,0,0,0,0,0,0
71624288,71620830,7.609077e-08,8.587198e-05,0.007971073,0.0033958477,0.110769205,0.28430623,8389347,0,3.8896408,0.51560444,0.19858871,0.0,0.44612843,0.0011237302,0.0,0.0,0.0,0.0,4259850,4325386,3997730,396825,0,0,165,1,3,1,3,3,0,0,0,0,0,0,0
71828444,71828010,6.367641e-08,8.065716e-05,0.008639705,0.0026016382,0.09706763,0.2510337,8389347,0,3.8928728,0.5209366,0.27885944,0.0,0.44959226,0.011468321,0.0,0.0,0.0,0.0,4259850,4325386,3997730,396825,0,0,165,1,3,1,3,3,0,0,0,0,0,0,0
72028445,72026437,5.446147e-08,7.5916854e-05,0.0089332415,0.0032738142,0.113265,0.31071964,8389347,0,3.888438,0.51944923,0.2641624,0.0,0.45073184,0.012179045,0.0,0.0,0.0,0.0,4259850,4325386,3997730,396825,0,0,165,1,3,1,3,3,0,0,0,0,0,0,0
72229699,72229068,3.9498637e-08,7.0309135e-05,0.009557271,0.0035807642,0.11471666,0.33179682,8389347,0,3.883859,0.5179764,0.26593694,0.0,0.45065394,0.012822237,0.0,0.0,0.0,0.0,4259850,4325386,3997730,396825,0,0,165,1,3,1,3,3,0,0,0,0,0,0,0
72423741,72422860,3.1236194e-08,6.73742e-05,0.009011434,0.003808188,0.10820628,0.33630735,8389347,0,3.8724692,0.515478,0.3119991,0.0,0.44858688,0.0041313805,0.0,0.0,0.0,0.0,4259850,4325386,3997730,396825,0,0,165,1,3,1,3,3,0,0,0,0,0,0,0
72627785,72625668,2.7651543e-08,6.46378e-05,0.008449272,0.0037915434,0.08397632,0.26336765,8389347,0,3.8745024,0.5207589,0.1887699,0.0,0.4491681,0.00038004213,0.0,0.0,0.0,0.0,4259850,4325386,3997730,396825,0,0,165,1,3,1,3,3,0,0,0,0,0,0,0
72829073,72828476,2.563531e-08,6.445456e-05,0.008822507,0.003462836,0.070145555,0.23119788,8389347,0,3.8694122,0.5192484,0.21960558,0.0,0.44693178,0.014584978,0.0,0.0,0.0,0.0,4259850,4325386,3997730,396825,0,0,165,1,3,1,3,3,0,0,0,0,0,0,0
73023042,73022372,2.8837489e-08,6.3424704e-05,0.00879117,0.0036393264,0.07647213,0.27315986,8389347,0,3.8568015,0.5166873,0.2199534,0.0,0.44702518,0.015124419,0.0,0.0,0.0,0.0,4259850,4325386,3997730,396825,0,0,165,1,3,1,3,3,0,0,0,0,0,0,0
73223155,73220798,2.8664944e-08,6.318069e-05,0.00989877,0.004098918,0.08025526,0.28192413,8389347,0,3.851076,0.51522964,0.26642755,0.0,0.44499037,0.018999528,0.0,0.0,0.0,0.0,4259850,4325386,3997730,396825,0,0,165,1,3,1,3,3,0,0,0,0,0,0,0
73428362,73427985,3.1089396e-08,6.660545e-05,0.009615926,0.00410944,0.07060665,0.25193763,8389347,0,3.8518143,0.5204833,0.29055035,0.0,0.44355014,0.007996015,0.0,0.0,0.0,0.0,4259850,4325386,3997730,396825,0,0,165,1,3,1,3,3,0,0,0,0,0,0,0
73630821,73626406,3.3266478e-08,6.972363e-05,0.009685712,0.004518472,0.08633964,0.29875556,8389347,0,3.845702,0.5189403,0.33501464,0.0,0.43801263,0.0027431713,0.0,0.0,0.0,0.0,4259850,4325386,3997730,396825,0,0,165,1,3,1,3,3,0,0,0,0,0,0,0
73829356,73828997,2.7655187e-08,6.9401605e-05,0.009401313,0.0038580794,0.06667653,0.25322062,8389267,0,3.840019,0.51742274,0.14445877,0.0,0.43405974,0.0027428302,0.0,0.0,0.0,0.0,4259850,4325386,3997730,396825,0,0,165,1,3,1,3,3,0,0,0,0,0,0,0
74023376,74022792,2.6046814e-08,6.0448467e-05,0.008506452,0.0026293187,0.04408892,0.20039694,8389267,0,3.8341453,0.5216271,0.09412102,0.0,0.43668094,0.011048321,0.0,0.0,0.0,0.0,4259850,4325386,3997730,396825,0,0,165,1,3,1,3,3,0,0,0,0,0,0,0
74428949,74428408,2.8432847e-08,6.559775e-05,0.008635799,0.0019548403,0.026058156,0.13027896,8389267,0,3.8226688,0.51856315,0.072742194,0.0,0.44016427,0.012099394,0.0,0.0,0.0,0.0,4259850,4325386,3997730,396825,0,0,165,1,3,1,3,3,0,0,0,0,0,0,0
74622876,74622393,3.2678994e-08,6.3670814e-05,0.007729007,0.0020895891,0.022012565,0.12299194,8389267,0,3.816632,0.51708335,0.0764293,0.0,0.44445932,0.006603036,0.0,0.0,0.0,0.0,4259850,4325386,3997730,396825,0,0,165,1,3,1,3,3,0,0,0,0,0,0,0
74825584,74825016,3.232948e-08,6.1338076e-05,0.007172564,0.0021180636,0.020624677,0.11914677,8389267,0,3.8108094,0.52123153,0.091496766,0.0,0.44529006,0.0026823927,0.0,0.0,0.0,0.0,4259850,4325386,3997730,396825,0,0,165,1,3,1,3,3,0,0,0,0,0,0,0
75023686,75023315,3.2663777e-08,6.250793e-05,0.007645432,0.0022069477,0.020752093,0.13183779,8389267,0,3.804636,0.5196745,0.057354834,0.0,0.4480896,0.0048136176,0.0,0.0,0.0,0.0,4259850,4325386,3997730,396825,0,0,165,1,3,1,3,3,0,0,0,0,0,0,0
75226757,75226383,3.4129584e-08,6.534564e-05,0.0072054146,0.0019505877,0.020671979,0.13433261,8389267,0,3.7986004,0.5180775,0.07669981,0.0,0.44762194,0.007512764,0.0,0.0,0.0,0.0,4259850,4325386,3997730,396825,0,0,165,1,3,1,3,3,0,0,0,0,0,0,0
75425215,75424429,3.124593e-08,6.406158e-05,0.0068758815,0.0021302355,0.02710948,0.17091513,8389267,0,3.7862203,0.51548237,0.10248471,0.0,0.4479496,0.01529344,0.0,0.0,0.0,0.0,4259850,4325386,3997730,396825,0,0,165,1,3,1,3,3,0,0,0,0,0,0,0
