timestamp,roll_body,pitch_body,yaw_body,yaw_sp_move_rate,q_d[0],q_d[1],q_d[2],q_d[3],thrust_body[0],thrust_body[1],thrust_body[2],roll_reset_integral,pitch_reset_integral,yaw_reset_integral,fw_control_yaw,apply_flaps
22224682,0.0,0.0,-0.31149033,0.0,0.9878962,0.0,0.0,-0.15511629,0.0,0.0,-0.0,0,0,0,0,0
22229743,0.0,0.0,-0.31149656,0.0,0.9878957,0.0,0.0,-0.15511936,0.0,0.0,-0.0,0,0,0,0,0
22274620,0.0,0.0,-0.31151488,0.0,0.9878943,0.0,0.0,-0.15512842,0.0,0.0,-0.0,0,0,0,0,0
22329478,0.0,0.0,-0.311398,0.0,0.98790336,0.0,0.0,-0.15507068,0.0,0.0,-0.0,0,0,0,0,0
22379407,0.0,0.0,-0.31112832,0.0,0.9879243,0.0,0.0,-0.15493748,0.0,0.0,-0.0,0,0,0,0,0
22429330,0.0,0.0,-0.3108325,0.0,0.98794717,0.0,0.0,-0.15479134,0.0,0.0,-0.0,0,0,0,0,0
22474312,0.0,0.0,-0.31059638,0.0,0.98796546,0.0,0.0,-0.15467471,0.0,0.0,-0.0,0,0,0,0,0
22529247,0.0,0.0,-0.31028876,0.0,0.98798925,0.0,0.0,-0.15452275,0.0,0.0,-0.0,0,0,0,0,0
22579068,0.0,0.0,-0.31003338,0.0,0.988009,0.0,0.0,-0.1543966,0.0,0.0,-0.0,0,0,0,0,0
22623986,0.0,0.0,-0.30976948,0.0,0.9880293,0.0,0.0,-0.15426622,0.0,0.0,-0.0,0,0,0,0,0
22673909,0.0,0.0,-0.30951193,0.0,0.98804915,0.0,0.0,-0.15413898,0.0,0.0,-0.0,0,0,0,0,0
22728914,0.0,0.0,-0.30919656,0.0,0.98807347,0.0,0.0,-0.15398319,0.0,0.0,-0.0,0,0,0,0,0
22778778,0.0,0.0,-0.30885932,0.0,0.9880994,0.0,0.0,-0.15381657,0.0,0.0,-0.0,0,0,0,0,0
22823659,0.0,0.0,-0.30845356,0.0,0.9881306,0.0,0.0,-0.1536161,0.0,0.0,-0.0,0,0,0,0,0
22878691,0.0,0.0,-0.30789968,0.0,0.9881731,0.0,0.0,-0.15334244,0.0,0.0,-0.0,0,0,0,0,0
22928583,0.0,0.0,-0.30755174,0.0,0.9881998,0.0,0.0,-0.15317053,0.0,0.0,-0.019439252,0,0,0,0,0
22978469,0.0,0.0,-0.30732265,0.0,0.9882173,0.0,0.0,-0.15305734,0.0,0.0,-0.04838785,0,0,0,0,0
23028353,0.0,0.0,-0.30732265,0.0,0.9882173,0.0,0.0,-0.15305734,0.0,0.0,-0.062149536,0,0,0,0,0
23078274,0.0,0.0,-0.30732265,0.0,0.9882173,0.0,0.0,-0.15305734,0.0,0.0,-0.070841126,0,0,0,0,0
23128227,0.0,0.0,-0.30732265,0.0,0.9882173,0.0,0.0,-0.15305734,0.0,0.0,-0.070841126,0,0,0,0,0
23178201,0.0,0.0,-0.30732265,0.0,0.9882173,0.0,0.0,-0.15305734,0.0,0.0,-0.070841126,0,0,0,0,0
23228021,0.0,0.0,-0.30732265,0.0,0.9882173,0.0,0.0,-0.15305734,0.0,0.0,-0.070841126,0,0,0,0,0
23277948,0.0,0.0,-0.30732265,0.0,0.9882173,0.0,0.0,-0.15305734,0.0,0.0,-0.079532705,0,0,0,0,0
23327920,0.0,0.0,-0.30732265,0.0,0.9882173,0.0,0.0,-0.15305734,0.0,0.0,-0.08315421,0,0,0,0,0
23377837,0.0,0.0,-0.30732265,0.0,0.9882173,0.0,0.0,-0.15305734,0.0,0.0,-0.086775705,0,0,0,0,0
23427707,0.0,0.0,-0.30732265,0.0,0.9882173,0.0,0.0,-0.15305734,0.0,0.0,-0.086775705,0,0,0,0,0
23477566,0.0,0.0,-0.30732265,0.0,0.9882173,0.0,0.0,-0.15305734,0.0,0.0,-0.086051404,0,0,0,0,0
23527487,0.0,0.0,-0.30732265,0.0,0.9882173,0.0,0.0,-0.15305734,0.0,0.0,-0.086051404,0,0,0,0,0
23577448,0.0,0.0,-0.30732265,0.0,0.9882173,0.0,0.0,-0.15305734,0.0,0.0,-0.086775705,0,0,0,0,0
23627313,0.0,0.0,-0.30732265,0.0,0.9882173,0.0,0.0,-0.15305734,0.0,0.0,-0.086051404,0,0,0,0,0
23677230,0.0,0.0,-0.30732265,0.0,0.9882173,0.0,0.0,-0.15305734,0.0,0.0,-0.086775705,0,0,0,0,0
23727148,0.0,0.0,-0.30732265,0.0,0.9882173,0.0,0.0,-0.15305734,0.0,0.0,-0.086775705,0,0,0,0,0
23777129,0.0,0.0,-0.30732265,0.0,0.9882173,0.0,0.0,-0.15305734,0.0,0.0,-0.086051404,0,0,0,0,0
23827030,0.0,0.0,-0.30732265,0.0,0.9882173,0.0,0.0,-0.15305734,0.0,0.0,-0.086051404,0,0,0,0,0
23876918,0.0,0.0,-0.30732265,0.0,0.9882173,0.0,0.0,-0.15305734,0.0,0.0,-0.08098131,0,0,0,0,0
23926833,0.0,0.0,-0.30732265,0.0,0.9882173,0.0,0.0,-0.15305734,0.0,0.0,-0.08170561,0,0,0,0,0
23976773,0.0,0.0,-0.30732265,0.0,0.9882173,0.0,0.0,-0.15305734,0.0,0.0,-0.07735981,0,0,0,0,0
24026705,0.0,0.0,-0.30732265,0.0,0.9882173,0.0,0.0,-0.15305734,0.0,0.0,-0.070116825,0,0,0,0,0
24076582,0.0,0.0,-0.30732265,0.0,0.9882173,0.0,0.0,-0.15305734,0.0,0.0,-0.070116825,0,0,0,0,0
24126492,0.0,0.0,-0.30732265,0.0,0.9882173,0.0,0.0,-0.15305734,0.0,0.0,-0.07301402,0,0,0,0,0
24176446,0.0,0.0,-0.30732265,0.0,0.9882173,0.0,0.0,-0.15305734,0.0,0.0,-0.07808411,0,0,0,0,0
24226414,0.0,0.0,-0.30732265,0.0,0.9882173,0.0,0.0,-0.15305734,0.0,0.0,-0.08025701,0,0,0,0,0
24276237,0.0,0.0,-0.30732265,0.0,0.9882173,0.0,0.0,-0.15305734,0.0,0.0,-0.08025701,0,0,0,0,0
24326169,0.0,0.0,-0.30732265,0.0,0.9882173,0.0,0.0,-0.15305734,0.0,0.0,-0.08025701,0,0,0,0,0
24376076,0.0,0.0,-0.30732265,0.0,0.9882173,0.0,0.0,-0.15305734,0.0,0.0,-0.0875,0,0,0,0,0
24431039,0.0,0.0,-0.30732265,0.0,0.9882173,0.0,0.0,-0.15305734,0.0,0.0,-0.09764019,0,0,0,0,0
24475956,0.0,0.0,-0.30732265,0.0,0.9882173,0.0,0.0,-0.15305734,0.0,0.0,-0.09764019,0,0,0,0,0
24525841,0.0,0.0,-0.30732265,0.0,0.9882173,0.0,0.0,-0.15305734,0.0,0.0,-0.09908878,0,0,0,0,0
24575776,0.0,0.0,-0.30732265,0.0,0.9882173,0.0,0.0,-0.15305734,0.0,0.0,-0.10488318,0,0,0,0,0
24630753,0.0,0.0,-0.30732265,0.0,0.9882173,0.0,0.0,-0.15305734,0.0,0.0,-0.10560747,0,0,0,0,0
24675626,0.0,0.0,-0.30732265,0.0,0.9882173,0.0,0.0,-0.15305734,0.0,0.0,-0.10705608,0,0,0,0,0
24725510,0.0,0.0,-0.30732265,0.0,0.9882173,0.0,0.0,-0.15305734,0.0,0.0,-0.10705608,0,0,0,0,0
24775426,0.0,0.0,-0.30732265,0.0,0.9882173,0.0,0.0,-0.15305734,0.0,0.0,-0.10705608,0,0,0,0,0
24830376,0.0,0.0,-0.30732265,0.0,0.9882173,0.0,0.0,-0.15305734,0.0,0.0,-0.10705608,0,0,0,0,0
24875332,0.0,0.0,-0.30732265,0.0,0.9882173,0.0,0.0,-0.15305734,0.0,0.0,-0.10705608,0,0,0,0,0
24925281,0.0,0.0,-0.3064006,0.055309728,0.98828775,0.0,0.0,-0.15260172,0.0,0.0,-0.10126168,0,0,0,0,0
24980083,0.0,0.0,-0.30153078,0.10447393,0.9886564,0.0,0.0,-0.15019488,0.0,0.0,-0.09908878,0,0,0,0,0
25025049,0.0,0.0,-0.29389083,0.19051129,0.98922294,0.0,0.0,-0.14641716,0.0,0.0,-0.09401869,0,0,0,0,0
25075023,0.0,0.0,-0.2828337,0.23967548,0.9900173,0.0,0.0,-0.14094596,0.0,0.0,-0.0932944,0,0,0,0,0
25129844,0.0,0.0,-0.26960093,0.24582103,0.9909282,0.0,0.0,-0.13439259,0.0,0.0,-0.0932944,0,0,0,0,0
25179755,0.0,0.0,-0.25745443,0.23967548,0.9917261,0.0,0.0,-0.12837198,0.0,0.0,-0.0932944,0,0,0,0,0
25224736,0.0,0.0,-0.2466736,0.23967548,0.9924036,0.0,0.0,-0.12302434,0.0,0.0,-0.0932944,0,0,0,0,0
25274717,0.0,0.0,-0.23458497,0.23967548,0.99312913,0.0,0.0,-0.11702373,0.0,0.0,-0.0846028,0,0,0,0,0
25329509,0.0,0.0,-0.22082627,0.25811207,0.9939107,0.0,0.0,-0.11018893,0.0,0.0,-0.08242991,0,0,0,0,0
25379468,0.0,0.0,-0.20728616,0.27654865,0.99463385,0.0,0.0,-0.10345763,0.0,0.0,-0.08098131,0,0,0,0,0
25424341,0.0,0.0,-0.19472392,0.28269416,0.99526405,0.0,0.0,-0.09720821,0.0,0.0,-0.08098131,0,0,0,0,0
25479353,0.0,0.0,-0.17917235,0.28269416,0.99598986,0.0,0.0,-0.08946639,0.0,0.0,-0.08242991,0,0,0,0,0
25529229,0.0,0.0,-0.16507241,0.28269416,0.9965958,0.0,0.0,-0.08244253,0.0,0.0,-0.08315421,0,0,0,0,0
25579186,0.0,0.0,-0.15052035,0.30113074,0.9971693,0.0,0.0,-0.07518915,0.0,0.0,-0.08315421,0,0,0,0,0
25624009,0.0,0.0,-0.13677754,0.31342182,0.9976624,0.0,0.0,-0.06833547,0.0,0.0,-0.08315421,0,0,0,0,0
25678999,0.0,-0.0033086813,-0.11914407,0.32571286,0.99822474,-9.8494114e-05,-0.0016514054,-0.05953672,0.0,0.0,-0.0838785,0,0,0,0,0
25728905,0.0,-0.0057901917,-0.10270442,0.33185837,0.9986776,-0.00014860403,-0.0028912756,-0.05132943,0.0,0.0,-0.0846028,0,0,0,0,0
25778848,0.0,-0.0049630213,-0.08613075,0.33185837,0.99906975,-0.00010683405,-0.0024792072,-0.043051932,0.0,0.0,-0.086051404,0,0,0,0,0
25823752,0.0,-0.0016543404,-0.07122932,0.33185837,0.9993655,-2.9453153e-05,-0.0008266456,-0.03560712,0.0,0.0,-0.0896729,0,0,0,0,0
25878667,0.0049512894,-0.0008271669,-0.05302761,0.33185837,0.9996454,0.0024638074,-0.00047906782,-0.026509592,0.0,0.0,-0.091121495,0,0,0,0,0
25928566,0.008252155,-0.0016543216,-0.036452748,0.33185837,0.99982506,0.0041103037,-0.00090221525,-0.01822179,0.0,0.0,-0.091121495,0,0,0,0,0
25973524,0.009077394,-0.0033086357,-0.02126456,0.3441494,0.9999319,0.0045208307,-0.0017024621,-0.010624448,0.0,0.0,-0.091121495,0,0,0,0,0
26028370,0.002475672,-0.005790185,-0.0017078383,0.362586,0.9999947,0.0012353578,-0.0028961422,-0.00085033115,0.0,0.0,-0.091121495,0,0,0,0,0
26078285,0.0,-0.015716232,0.01707201,0.38716808,0.9999327,6.7075416e-05,-0.007857749,0.008535638,0.0,0.0,-0.091121495,0,0,0,0,0
26128238,0.0,-0.028950956,0.0365974,0.39331365,0.9997278,0.0002648584,-0.014472549,0.018295763,0.0,0.0,-0.091121495,0,0,0,0,0
26178108,0.0,-0.034741152,0.05593663,0.38716808,0.99945813,0.000485738,-0.01736291,0.027960451,0.0,0.0,-0.091121495,0,0,0,0,0
26228027,0.0,-0.038877003,0.07486488,0.36873153,0.99911064,0.00072741485,-0.019423662,0.03741663,0.0,0.0,-0.096191585,0,0,0,0,0
26277948,0.0,-0.04218568,0.0932116,0.362586,0.9986919,0.0009826198,-0.021068372,0.046578564,0.0,0.0,-0.09691589,0,0,0,0,0
26327922,0.0,-0.045494363,0.11142356,0.36873153,0.9981902,0.0012665213,-0.02270993,0.05566856,0.0,0.0,-0.09691589,0,0,0,0,0
26377885,0.0,-0.045494363,0.12969287,0.362586,0.9976401,0.0014739129,-0.022697415,0.06478423,0.0,0.0,-0.09691589,0,0,0,0,0
26427744,0.0,-0.03970417,0.14752525,0.35029495,0.99708426,0.0014629184,-0.019796802,0.073681235,0.0,0.0,-0.09691589,0,0,0,0,0
26477664,0.0,-0.038877003,0.16479525,0.3441494,0.99641895,0.0015997739,-0.019371333,0.08228887,0.0,0.0,-0.09691589,0,0,0,0,0
26527608,0.0,-0.038877003,0.18149431,0.33185837,0.99569714,0.0017614578,-0.0193573,0.090605535,0.0,0.0,-0.09691589,0,0,0,0,0
26577499,0.0,-0.028123787,0.1980504,0.33185837,0.9950026,0.0013901612,-0.013992543,0.09885366,0.0,0.0,-0.10053739,0,0,0,0,0
26627369,0.0,-0.017370576,0.2144475,0.33185837,0.99421954,0.0009294741,-0.0086353,0.10701437,0.0,0.0,-0.10198598,0,0,0,0,0
26677292,0.0,-0.014061895,0.23101516,0.33185837,0.9933119,0.0008103164,-0.006984039,0.11524805,0.0,0.0,-0.10198598,0,0,0,0,0
26727224,0.0,-0.0049630213,0.24755396,0.32571286,0.9923463,0.00030636988,-0.002462523,0.123460785,0.0,0.0,-0.10198598,0,0,0,0,0
26777163,0.0,0.0,0.26376,0.31956732,0.99131644,0.0,0.0,0.13149805,0.0,0.0,-0.095467284,0,0,0,0,0
26827035,0.009902577,-0.0,0.2794508,0.31342182,0.9902421,0.0049030147,0.0006895691,0.13926949,0.0,0.0,-0.0875,0,0,0,0,0
26876964,0.003300862,-0.0016543374,0.29509655,0.31342182,0.9891326,0.0017541017,-0.0005755445,0.14701459,0.0,0.0,-0.08894859,0,0,0,0,0
26926888,0.0,-0.0074445326,0.3107453,0.31342182,0.9879471,0.00057601294,-0.0036774192,0.1547472,0.0,0.0,-0.09257009,0,0,0,0,0
26976853,0.0,-0.012407555,0.32628423,0.30727625,0.9867028,0.0010076073,-0.0061213635,0.16241626,0.0,0.0,-0.09257009,0,0,0,0,0
27026815,0.0,-0.019852085,0.34092912,0.2888397,0.98545754,0.0016838282,-0.009782014,0.16963185,0.0,0.0,-0.0903972,0,0,0,0,0
27076684,0.0,-0.026469449,0.3550265,0.28269416,0.98419964,0.002336952,-0.013026372,0.17656699,0.0,0.0,-0.0903972,0,0,0,0,0
27126596,0.0,-0.028950956,0.3691363,0.28269416,0.9829126,0.0026564763,-0.0142291235,0.1835028,0.0,0.0,-0.0903972,0,0,0,0,0
27176570,0.0,-0.02977813,0.38326365,0.28269416,0.9815859,0.0028356828,-0.014615977,0.19043998,0.0,0.0,-0.0903972,0,0,0,0,0
27231370,0.0,-0.03143247,0.39875525,0.28269416,0.980069,0.0031126186,-0.015404263,0.19803485,0.0,0.0,-0.0903972,0,0,0,0,0
27276349,0.0,-0.032259643,0.41147053,0.28269416,0.9787837,0.00329497,-0.015788976,0.20426041,0.0,0.0,-0.0903972,0,0,0,0,0
27326277,0.0,-0.030605301,0.42543152,0.27654865,0.9773467,0.0032304965,-0.0149571635,0.2110905,0.0,0.0,-0.0903972,0,0,0,0,0
27376140,0.0,-0.032259643,0.4390369,0.27040312,0.9758755,0.0035122721,-0.015742064,0.21773133,0.0,0.0,-0.0903972,0,0,0,0,0
27426102,0.0,-0.03308681,0.4526087,0.27654865,0.97436893,0.003711801,-0.016120851,0.22434694,0.0,0.0,-0.0903972,0,0,0,0,0
27476020,0.0,-0.034741152,0.46665686,0.28269416,0.97275543,0.004016171,-0.016899021,0.23118216,0.0,0.0,-0.09257009,0,0,0,0,0
27525946,0.0,-0.034741152,0.4807619,0.28269416,0.97110087,0.0041352506,-0.016870277,0.23803672,0.0,0.0,-0.0932944,0,0,0,0,0
27580886,0.0,-0.032259643,0.49630356,0.28269416,0.969242,0.0039615184,-0.015635056,0.24558082,0.0,0.0,-0.0932944,0,0,0,0,0
27625796,0.0,-0.03143247,0.5089995,0.28269416,0.96766984,0.0039565773,-0.015209379,0.25173023,0.0,0.0,-0.0932944,0,0,0,0,0
27675700,0.00082548667,-0.03143246,0.52309406,0.28269416,0.9658701,0.0044623185,-0.015074401,0.2585496,0.0,0.0,-0.0932944,0,0,0,0,0
27725596,0.00742951,-0.032259345,0.5370917,0.28269416,0.9640098,0.007860602,-0.014565264,0.26535112,0.0,0.0,-0.0932944,0,0,0,0,0
27780545,0.00742951,-0.032259345,0.55262655,0.28269416,0.9619196,0.007973498,-0.014503768,0.2728309,0.0,0.0,-0.0932944,0,0,0,0,0
27825467,0.009906376,-0.033913426,0.5652689,0.28269416,0.9601508,0.009484677,-0.014901786,0.27892366,0.0,0.0,-0.0932944,0,0,0,0,0
27875408,0.0132087525,-0.034740146,0.5793332,0.28269416,0.9581409,0.011289335,-0.014759094,0.28569335,0.0,0.0,-0.09401869,0,0,0,0,0
27925324,0.014035134,-0.037221443,0.5934124,0.28269416,0.95607734,0.012150519,-0.015744686,0.29243898,0.0,0.0,-0.09474299,0,0,0,0,0
27980191,0.01321097,-0.041357312,0.60890317,0.28269416,0.9537458,0.01249858,-0.017746152,0.2998297,0.0,0.0,-0.09474299,0,0,0,0,0
28025118,0.014037308,-0.043011438,0.6211846,0.27040312,0.951863,0.013253196,-0.0183301,0.30568814,0.0,0.0,-0.09474299,0,0,0,0,0
28075113,0.015689906,-0.0454925,0.6340334,0.25811207,0.94983906,0.014541966,-0.019165393,0.3118126,0.0,0.0,-0.0875,0,0,0,0,0
28129904,0.015690304,-0.046319637,0.6479551,0.25196654,0.94763553,0.014806756,-0.019455602,0.31841677,0.0,0.0,-0.086775705,0,0,0,0,0
28179883,0.015690709,-0.047146767,0.6607871,0.25811207,0.9455629,0.015065523,-0.019751241,0.32449013,0.0,0.0,-0.086775705,0,0,0,0,0
28224741,0.014039423,-0.047974296,0.6723984,0.25811207,0.94366497,0.014537196,-0.020326378,0.32995737,0.0,0.0,-0.086775705,0,0,0,0,0
28279684,0.014040963,-0.05128287,0.6865565,0.25811207,0.941263,0.015237785,-0.021780053,0.33662647,0.0,0.0,-0.0875,0,0,0,0,0
28329691,0.010738788,-0.055419344,0.69952667,0.25811207,0.9390286,0.01453641,-0.024189005,0.34267873,0.0,0.0,-0.0896729,0,0,0,0,0
28374498,0.006609535,-0.059555832,0.7111924,0.25811207,0.93698406,0.013462211,-0.026760662,0.3480853,0.0,0.0,-0.09257009,0,0,0,0,0
28424412,0.00082613825,-0.0579019,0.72443235,0.27040312,0.93471766,0.010643368,-0.026922341,0.35421014,0.0,0.0,-0.095467284,0,0,0,0,0
28479453,0.0,-0.051284555,0.73932946,0.27040312,0.9321421,0.009263611,-0.023907484,0.36118406,0.0,0.0,-0.09836449,0,0,0,0,0
28529285,0.0,-0.048803046,0.75281495,0.27040312,0.9297143,0.008968667,-0.02269095,0.3674724,0.0,0.0,-0.09981308,0,0,0,0,0
28574155,0.0,-0.04797587,0.7649476,0.27040312,0.9274773,0.008951839,-0.022252534,0.37310928,0.0,0.0,-0.09981308,0,0,0,0,0
28624080,0.0,-0.04963022,0.7784477,0.27040312,0.924919,0.009415635,-0.02295668,0.3793536,0.0,0.0,-0.09981308,0,0,0,0,0
28679091,0.0,-0.04963022,0.7933225,0.27040312,0.92207205,0.009586111,-0.022886017,0.38622203,0.0,0.0,-0.10633177,0,0,0,0,0
28728962,0.0,-0.04797587,0.80680805,0.27040312,0.9194654,0.009415595,-0.02206031,0.39243844,0.0,0.0,-0.107780375,0,0,0,0,0
28773924,0.0,-0.045494363,0.8189656,0.27040312,0.9170896,0.009055667,-0.020864801,0.39803195,0.0,0.0,-0.107780375,0,0,0,0,0
28828762,0.0,-0.037222657,0.8337934,0.27040312,0.91419154,0.007535755,-0.017016284,0.40485477,0.0,0.0,-0.107780375,0,0,0,0,0
28878724,0.011557657,-0.03474038,0.84710306,0.27040312,0.91144097,0.012406041,-0.01345948,0.41102338,0.0,0.0,-0.107780375,0,0,0,0,0
28928640,0.017336823,-0.03556654,0.86049265,0.27040312,0.9086209,0.015293691,-0.012546167,0.41715315,0.0,0.0,-0.107780375,0,0,0,0,0
28978517,0.014860728,-0.03722129,0.8740107,0.27040312,0.90578276,0.01460673,-0.01371607,0.42326847,0.0,0.0,-0.10271028,0,0,0,0,0
29028425,0.017335525,-0.03225803,0.88781,0.27654865,0.9028701,0.014752937,-0.010842632,0.42952353,0.0,0.0,-0.10271028,0,0,0,0,0
29078396,0.019810688,-0.028949065,0.90160775,0.27654865,0.8998963,0.015220561,-0.008712263,0.4357513,0.0,0.0,-0.10271028,0,0,0,0,0
29128315,0.021463417,-0.03308427,0.9153593,0.27654865,0.8968274,0.016934384,-0.010096834,0.4419411,0.0,0.0,-0.10271028,0,0,0,0,0
29178177,0.017336486,-0.034739416,0.9292329,0.28269416,0.8937576,0.0155304205,-0.011643611,0.44813013,0.0,0.0,-0.10271028,0,0,0,0,0
29228146,0.021460596,-0.026467418,0.94328415,0.27654865,0.8906296,0.0155699905,-0.006913088,0.45441025,0.0,0.0,-0.10271028,0,0,0,0,0
29278053,0.023110759,-0.024812901,0.9573284,0.28269416,0.8874174,0.015969472,-0.005689275,0.46065497,0.0,0.0,-0.10271028,0,0,0,0,0
29328018,0.01733331,-0.025640994,0.9715174,0.28269416,0.8841632,0.013648617,-0.0072907982,0.46692178,0.0,0.0,-0.10271028,0,0,0,0,0
29377893,0.010730145,-0.025641788,0.98570174,0.28269416,0.88087,0.010791968,-0.00875637,0.47315428,0.0,0.0,-0.0932944,0,0,0,0,0
29427806,0.0107299965,-0.024814634,1.0000312,0.2888397,0.877463,0.01065612,-0.008315936,0.47945386,0.0,0.0,-0.091121495,0,0,0,0,0
29477730,0.009904749,-0.025641859,1.014457,0.2888397,0.87398076,0.010556072,-0.008800815,0.48576614,0.0,0.0,-0.091121495,0,0,0,0,0
29527712,0.0033017297,-0.028123736,1.028974,0.2888397,0.87044656,0.008356454,-0.011428782,0.49205923,0.0,0.0,-0.091121495,0,0,0,0,0
29577626,0.0,-0.024815109,1.0434383,0.2888397,0.866897,0.0061834105,-0.010756623,0.49833298,0.0,0.0,-0.091121495,0,0,0,0,0
29627496,0.0,-0.015716232,1.0578426,0.2888397,0.86332524,0.003965183,-0.0067842496,0.5045868,0.0,0.0,-0.091121495,0,0,0,0,0
29677423,0.0,-0.0074445326,1.0721025,0.28269416,0.8597262,0.001901125,-0.0032001445,0.5107416,0.0,0.0,-0.091121495,0,0,0,0,0
29727375,0.0,-0.0041358513,1.086212,0.28269416,0.85610574,0.0010686981,-0.0017703656,0.5167964,0.0,0.0,-0.091121495,0,0,0,0,0
29777234,0.0,-0.0107532125,1.100326,0.28269416,0.852427,0.0028110167,-0.0045832084,0.52281857,0.0,0.0,-0.091121495,0,0,0,0,0
29827108,0.0,-0.016543405,1.1145784,0.2888397,0.8486629,0.0043747504,-0.0070200474,0.5288694,0.0,0.0,-0.091845796,0,0,0,0,0
29877050,0.0,-0.020679254,1.1290029,0.2888397,0.84481025,0.005531547,-0.0087353345,0.5349661,0.0,0.0,-0.09257009,0,0,0,0,0
29926964,0.0,-0.028950956,1.1338987,0.2888397,0.8434549,0.007773946,-0.012210266,0.53700495,0.0,0.0,-0.09257009,0,0,0,0,0
29976912,0.0,-0.032259643,1.1480503,0.28269416,0.83961284,0.008758379,-0.01354398,0.5429458,0.0,0.0,-0.09836449,0,0,0,0,0
30026814,0.0,-0.037222657,1.1619726,0.27040312,0.835777,0.010214213,-0.015556716,0.5487536,0.0,0.0,-0.09836449,0,0,0,0,0
30081702,0.0,-0.038877003,1.1763238,0.25811207,0.83180475,0.010784437,-0.016171075,0.55472785,0.0,0.0,-0.09836449,0,0,0,0,0
30126673,0.0,-0.04053134,1.1878078,0.25196654,0.8285922,0.011339908,-0.016794275,0.5594858,0.0,0.0,-0.09836449,0,0,0,0,0
30176636,0.0,-0.03970417,1.2003982,0.25196654,0.82506055,0.011211855,-0.016381323,0.5646955,0.0,0.0,-0.09836449,0,0,0,0,0
30231459,0.0,-0.03556832,1.214211,0.25196654,0.8211729,0.010145197,-0.01460541,0.5704023,0.0,0.0,-0.09836449,0,0,0,0,0
30276421,0.0024765478,-0.033086773,1.2251918,0.23967548,0.8180337,0.01052486,-0.012822576,0.5749309,0.0,0.0,-0.09474299,0,0,0,0,0
30326342,0.0066041276,-0.033086564,1.2369661,0.23352996,0.8146113,0.012281316,-0.011563828,0.5797619,0.0,0.0,-0.0932944,0,0,0,0,0
30376318,0.009905669,-0.0306048,1.248471,0.23352996,0.8112609,0.012961738,-0.009521417,0.584463,0.0,0.0,-0.09257009,0,0,0,0,0
30426216,0.010731141,-0.030604709,1.2601116,0.23352996,0.80784,0.013350334,-0.009202605,0.5891787,0.0,0.0,-0.09257009,0,0,0,0,0
30476102,0.014033517,-0.03225858,1.2716993,0.23352996,0.80437577,0.015222586,-0.008809815,0.59386057,0.0,0.0,-0.09257009,0,0,0,0,0
30531015,0.016510023,-0.03225818,1.284409,0.22738443,0.8005661,0.016269458,-0.007971068,0.59897053,0.0,0.0,-0.09257009,0,0,0,0,0
30575957,0.016509175,-0.02977678,1.2946612,0.22738443,0.79750675,0.015561793,-0.0068981755,0.60306984,0.0,0.0,-0.09257009,0,0,0,0,0
30625910,0.015683463,-0.028949771,1.3057928,0.22123891,0.794151,0.0150209535,-0.006733823,0.60749745,0.0,0.0,-0.08894859,0,0,0,0,0
30675756,0.011556054,-0.02812316,1.3160824,0.20280235,0.79105055,0.013170238,-0.007591564,0.61156183,0.0,0.0,-0.0875,0,0,0,0,0
30725637,0.0074290074,-0.028950691,1.3262595,0.20280235,0.7879483,0.011837426,-0.009120747,0.61555994,0.0,0.0,-0.0875,0,0,0,0,0
30775555,0.0,-0.028950956,1.3364905,0.20280235,0.7848279,0.008968833,-0.011361552,0.61954474,0.0,0.0,-0.0875,0,0,0,0,0
30825544,0.0,-0.032259643,1.3466287,0.20280235,0.7816575,0.010057805,-0.012609091,0.6234993,0.0,0.0,-0.0875,0,0,0,0,0
30875436,0.0,-0.032259643,1.3565934,0.19665682,0.7785414,0.010120503,-0.012558823,0.62738603,0.0,0.0,-0.0875,0,0,0,0,0
30930333,0.0,-0.032259643,1.3673887,0.19665682,0.77514356,0.010188144,-0.012504012,0.6315792,0.0,0.0,-0.0875,0,0,0,0,0
30975282,0.0,-0.034741152,1.3762221,0.19665682,0.77233046,0.011031137,-0.013417174,0.6349834,0.0,0.0,-0.0875,0,0,0,0,0
31025246,0.0,-0.038877003,1.3860499,0.19665682,0.76917166,0.012417841,-0.014953429,0.63874656,0.0,0.0,-0.0875,0,0,0,0,0
31080052,0.0,-0.043840017,1.3971696,0.20280235,0.7655692,0.014096389,-0.016783971,0.64298016,0.0,0.0,-0.0875,0,0,0,0,0
31129971,0.0,-0.043840017,1.407293,0.20280235,0.76230484,0.014181163,-0.016712407,0.646847,0.0,0.0,-0.0875,0,0,0,0,0
31174943,0.0,-0.043840017,1.4164134,0.20280235,0.75934714,0.014257227,-0.016647562,0.65031654,0.0,0.0,-0.0875,0,0,0,0,0
31224872,0.0,-0.043840017,1.4259565,0.17822024,0.7562355,0.014336498,-0.016579343,0.65393233,0.0,0.0,-0.0875,0,0,0,0,0
31279745,0.0,-0.04301285,1.4354903,0.1720747,0.7531164,0.014143422,-0.016199341,0.6575357,0.0,0.0,-0.0875,0,0,0,0,0
31329669,0.0,-0.04053134,1.4440799,0.1720747,0.750305,0.013393007,-0.015207515,0.6607812,0.0,0.0,-0.0875,0,0,0,0,0
31374618,0.0,-0.038877003,1.4517802,0.16592918,0.7477675,0.012902493,-0.014537312,0.663676,0.0,0.0,-0.08894859,0,0,0,0,0
31429558,0.0,-0.038877003,1.4609007,0.16592918,0.7447333,0.012968652,-0.014478323,0.6670791,0.0,0.0,-0.0903972,0,0,0,0,0
31479406,0.0,-0.03804983,1.4691713,0.16592918,0.74197423,0.012751246,-0.014117699,0.67015845,0.0,0.0,-0.0903972,0,0,0,0,0
31529331,0.0,-0.034741152,1.4774555,0.16592918,0.7392143,0.011695852,-0.012841869,0.67324626,0.0,0.0,-0.0903972,0,0,0,0,0
31579249,0.0,-0.03308681,1.4857388,0.16592918,0.7364299,0.011189516,-0.01218417,0.6763115,0.0,0.0,-0.091121495,0,0,0,0,0
31629255,0.0,-0.034741152,1.4940364,0.16592918,0.7336074,0.011801913,-0.012744465,0.67935145,0.0,0.0,-0.09257009,0,0,0,0,0
31679237,0.0,-0.034741152,1.50233,0.16592918,0.73078406,0.011854661,-0.012695417,0.68238777,0.0,0.0,-0.09257009,0,0,0,0,0
31724103,0.0,-0.03391398,1.5097746,0.16592918,0.72824407,0.011618486,-0.012350013,0.68510807,0.0,0.0,-0.09691589,0,0,0,0,0
31778952,0.0,-0.03308681,1.5188447,0.15978366,0.7251346,0.011389658,-0.01199729,0.6884084,0.0,0.0,-0.09981308,0,0,0,0,0
31823844,0.0,-0.03308681,1.5260172,0.15978366,0.7226612,0.01143261,-0.011956368,0.69100446,0.0,0.0,-0.09981308,0,0,0,0,0
31878829,0.00082557934,-0.036395486,1.5347884,0.15978366,0.7195978,0.01293035,-0.012810061,0.69415253,0.0,0.0,-0.09981308,0,0,0,0,0
31923737,0.0033024529,-0.038049757,1.5419159,0.15978366,0.71709085,0.014440265,-0.012494226,0.6967181,0.0,0.0,-0.09981308,0,0,0,0,0
31978637,0.0057797986,-0.04135828,1.5506313,0.15978366,0.7140026,0.01653662,-0.012745606,0.6998316,0.0,0.0,-0.10271028,0,0,0,0,0
32028559,0.0024771723,-0.04301281,1.5586743,0.15978366,0.71119577,0.015994597,-0.014427738,0.7026639,0.0,0.0,-0.10560747,0,0,0,0,0
32078544,0.0,-0.041358516,1.5667143,0.15978366,0.70839703,0.014591528,-0.014651214,0.7055112,0.0,0.0,-0.10633177,0,0,0,0,0
32128392,0.0,-0.038877003,1.5746789,0.15978366,0.7055994,0.013770887,-0.013717524,0.7083443,0.0,0.0,-0.10633177,0,0,0,0,0
32178257,0.0,-0.03804983,1.5826467,0.15978366,0.70277745,0.013531303,-0.013371894,0.7111554,0.0,0.0,-0.10633177,0,0,0,0,0
32228183,0.0,-0.037222657,1.5906236,0.15978366,0.6999409,0.013289245,-0.013028335,0.7139582,0.0,0.0,-0.10633177,0,0,0,0,0
32278150,0.0,-0.037222657,1.5985991,0.15978366,0.69708824,0.013341094,-0.012975236,0.71674377,0.0,0.0,-0.10633177,0,0,0,0,0
32328053,0.0,-0.038877003,1.6065817,0.15978366,0.69421107,0.013987939,-0.013496123,0.719509,0.0,0.0,-0.10633177,0,0,0,0,0
32377934,0.0,-0.03970417,1.6145519,0.15978366,0.6913326,0.014340329,-0.013726196,0.72226393,0.0,0.0,-0.10633177,0,0,0,0,0
32427841,0.0,-0.038877003,1.622465,0.15363812,0.6884751,0.014094678,-0.01338461,0.72499937,0.0,0.0,-0.10271028,0,0,0,0,0
32477780,0.0,-0.037222657,1.6298918,0.1474926,0.685789,0.013542468,-0.012764918,0.7275624,0.0,0.0,-0.10053739,0,0,0,0,0
32527732,0.0,-0.032259643,1.6372597,0.1474926,0.6831335,0.011777653,-0.0110197775,0.7301155,0.0,0.0,-0.09981308,0,0,0,0,0
32577674,0.0,-0.032259643,1.6445636,0.14134708,0.6804626,0.011817818,-0.010976693,0.7326053,0.0,0.0,-0.09981308,0,0,0,0,0
32627575,0.0,-0.032259643,1.6513101,0.12905604,0.67798746,0.011854778,-0.010936766,0.7348965,0.0,0.0,-0.0903972,0,0,0,0,0
32677510,0.0008254725,-0.030605296,1.6577103,0.122910514,0.67563635,0.011558893,-0.010035687,0.73707616,0.0,0.0,-0.0882243,0,0,0,0,0
32727446,0.0057785087,-0.032259464,1.6639826,0.13520156,0.6732802,0.013869105,-0.008725657,0.73920596,0.0,0.0,-0.0882243,0,0,0,0,0
32777367,0.008254589,-0.029777795,1.6709173,0.14134708,0.670712,0.013809598,-0.0069271075,0.74155694,0.0,0.0,-0.0882243,0,0,0,0,0
32827239,0.0082544545,-0.028950632,1.6779697,0.14134708,0.6680982,0.013526255,-0.0066020694,0.74392074,0.0,0.0,-0.0882243,0,0,0,0,0
32877168,0.0074290074,-0.028950691,1.6850392,0.14134708,0.66547,0.0132748755,-0.0068622422,0.74627495,0.0,0.0,-0.0882243,0,0,0,0,0
32927130,0.0049527525,-0.029778011,1.6921347,0.14134708,0.6628294,0.012788128,-0.008016207,0.74861825,0.0,0.0,-0.0882243,0,0,0,0,0
32977036,0.0033020643,-0.033086747,1.6992083,0.14134708,0.66016877,0.013513802,-0.009682968,0.75093335,0.0,0.0,-0.08894859,0,0,0,0,0
33031867,0.00412758,-0.033086713,1.7069441,0.14134708,0.65725356,0.013822426,-0.009319608,0.753485,0.0,0.0,-0.08894859,0,0,0,0,0
33076847,0.010730963,-0.029777557,1.7132108,0.14134708,0.6548639,0.014763749,-0.005697928,0.7555811,0.0,0.0,-0.08894859,0,0,0,0,0
33126762,0.0132075595,-0.03060441,1.7200054,0.13520156,0.65226823,0.015903989,-0.004979079,0.757805,0.0,0.0,-0.08894859,0,0,0,0,0
33176730,0.009080512,-0.0322592,1.7268169,0.13520156,0.64970374,0.0152089335,-0.007030853,0.76000285,0.0,0.0,-0.0896729,0,0,0,0,0
33226554,0.003302005,-0.032259583,1.7333734,0.12905604,0.64725006,0.013362034,-0.0091830315,0.76210535,0.0,0.0,-0.0932944,0,0,0,0,0
33276457,0.0008255012,-0.032259636,1.739854,0.12905604,0.64479333,0.012593334,-0.0100859655,0.76418674,0.0,0.0,-0.0932944,0,0,0,0,0
33326379,0.00082548667,-0.03143246,1.7459606,0.110619456,0.6424614,0.012307197,-0.009781756,0.7661568,0.0,0.0,-0.0932944,0,0,0,0,0
33376356,0.004127227,-0.028950876,1.751196,0.09832841,0.6404463,0.012437345,-0.007687184,0.7678637,0.0,0.0,-0.0932944,0,0,0,0,0
33426265,0.0049526724,-0.02895084,1.7560915,0.09832841,0.6385597,0.012719661,-0.007339145,0.7694322,0.0,0.0,-0.0932944,0,0,0,0,0
33476132,0.0008254455,-0.028950956,1.761116,0.10447393,0.6366496,0.01142433,-0.008898303,0.77101725,0.0,0.0,-0.0932944,0,0,0,0,0
33531104,0.0,-0.028950956,1.7668711,0.10447393,0.63443303,0.011188043,-0.009184362,0.7728423,0.0,0.0,-0.0932944,0,0,0,0,0
33576084,0.0,-0.028950956,1.7715683,0.10447393,0.63261616,0.011209583,-0.009158061,0.77433026,0.0,0.0,-0.0932944,0,0,0,0,0
33625973,0.0,-0.028950956,1.7767822,0.10447393,0.6305954,0.011233419,-0.009128807,0.7759768,0.0,0.0,-0.0932944,0,0,0,0,0
33675842,0.0,-0.028950956,1.7819923,0.10447393,0.62857175,0.011257162,-0.009099512,0.7776169,0.0,0.0,-0.0932944,0,0,0,0,0
33730791,0.0,-0.028123787,1.7877027,0.09832841,0.62635267,0.010960745,-0.008808285,0.779413,0.0,0.0,-0.0932944,0,0,0,0,0
33775692,0.0,-0.028123787,1.7921177,0.09832841,0.6246306,0.010980162,-0.008784067,0.7807938,0.0,0.0,-0.091121495,0,0,0,0,0
33825642,0.0,-0.026469449,1.7965385,0.08603735,0.62291026,0.010352559,-0.008244527,0.7821814,0.0,0.0,-0.091121495,0,0,0,0,0
33880479,0.0,-0.026469449,1.8015015,0.09218288,0.6209673,0.010372986,-0.008218811,0.7837247,0.0,0.0,-0.091121495,0,0,0,0,0
33930389,0.0,-0.025642278,1.8061025,0.09218288,0.619166,0.010067138,-0.007938849,0.78515536,0.0,0.0,-0.091121495,0,0,0,0,0
33975360,0.0,-0.026469449,1.8104322,0.09832841,0.61746156,0.010409582,-0.008172411,0.7864898,0.0,0.0,-0.091121495,0,0,0,0,0
34025422,0.0,-0.026469449,1.8151083,0.09218288,0.61562103,0.010428662,-0.00814805,0.78793126,0.0,0.0,-0.091121495,0,0,0,0,0
34080148,0.0,-0.026469449,1.8201534,0.09218288,0.6136314,0.010449181,-0.008121717,0.78948164,0.0,0.0,-0.091121495,0,0,0,0,0
34125064,0.0,-0.028123787,1.824355,0.09832841,0.61196464,0.011120317,-0.008605949,0.79076004,0.0,0.0,-0.0903972,0,0,0,0,0
34175027,0.0,-0.03308681,1.829267,0.09832841,0.6099975,0.013107389,-0.010092357,0.79223067,0.0,0.0,-0.0903972,0,0,0,0,0
34229969,0.0,-0.037222657,1.8346704,0.09832841,0.6078328,0.014776252,-0.011313883,0.79384696,0.0,0.0,-0.0903972,0,0,0,0,0
34279872,0.0,-0.038877003,1.8397305,0.10447393,0.60581285,0.015462742,-0.011777578,0.7953696,0.0,0.0,-0.0903972,0,0,0,0,0
34324747,0.0,-0.04053134,1.844419,0.10447393,0.60393673,0.016149381,-0.012240858,0.7967746,0.0,0.0,-0.0903972,0,0,0,0,0
34374671,0.0,-0.041358516,1.849634,0.10447393,0.601852,0.016511431,-0.012447627,0.7983399,0.0,0.0,-0.0903972,0,0,0,0,0
34429662,0.0,-0.04301285,1.8550415,0.09832841,0.59968084,0.017206723,-0.01289898,0.79995024,0.0,0.0,-0.0903972,0,0,0,0,0
34479489,0.0,-0.04466719,1.8599414,0.09832841,0.5977084,0.017901175,-0.013351197,0.80140245,0.0,0.0,-0.0882243,0,0,0,0,0
34524491,0.0,-0.04466719,1.8643662,0.09832841,0.5959339,0.01793067,-0.01331156,0.80272293,0.0,0.0,-0.0875,0,0,0,0,0
34579340,0.0,-0.043840017,1.8694836,0.08603735,0.59388345,0.017632047,-0.013020016,0.8042525,0.0,0.0,-0.0846028,0,0,0,0,0
34629293,0.0,-0.04301285,1.8737814,0.08603735,0.5921591,0.01732683,-0.012737189,0.80553406,0.0,0.0,-0.08242991,0,0,0,0,0
34679168,0.0,-0.04053134,1.8781028,0.09218288,0.5904326,0.01635324,-0.01196715,0.80683255,0.0,0.0,-0.08242991,0,0,0,0,0
34724169,0.0,-0.03970417,1.8823127,0.09832841,0.5887378,0.016044186,-0.011689208,0.80808026,0.0,0.0,-0.08242991,0,0,0,0,0
34778997,0.0,-0.038877003,1.8877039,0.09832841,0.5865621,0.015740773,-0.011403325,0.8096709,0.0,0.0,-0.08242991,0,0,0,0,0
34828975,0.0,-0.03804983,1.8929251,0.10447393,0.584451,0.015434985,-0.011120472,0.8112059,0.0,0.0,-0.08242991,0,0,0,0,0
34878895,-0.0049416954,-0.03556817,1.8982283,0.10447393,0.58234525,0.013017074,-0.012365167,0.8127433,0.0,0.0,-0.08242991,0,0,0,0,0
34928757,-0.014823461,-0.030604178,1.9035763,0.10447393,0.5802362,0.0081620775,-0.01491386,0.81427085,0.0,0.0,-0.08242991,0,0,0,0,0
34978677,-0.016469972,-0.02894965,1.9088027,0.10447393,0.57811445,0.0070501072,-0.015085985,0.8157857,0.0,0.0,-0.08242991,0,0,0,0,0
35028598,-0.01729347,-0.028949514,1.9140304,0.10447393,0.575983,0.006852301,-0.015403985,0.8172878,0.0,0.0,-0.08242991,0,0,0,0,0
35073521,-0.01729347,-0.028949514,1.9187238,0.10447393,0.5740634,0.0068884306,-0.015387861,0.8186372,0.0,0.0,-0.08315421,0,0,0,0,0
35128448,-0.017293198,-0.028122388,1.924455,0.10447393,0.57171565,0.0065932795,-0.015131592,0.8202858,0.0,0.0,-0.08315421,0,0,0,0,0
35178358,-0.017293198,-0.028122388,1.9296694,0.10447393,0.56957513,0.0066327066,-0.01511435,0.8217735,0.0,0.0,-0.0838785,0,0,0,0,0
35228331,-0.01811697,-0.028949374,1.9349095,0.10447393,0.56742245,0.006779041,-0.015670547,0.82324976,0.0,0.0,-0.0882243,0,0,0,0,0
35278292,-0.021410963,-0.028948745,1.9399928,0.09832841,0.56533873,0.0058874865,-0.017011326,0.8246624,0.0,0.0,-0.091845796,0,0,0,0,0
35328201,-0.027997663,-0.026465995,1.9451761,0.10447393,0.5632114,0.0030509706,-0.019017871,0.8260883,0.0,0.0,-0.096191585,0,0,0,0,0
35378065,-0.026350742,-0.026466385,1.9503638,0.10447393,0.561064,0.0035624648,-0.018328546,0.8275618,0.0,0.0,-0.096191585,0,0,0,0,0
35427988,-0.021410624,-0.028121639,1.9552252,0.09832841,0.5590412,0.0056740874,-0.016734764,0.8289516,0.0,0.0,-0.09981308,0,0,0,0,0
35477964,-0.021410624,-0.028121639,1.9602011,0.10447393,0.5569771,0.005715705,-0.016720595,0.83033985,0.0,0.0,-0.10053739,0,0,0,0,0
35527833,-0.021410963,-0.028948745,1.9652969,0.09832841,0.5548601,0.0061022374,-0.016935479,0.8317489,0.0,0.0,-0.10053739,0,0,0,0,0
35577712,-0.025528457,-0.028947812,1.9705366,0.10447393,0.5526906,0.0050083566,-0.018634487,0.83316314,0.0,0.0,-0.10053739,0,0,0,0,0
35627627,-0.03376344,-0.028945457,1.9757488,0.09218288,0.5505336,0.0027891325,-0.022057017,0.8345169,0.0,0.0,-0.10053739,0,0,0,0,0
35677551,-0.04693941,-0.028940331,1.9798049,0.0737463,0.5488468,-0.00078406604,-0.027554521,0.83546835,0.0,0.0,-0.09691589,0,0,0,0,0
35727498,-0.065887965,-0.034716032,1.9831257,0.055309728,0.54748166,-0.0035089753,-0.037056945,0.8359895,0.0,0.0,-0.09691589,0,0,0,0,0
35777364,-0.07908828,-0.045446977,1.9862039,0.018436575,0.54627866,-0.0025641215,-0.04550828,0.8363624,0.0,0.0,-0.096191585,0,0,0,0,0
35827298,-0.074971005,-0.046278182,1.9865414,0.0,0.54614943,-0.0010840809,-0.044013046,0.83653,0.0,0.0,-0.096191585,0,0,0,0,0
35877208,-0.06590859,-0.04628803,1.9863317,0.0,0.5462365,0.001390547,-0.04022494,0.83666337,0.0,0.0,-0.096191585,0,0,0,0,0
35927184,-0.056014173,-0.041336898,1.9859637,0.0,0.54634845,0.0020130267,-0.034736052,0.83683485,0.0,0.0,-0.096191585,0,0,0,0,0
35977075,-0.056014173,-0.041336898,1.9859637,0.0,0.54634845,0.0020130267,-0.034736052,0.83683485,0.0,0.0,-0.096191585,0,0,0,0,0
36026968,-0.058479056,-0.037201453,1.9858936,0.0,0.54635143,-0.0003931489,-0.034639683,0.8368394,0.0,0.0,-0.096191585,0,0,0,0,0
36076887,-0.050240554,-0.035553362,1.9856988,0.0,0.5464208,0.0011642838,-0.03074278,0.8369456,0.0,0.0,-0.096191585,0,0,0,0,0
36126859,-0.050240554,-0.035553362,1.9856988,0.0,0.5464208,0.0011642838,-0.03074278,0.8369456,0.0,0.0,-0.096191585,0,0,0,0,0
36176823,-0.040356383,-0.03473172,1.9855064,0.0,0.5464859,0.0035181257,-0.026382267,0.8370453,0.0,0.0,-0.096191585,0,0,0,0,0
36226682,-0.028824916,-0.03308223,1.9852823,0.0,0.546548,0.0059758862,-0.021106,0.8371405,0.0,0.0,-0.096191585,0,0,0,0,0
36276596,-0.015646724,-0.029776914,1.9847592,0.0,0.54671913,0.008189193,-0.01468889,0.83714724,0.0,0.0,-0.096191585,0,0,0,0,0
36326535,-0.015646227,-0.02812264,1.9840001,-0.037311077,0.54703796,0.0074913804,-0.01423947,0.8369531,0.0,0.0,-0.096191585,0,0,0,0,0
36376481,-0.015645757,-0.026468368,1.9807254,-0.06840364,0.5484084,0.006776551,-0.013798062,0.83606935,0.0,0.0,-0.096191585,0,0,0,0,0
36426368,-0.011527402,-0.020678798,1.9766357,-0.074622154,0.5501066,0.0054637548,-0.010500452,0.83501047,0.0,0.0,-0.096191585,0,0,0,0,0
36476279,-0.011527031,-0.01819734,1.9727101,-0.08705918,0.55174524,0.0044084718,-0.009826553,0.8339432,0.0,0.0,-0.096191585,0,0,0,0,0
36526200,-0.009879873,-0.014061665,1.9675875,-0.10571471,0.55387634,0.0031177907,-0.008006969,0.8325546,0.0,0.0,-0.096191585,0,0,0,0,0
36576186,-0.009880035,-0.015715977,1.9626204,-0.09327769,0.55594224,0.0037853934,-0.008474554,0.83116907,0.0,0.0,-0.096191585,0,0,0,0,0
36626109,-0.01152715,-0.019024493,1.9576217,-0.10571471,0.5580207,0.004677371,-0.010090328,0.82975245,0.0,0.0,-0.0932944,0,0,0,0,0
36680967,-0.014821677,-0.023987059,1.9518905,-0.10571471,0.5604033,0.0057803243,-0.012858048,0.82809985,0.0,0.0,-0.0932944,0,0,0,0,0
36725827,-0.016470512,-0.030603917,1.947068,-0.111933224,0.56240016,0.00802118,-0.015413581,0.8266826,0.0,0.0,-0.0932944,0,0,0,0,0
36775821,-0.022236774,-0.033911187,1.941597,-0.111933224,0.5646802,0.0077156783,-0.018747674,0.8250608,0.0,0.0,-0.0932944,0,0,0,0,0
36825707,-0.023060359,-0.03391098,1.9361199,-0.10571471,0.5669406,0.0074307616,-0.019107789,0.82350343,0.0,0.0,-0.0932944,0,0,0,0,0
36880590,-0.018121038,-0.03887488,1.9308074,-0.08705918,0.56909895,0.010826169,-0.018509166,0.82198936,0.0,0.0,-0.10198598,0,0,0,0,0
36925657,-0.018122243,-0.041356247,1.9271572,-0.06840364,0.57059324,0.011810805,-0.019236948,0.8209225,0.0,0.0,-0.10271028,0,0,0,0,0
36975467,-0.018123083,-0.043010496,1.9237646,-0.06840364,0.57198113,0.012456294,-0.019730141,0.81993484,0.0,0.0,-0.10271028,0,0,0,0,0
37025427,-0.016476737,-0.045492306,1.9204571,-0.062185127,0.5733185,0.013912147,-0.019787606,0.81897545,0.0,0.0,-0.10198598,0,0,0,0,0
37080245,-0.015652902,-0.04549251,1.9170293,-0.062185127,0.57471555,0.014115033,-0.019474534,0.81799966,0.0,0.0,-0.0903972,0,0,0,0,0
37125207,-0.015652511,-0.044665366,1.914351,-0.049748104,0.5758132,0.013750985,-0.019255238,0.81723887,0.0,0.0,-0.0896729,0,0,0,0,0
37175137,-0.015651755,-0.0430111,1.9124435,-0.018655539,0.5765975,0.01305715,-0.018791346,0.8167079,0.0,0.0,-0.0896729,0,0,0,0,0
37230012,-0.013180425,-0.04301161,1.9113666,-0.018655539,0.57702065,0.013760252,-0.017789716,0.81641984,0.0,0.0,-0.0896729,0,0,0,0,0
37275005,-0.009885319,-0.043012153,1.9104563,-0.018655539,0.5773687,0.01470364,-0.016451446,0.8161853,0.0,0.0,-0.0896729,0,0,0,0,0
37324903,-0.0032956025,-0.047975782,1.9094539,-0.012437026,0.57769686,0.018624078,-0.015204089,0.81589717,0.0,0.0,-0.091121495,0,0,0,0,0
37379815,0.0,-0.051284555,1.9090023,-0.006218513,0.5778259,0.020922458,-0.01482002,0.8157573,0.0,0.0,-0.091121495,0,0,0,0,0
37429735,0.0,-0.051284555,1.9088784,0.0,0.5778764,0.02092154,-0.014821314,0.81572145,0.0,0.0,-0.091121495,0,0,0,0,0
37474636,0.0,-0.048803046,1.9088784,0.0,0.57789433,0.019909415,-0.014104301,0.8157467,0.0,0.0,-0.091121495,0,0,0,0,0
37524529,0.0,-0.0471487,1.9088784,0.0,0.5779058,0.019234644,-0.013626278,0.81576294,0.0,0.0,-0.091121495,0,0,0,0,0
37579493,0.0,-0.038877003,1.9082885,-0.006218513,0.57819784,0.015857304,-0.011240715,0.815665,0.0,0.0,-0.0903972,0,0,0,0,0
37629537,-0.002470707,-0.033086773,1.9082364,0.0,0.5782654,0.0127811935,-0.010574734,0.81567997,0.0,0.0,-0.091121495,0,0,0,0,0
37674317,-0.0065870127,-0.019851942,1.9082608,0.0,0.57831347,0.0061929426,-0.0084269885,0.8157477,0.0,0.0,-0.091845796,0,0,0,0,0
37729185,0.0,0.0,1.9081955,0.0,0.57834506,0.0,0.0,0.81579226,0.0,0.0,-0.09257009,0,0,0,0,0
37779166,0.0,0.0,1.9081955,0.0,0.57834506,0.0,0.0,0.81579226,0.0,0.0,-0.09257009,0,0,0,0,0
37829085,-0.0032930742,-0.0,1.9069523,-0.04352959,0.5788513,-0.000953101,-0.0013426394,0.8154315,0.0,0.0,-0.09257009,0,0,0,0,0
37874042,-0.017288636,-0.0,1.9038763,-0.074622154,0.5800838,-0.0050145537,-0.007041067,0.81451094,0.0,0.0,-0.09257009,0,0,0,0,0
37928865,-0.023874786,-0.0,1.8991026,-0.11815174,0.5820065,-0.006947971,-0.009706714,0.8130965,0.0,0.0,-0.091121495,0,0,0,0,0
37978786,-0.031284202,-0.0,1.8926771,-0.13680728,0.58458596,-0.009144899,-0.012689611,0.811181,0.0,0.0,-0.091121495,0,0,0,0,0
38028771,-0.035400547,-0.0,1.8858387,-0.13680728,0.58733594,-0.010397093,-0.014323667,0.8091497,0.0,0.0,-0.091121495,0,0,0,0,0
38073730,-0.03869362,-0.0,1.8794165,-0.14302579,0.5899132,-0.011414364,-0.015619369,0.8072349,0.0,0.0,-0.091121495,0,0,0,0,0
38128546,-0.040340155,-0.0,1.8707633,-0.18033688,0.5933905,-0.011970357,-0.016232295,0.8046619,0.0,0.0,-0.091121495,0,0,0,0,0
38178453,-0.041163422,-0.0,1.8602751,-0.22386645,0.5975971,-0.012301308,-0.016499236,0.8015324,0.0,0.0,-0.0896729,0,0,0,0,0
38228414,-0.041986693,-0.0,1.8485075,-0.23008496,0.60229766,-0.012646101,-0.016755057,0.7979955,0.0,0.0,-0.08894859,0,0,0,0,0
38278345,-0.042809963,-0.0,1.8369493,-0.23630348,0.60689396,-0.012992538,-0.01700874,0.7944946,0.0,0.0,-0.08894859,0,0,0,0,0
38328211,-0.04774957,-0.0,1.8251656,-0.23630348,0.61153024,-0.014602928,-0.01888522,0.79086083,0.0,0.0,-0.08894859,0,0,0,0,0
38378146,-0.0469263,-0.0,1.8131185,-0.24252199,0.6162889,-0.014462734,-0.018472891,0.7871706,0.0,0.0,-0.0903972,0,0,0,0,0
38428052,-0.0469263,-0.0,1.8010147,-0.24252199,0.6210415,-0.014574264,-0.018385027,0.78342646,0.0,0.0,-0.091121495,0,0,0,0,0
38478023,-0.042809963,-0.0,1.7887093,-0.25495902,0.6258788,-0.0133989705,-0.016690442,0.7796266,0.0,0.0,-0.091121495,0,0,0,0,0
38527936,-0.040340155,-0.0,1.7755486,-0.26739603,0.6310116,-0.01272928,-0.015644241,0.77551115,0.0,0.0,-0.09836449,0,0,0,0,0
38577807,-0.03869362,-0.0,1.7620275,-0.27361456,0.6362504,-0.012310952,-0.014922896,0.77124,0.0,0.0,-0.10271028,0,0,0,0,0
38627778,-0.03869362,-0.0,1.7482611,-0.27983308,0.64154387,-0.012413377,-0.014837805,0.76684237,0.0,0.0,-0.10271028,0,0,0,0,0
38677749,-0.03951689,-0.0,1.7345262,-0.27361456,0.6467897,-0.012781223,-0.015066044,0.7624124,0.0,0.0,-0.10271028,0,0,0,0,0
38727643,-0.037047077,-0.0,1.7209066,-0.26739603,0.651982,-0.012078395,-0.0140426,0.75800824,0.0,0.0,-0.10488318,0,0,0,0,0
38777526,-0.027991123,-0.0,1.7074765,-0.27361456,0.6571057,-0.009197163,-0.010548702,0.75366855,0.0,0.0,-0.10488318,0,0,0,0,0
38827459,-0.018111907,-0.0,1.6933769,-0.28605157,0.66244024,-0.005999192,-0.0067836386,0.7490601,0.0,0.0,-0.10488318,0,0,0,0,0
38877319,-0.009056121,-0.0074444315,1.6791483,-0.28605157,0.66778094,-0.00025308708,-0.0058560567,0.7443348,0.0,0.0,-0.10488318,0,0,0,0,0
38927276,-0.018112319,-0.00827125,1.6647745,-0.29848862,0.67310655,-0.0030373482,-0.009480865,0.7394785,0.0,0.0,-0.09691589,0,0,0,0,0
38977155,-0.030461105,-0.004135211,1.6496576,-0.3047071,0.67862564,-0.008817953,-0.012588427,0.7343235,0.0,0.0,-0.096191585,0,0,0,0,0
39027082,-0.037047077,-0.0,1.6345066,-0.29848862,0.6841095,-0.012673577,-0.013507874,0.7291441,0.0,0.0,-0.096191585,0,0,0,0,0
39076993,-0.034577273,-0.0,1.6196079,-0.29848862,0.68953735,-0.011922348,-0.012518977,0.7240438,0.0,0.0,-0.10198598,0,0,0,0,0
39126966,-0.032107472,-0.0,1.6044741,-0.3047071,0.6950106,-0.011158476,-0.011540743,0.7188203,0.0,0.0,-0.10488318,0,0,0,0,0
39176851,-0.027167857,-0.0,1.5892744,-0.3047071,0.7004791,-0.009515842,-0.009693322,0.71354365,0.0,0.0,-0.107780375,0,0,0,0,0
39226765,-0.018935176,-0.0,1.574066,-0.3047071,0.7059182,-0.0066835424,-0.006705431,0.7082301,0.0,0.0,-0.10995327,0,0,0,0,0
39276671,-0.02058171,-0.0,1.5590762,-0.29848862,0.7112006,-0.00731912,-0.0072338386,0.70291376,0.0,0.0,-0.10995327,0,0,0,0,0
39326638,-0.025521323,-0.0,1.5444092,-0.2922701,0.71631587,-0.009141161,-0.008903079,0.69765943,0.0,0.0,-0.10995327,0,0,0,0,0
39376565,-0.037047766,-0.0074428306,1.529955,-0.2922701,0.72131693,-0.010785524,-0.015511506,0.69234747,0.0,0.0,-0.107780375,0,0,0,0,0
39426427,-0.03704829,-0.009923772,1.5154902,-0.28605157,0.7263172,-0.010045142,-0.016334105,0.6870921,0.0,0.0,-0.10271028,0,0,0,0,0
39481442,-0.037872292,-0.012404589,1.4998124,-0.28605157,0.7316876,-0.00962897,-0.017442994,0.68134886,0.0,0.0,-0.10198598,0,0,0,0,0
39526278,-0.036225673,-0.01240484,1.4869708,-0.28605157,0.736055,-0.009134685,-0.016823815,0.6766509,0.0,0.0,-0.09981308,0,0,0,0,0
39576218,-0.027992563,-0.012405934,1.4728184,-0.27983308,0.7408565,-0.006203422,-0.013995067,0.6714888,0.0,0.0,-0.09908878,0,0,0,0,0
39626094,-0.0181147,-0.02150525,1.4588517,-0.28605157,0.7455484,0.0004132759,-0.0140519785,0.6663032,0.0,0.0,-0.09908878,0,0,0,0,0
39676018,-0.013175371,-0.026468683,1.4445506,-0.28605157,0.7502792,0.0038063983,-0.014283931,0.66095597,0.0,0.0,-0.09908878,0,0,0,0,0
39725946,-0.0074114874,-0.02895069,1.430047,-0.2922701,0.7550287,0.006692323,-0.013358911,0.65552145,0.0,0.0,-0.09908878,0,0,0,0,0
39775923,-0.00082358427,-0.033913977,1.4144436,-0.32336268,0.7600651,0.010703853,-0.0131570855,0.6496256,0.0,0.0,-0.09908878,0,0,0,0,0
39825964,0.0,-0.03639549,1.3979672,-0.3357997,0.7653698,0.011708511,-0.013929542,0.6433335,0.0,0.0,-0.09691589,0,0,0,0,0
39875758,-0.0049416954,-0.03556817,1.3813347,-0.3357997,0.7707248,0.009424472,-0.01528139,0.63691515,0.0,0.0,-0.09691589,0,0,0,0,0
39925667,-0.0057650907,-0.033913795,1.3648971,-0.32958117,0.77594674,0.008457457,-0.014976132,0.63056386,0.0,0.0,-0.096191585,0,0,0,0,0
39975631,-0.007411731,-0.030605022,1.3484532,-0.32958117,0.78112864,0.006658177,-0.014266891,0.6241717,0.0,0.0,-0.096191585,0,0,0,0,0
40030450,-0.016467908,-0.021505453,1.3303168,-0.3357997,0.7868016,0.00015787048,-0.013541512,0.61705744,0.0,0.0,-0.096191585,0,0,0,0,0
40075366,-0.024699008,-0.010752119,1.3146926,-0.3482367,0.7915853,-0.0064910776,-0.011800905,0.61091036,0.0,0.0,-0.096191585,0,0,0,0,0
40125284,-0.027991123,-0.0,1.2968354,-0.36067376,0.7969623,-0.011154664,-0.008452008,0.6038669,0.0,0.0,-0.096191585,0,0,0,0,0
40180291,-0.027167857,-0.0,1.2767465,-0.36689225,0.80299205,-0.010908457,-0.008094276,0.5958349,0.0,0.0,-0.091845796,0,0,0,0,0
40230212,-0.0115257595,-0.0,1.258275,-0.37311077,0.80852187,-0.004659466,-0.003391134,0.58843786,0.0,0.0,-0.091121495,0,0,0,0,0
40275037,-0.0115257595,-0.0,1.2414268,-0.37932926,0.81345016,-0.004687867,-0.0033517622,0.581606,0.0,0.0,-0.091121495,0,0,0,0,0
40324961,-0.021404983,-0.0,1.2218678,-0.39176628,0.81906575,-0.008766379,-0.0061391816,0.5735998,0.0,0.0,-0.0903972,0,0,0,0,0
40384877,-0.03375401,-0.0,1.198396,-0.39176628,0.8256706,-0.01393617,-0.009517848,0.56390005,0.0,0.0,-0.091121495,0,0,0,0,0
40429862,-0.03375401,-0.0,1.1807417,-0.39798483,0.830616,-0.014019642,-0.009394461,0.55658984,0.0,0.0,-0.08894859,0,0,0,0,0
40474767,-0.024698073,-0.0016541723,1.1627648,-0.41042185,0.8356459,-0.009865693,-0.007472812,0.5491291,0.0,0.0,-0.086051404,0,0,0,0,0
40529772,-0.022228332,-0.0033084087,1.1402068,-0.41042185,0.84180194,-0.008463452,-0.0073908935,0.5396696,0.0,0.0,-0.086051404,0,0,0,0,0
40579670,-0.0139958225,-0.00744429,1.1201184,-0.39176628,0.84721094,-0.003951421,-0.0068708933,0.5311976,0.0,0.0,-0.0875,0,0,0,0,0
40624543,-0.011526022,-0.008271519,1.1025718,-0.3855478,0.85184276,-0.002742963,-0.0065415106,0.5237496,0.0,0.0,-0.0882243,0,0,0,0,0
40674435,-0.004939865,-0.012407503,1.083094,-0.39176628,0.85690105,0.0010812974,-0.006589152,0.51543766,0.0,0.0,-0.0882243,0,0,0,0,0
40729363,-0.0016466216,-0.012407548,1.0618342,-0.3855478,0.86232877,0.0024311384,-0.0057665994,0.5063101,0.0,0.0,-0.0882243,0,0,0,0,0
40779320,0.0,-0.013234724,1.042279,-0.39176628,0.86723346,0.0032945534,-0.0057388814,0.4978578,0.0,0.0,-0.0882243,0,0,0,0,0
40824143,0.0,-0.014061895,1.0245051,-0.39798483,0.8716211,0.0034461338,-0.0061284234,0.4901298,0.0,0.0,-0.0882243,0,0,0,0,0
40879059,0.0,-0.015716232,1.0027733,-0.39176628,0.8768899,0.0037769014,-0.006890844,0.48062712,0.0,0.0,-0.08894859,0,0,0,0,0
40928979,-0.0065865815,-0.014061794,0.98326254,-0.39176628,0.8815483,0.00041582296,-0.0077527054,0.47202992,0.0,0.0,-0.095467284,0,0,0,0,0
40978908,-0.009056419,-0.012407386,0.96371305,-0.39176628,0.88612294,-0.0011376198,-0.007595663,0.46338654,0.0,0.0,-0.096191585,0,0,0,0,0
41023857,-0.009056419,-0.012407386,0.946445,-0.37932926,0.89009076,-0.0012031579,-0.0075855576,0.45571855,0.0,0.0,-0.096191585,0,0,0,0,0
41078748,-0.0016466216,-0.012407548,0.92551464,-0.3855478,0.8948097,0.0020327475,-0.0059187873,0.4464038,0.0,0.0,-0.096191585,0,0,0,0,0
41128669,0.0,-0.008271703,0.9060421,-0.39176628,0.8991212,0.0018101903,-0.003718653,0.43768013,0.0,0.0,-0.096191585,0,0,0,0,0
41178584,0.0,-0.0033086813,0.8864851,-0.39176628,0.90336454,0.0007094983,-0.0014944741,0.42887032,0.0,0.0,-0.09908878,0,0,0,0,0
41228552,0.0,0.0,0.8667528,-0.39798483,0.9075531,0.0,0.0,0.41993746,0.0,0.0,-0.10271028,0,0,0,0,0
41278464,0.0,0.0,0.8468881,-0.39798483,0.9116792,0.0,0.0,0.41090277,0.0,0.0,-0.103434585,0,0,0,0,0
41328387,0.0,0.0,0.82646143,-0.41042185,0.9158283,0.0,0.0,0.4015702,0.0,0.0,-0.103434585,0,0,0,0,0
41378295,0.0,0.0,0.8059776,-0.41042185,0.91989297,0.0,0.0,0.39216945,0.0,0.0,-0.103434585,0,0,0,0,0
41428263,0.0,0.0,0.78540975,-0.41664034,0.9238773,0.0,0.0,0.3826888,0.0,0.0,-0.10271028,0,0,0,0,0
41478166,0.0,-0.0008271703,0.76461655,-0.41664034,0.9278059,0.00015429336,-0.0003837268,0.37306306,0.0,0.0,-0.10198598,0,0,0,0,0
41528052,0.0,-0.0033086813,0.74383163,-0.41664034,0.9316316,0.0006011887,-0.0015412375,0.36340043,0.0,0.0,-0.10198598,0,0,0,0,0
41577982,0.0,-0.012407555,0.7230292,-0.41664034,0.9353442,0.0021942083,-0.005802742,0.35368454,0.0,0.0,-0.10053739,0,0,0,0,0
41627895,0.0,-0.016543405,0.7021397,-0.42285883,0.9389732,0.0028446275,-0.0077670845,0.34389082,0.0,0.0,-0.10053739,0,0,0,0,0
41677865,0.0,-0.022333596,0.6810098,-0.42285883,0.9425274,0.0037292207,-0.010525451,0.33394223,0.0,0.0,-0.10053739,0,0,0,0,0
41727745,0.0,-0.023987936,0.65991724,-0.42285883,0.94598764,0.0038859989,-0.011346689,0.32398057,0.0,0.0,-0.09908878,0,0,0,0,0
41777670,0.0,-0.028123787,0.63856006,-0.4290774,0.94936776,0.004413645,-0.013350788,0.31385204,0.0,0.0,-0.091845796,0,0,0,0,0
41827589,0.0,-0.028950956,0.6171707,-0.42285883,0.9526643,0.00439621,-0.013791234,0.3036793,0.0,0.0,-0.091845796,0,0,0,0,0
41877543,0.0,-0.025642278,0.59582895,-0.4290774,0.9558722,0.0037632498,-0.012256041,0.29350305,0.0,0.0,-0.091845796,0,0,0,0,0
41927444,0.0,-0.024815109,0.57441795,-0.4290774,0.95896447,0.0035146798,-0.011899014,0.28325483,0.0,0.0,-0.091845796,0,0,0,0,0
41977340,0.0,-0.022333596,0.55301934,-0.4290774,0.9619542,0.003048468,-0.010742394,0.27298257,0.0,0.0,-0.09257009,0,0,0,0,0
42027194,-0.0008233767,-0.019852083,0.5316869,-0.42285883,0.96482474,0.0022105514,-0.009685349,0.26270628,0.0,0.0,-0.09474299,0,0,0,0,0
42077252,-0.0008233436,-0.016543403,0.5102989,-0.4290774,0.96759325,0.0016893406,-0.008107716,0.25237808,0.0,0.0,-0.095467284,0,0,0,0,0
42127076,0.0,-0.018197745,0.4887906,-0.43529588,0.9702437,0.0022016205,-0.008828367,0.24195963,0.0,0.0,-0.095467284,0,0,0,0,0
42181964,0.0,-0.023987936,0.46455768,-0.4415144,0.9730743,0.0027608944,-0.011671582,0.2301792,0.0,0.0,-0.095467284,0,0,0,0,0
42226927,0.0,-0.023987936,0.44451764,-0.45395142,0.97533184,0.0026438083,-0.0116986595,0.22041759,0.0,0.0,-0.095467284,0,0,0,0,0
42276896,0.0,-0.023987936,0.42183504,-0.45395142,0.9777689,0.002510963,-0.011727891,0.2093421,0.0,0.0,-0.09474299,0,0,0,0,0
42326808,0.0,-0.024815109,0.3991765,-0.45395142,0.9800729,0.0024599303,-0.012160932,0.19825052,0.0,0.0,-0.09401869,0,0,0,0,0
42376680,0.0,-0.023987936,0.37653702,-0.45395142,0.9822591,0.0022447165,-0.011781749,0.18714482,0.0,0.0,-0.0932944,0,0,0,0,0
42426651,0.0,-0.022333596,0.35385537,-0.45395142,0.9843277,0.001965383,-0.010992246,0.17599508,0.0,0.0,-0.091121495,0,0,0,0,0
42476522,0.0,-0.019852085,0.33121362,-0.45395142,0.98626995,0.00163629,-0.009790079,0.16484275,0.0,0.0,-0.091121495,0,0,0,0,0
42526511,0.0,-0.019024914,0.30852103,-0.45395142,0.98808074,0.0014615617,-0.009399359,0.15364249,0.0,0.0,-0.0903972,0,0,0,0,0
42576388,0.0,-0.0057901917,0.2858793,-0.45395142,0.9897974,0.00041241568,-0.0028655664,0.1424528,0.0,0.0,-0.0896729,0,0,0,0,0
42631229,0.0,0.0,0.26098418,-0.45395142,0.991498,0.0,0.0,0.13012207,0.0,0.0,-0.0896729,0,0,0,0,0
42676197,0.0,-0.0016543404,0.24057129,-0.45395142,0.99277407,9.925693e-05,-0.00082119333,0.11999575,0.0,0.0,-0.0896729,0,0,0,0,0
42726262,0.0,-0.0033086813,0.21784422,-0.45395142,0.9940725,0.0001798381,-0.0016445362,0.10870671,0.0,0.0,-0.0896729,0,0,0,0,0
42776081,0.0,-0.0049630213,0.1952302,-0.45395142,0.99523634,0.00024184815,-0.0024696947,0.097459845,0.0,0.0,-0.0896729,0,0,0,0,0
42830915,0.0,-0.009098873,0.1703378,-0.45395142,0.996365,0.00038700085,-0.0045329304,0.08506509,0.0,0.0,-0.0896729,0,0,0,0,0
42875872,0.0,-0.012407555,0.14992861,-0.45395142,0.9971723,0.00046462347,-0.006186315,0.07489267,0.0,0.0,-0.0896729,0,0,0,0,0
42925806,0.0,-0.015716232,0.12726057,-0.45395142,0.9979455,0.0004996717,-0.007842133,0.063585386,0.0,0.0,-0.0903972,0,0,0,0,0
42980699,0.0,-0.018197745,0.10235361,-0.45395142,0.9986494,0.00046544155,-0.009086834,0.051152352,0.0,0.0,-0.0903972,0,0,0,0,0
43030585,0.0,-0.018197745,0.07969643,-0.45395142,0.9991649,0.00036247287,-0.009091524,0.039836023,0.0,0.0,-0.091121495,0,0,0,0,0
43075515,0.0,-0.018197745,0.05921047,-0.4601699,0.9995204,0.00026933118,-0.00909476,0.029599687,0.0,0.0,-0.09257009,0,0,0,0,0
43125422,0.0,-0.018197745,0.03621109,-0.46638846,0.9997947,0.00016472876,-0.009097256,0.018103806,0.0,0.0,-0.096191585,0,0,0,0,0
43180328,0.0,-0.021506423,0.010602167,-0.46638846,0.9999281,5.7002304e-05,-0.010752853,0.0053007524,0.0,0.0,-0.10126168,0,0,0,0,0
43225303,0.0,-0.025642278,-0.010279599,-0.4601699,0.9999046,-6.589598e-05,-0.012820618,-0.005139354,0.0,0.0,-0.103434585,0,0,0,0,0
43275176,0.0,-0.028123787,-0.033229195,-0.4601699,0.9997631,-0.00023361425,-0.014059489,-0.01661219,0.0,0.0,-0.10488318,0,0,0,0,0
43325088,0.0,-0.028950956,-0.05610467,-0.4415144,0.9995018,-0.00040600353,-0.014469277,-0.028045718,0.0,0.0,-0.10560747,0,0,0,0,0
43380091,0.0,-0.028950956,-0.0803893,-0.4415144,0.9990876,-0.0005816598,-0.01446328,-0.040179618,0.0,0.0,-0.10560747,0,0,0,0,0
43424978,0.0,-0.028123787,-0.10033114,-0.4477329,0.9986432,-0.00070510386,-0.01404374,-0.050139576,0.0,0.0,-0.10560747,0,0,0,0,0
43474851,-0.0049407645,-0.02646934,-0.12234807,-0.4415144,0.998037,-0.00327463,-0.013058472,-0.061162982,0.0,0.0,-0.10560747,0,0,0,0,0
43529824,-0.0049408386,-0.027296506,-0.14661695,-0.4415144,0.99721575,-0.0034631547,-0.013430208,-0.073269404,0.0,0.0,-0.10922897,0,0,0,0,0
43584681,-0.0049407645,-0.02646934,-0.17021793,-0.4290774,0.99628735,-0.003586216,-0.012976361,-0.08503113,0.0,0.0,-0.10922897,0,0,0,0,0
43624663,-0.0032937056,-0.023987893,-0.18739834,-0.4290774,0.9955386,-0.0027616608,-0.011786959,-0.09357493,0.0,0.0,-0.10922897,0,0,0,0,0
43679581,0.0,-0.023987936,-0.21098004,-0.4290774,0.99436957,-0.0012628683,-0.011927009,-0.1052869,0.0,0.0,-0.10922897,0,0,0,0,0
43729440,0.0,-0.024815109,-0.23239829,-0.4290774,0.99318004,-0.001438468,-0.012323567,-0.11592891,0.0,0.0,-0.10705608,0,0,0,0,0
43779466,0.0,-0.026469449,-0.25371486,-0.42285883,0.99187756,-0.0016743748,-0.013127992,-0.12650639,0.0,0.0,-0.10415888,0,0,0,0,0
43824329,0.0,-0.026469449,-0.27270842,-0.42285883,0.99063146,-0.001798971,-0.013111499,-0.13592017,0.0,0.0,-0.103434585,0,0,0,0,0
43879185,0.0,-0.027296618,-0.29590517,-0.42285883,0.9889828,-0.0020118812,-0.013498781,-0.14739966,0.0,0.0,-0.09908878,0,0,0,0,0
43929111,0.0,-0.028950956,-0.31701642,-0.42285883,0.98736036,-0.0022848062,-0.014293511,-0.15782875,0.0,0.0,-0.09908878,0,0,0,0,0
43974032,0.0,-0.030605301,-0.33629102,-0.4290774,0.98578143,-0.0025608644,-0.015086246,-0.1673347,0.0,0.0,-0.09908878,0,0,0,0,0
44023955,0.0,-0.03143247,-0.3577737,-0.43529588,0.9839208,-0.002796342,-0.015464804,-0.17791231,0.0,0.0,-0.09474299,0,0,0,0,0
44078872,0.0,-0.032259643,-0.38139942,-0.4290774,0.98174417,-0.0030572102,-0.015836732,-0.18952133,0.0,0.0,-0.0932944,0,0,0,0,0
44128799,0.0,-0.034741152,-0.4030068,-0.4415144,0.97961897,-0.0034764162,-0.017018257,-0.20011234,0.0,0.0,-0.09257009,0,0,0,0,0
44173750,0.0,-0.03804983,-0.42303914,-0.4477329,0.9775361,-0.0039939606,-0.018599784,-0.20990784,0.0,0.0,-0.09257009,0,0,0,0,0
44228679,0.0,-0.04053134,-0.44738543,-0.4415144,0.97488475,-0.004495263,-0.019759398,-0.22178629,0.0,0.0,-0.09257009,0,0,0,0,0
44278575,0.0,-0.04218568,-0.46879375,-0.4290774,0.9724382,-0.0048985835,-0.020514525,-0.23220474,0.0,0.0,-0.086775705,0,0,0,0,0
44328472,0.0,-0.03970417,-0.49020424,-0.4290774,0.9699214,-0.004816899,-0.019257491,-0.24260758,0.0,0.0,-0.0846028,0,0,0,0,0
44378385,0.0,-0.038877003,-0.5113732,-0.42285883,0.9673071,-0.0049158772,-0.01880537,-0.25286198,0.0,0.0,-0.0846028,0,0,0,0,0
44428362,0.0,-0.03804983,-0.53172934,-0.40420333,0.9646911,-0.004998374,-0.018355379,-0.26269612,0.0,0.0,-0.0846028,0,0,0,0,0
44478249,0.0,-0.038877003,-0.55189306,-0.40420333,0.96198595,-0.0052958373,-0.018701922,-0.2724063,0.0,0.0,-0.0846028,0,0,0,0,0
44528152,0.0,-0.038877003,-0.57218796,-0.41042185,0.95917225,-0.005485338,-0.01864722,-0.28215382,0.0,0.0,-0.0846028,0,0,0,0,0
44578078,0.0,-0.038877003,-0.59283316,-0.41664034,0.9562086,-0.0056775305,-0.018589605,-0.29203975,0.0,0.0,-0.08315421,0,0,0,0,0
44628088,0.0,-0.03804983,-0.61360127,-0.41042185,0.9531322,-0.005745372,-0.018135447,-0.30195555,0.0,0.0,-0.08315421,0,0,0,0,0
44677940,0.0,-0.038877003,-0.63406867,-0.41042185,0.9499846,-0.0060595726,-0.018468603,-0.31169116,0.0,0.0,-0.0846028,0,0,0,0,0
44732825,0.0,-0.04053134,-0.6566554,-0.41664034,0.94638854,-0.0065344307,-0.019181823,-0.32239428,0.0,0.0,-0.085327104,0,0,0,0,0
44777743,0.0,-0.04218568,-0.67546403,-0.42285883,0.9432987,-0.006988554,-0.019899799,-0.3312744,0.0,0.0,-0.0875,0,0,0,0,0
44827667,0.0,-0.04301285,-0.69669634,-0.4290774,0.93972045,-0.0073405593,-0.020213144,-0.34126672,0.0,0.0,-0.0875,0,0,0,0,0
44877658,0.0,-0.04466719,-0.71817786,-0.43529588,0.9359839,-0.007847851,-0.020907361,-0.35133377,0.0,0.0,-0.0882243,0,0,0,0,0
44927548,0.0,-0.043840017,-0.74008423,-0.4415144,0.9320882,-0.007926839,-0.020434653,-0.36156783,0.0,0.0,-0.09401869,0,0,0,0,0
44977475,0.0,-0.04301285,-0.7621273,-0.4415144,0.92805487,-0.007997796,-0.019962221,-0.37182203,0.0,0.0,-0.09981308,0,0,0,0,0
45027389,0.0,-0.04301285,-0.7841655,-0.4415144,0.9239015,-0.008217271,-0.019872883,-0.38202557,0.0,0.0,-0.10198598,0,0,0,0,0
45077349,0.0,-0.04053134,-0.8062231,-0.4415144,0.919656,-0.007949321,-0.018639997,-0.3922018,0.0,0.0,-0.10198598,0,0,0,0,0
45127283,0.0,-0.03556832,-0.828454,-0.45395142,0.9152829,-0.0071574347,-0.016279254,-0.40241876,0.0,0.0,-0.10198598,0,0,0,0,0
45182094,0.0,-0.028950956,-0.8537105,-0.46638846,0.9101768,-0.005992787,-0.013176165,-0.41396686,0.0,0.0,-0.10198598,0,0,0,0,0
45227048,0.0,-0.008271703,-0.87464523,-0.4601699,0.90588105,-0.0017515926,-0.0037466108,-0.42351198,0.0,0.0,-0.10271028,0,0,0,0,0
45277031,0.0,0.0,-0.89776945,-0.4601699,0.90093166,0.0,0.0,-0.433961,0.0,0.0,-0.10560747,0,0,0,0,0
45326957,0.0,0.0,-0.92074704,-0.4601699,0.89588666,0.0,0.0,-0.44428277,0.0,0.0,-0.107780375,0,0,0,0,0
45376814,0.0,0.0,-0.9436893,-0.4601699,0.89073133,0.0,0.0,-0.45453015,0.0,0.0,-0.10995327,0,0,0,0,0
45426739,0.0,0.0,-0.96666366,-0.4601699,0.88545144,0.0,0.0,-0.46473193,0.0,0.0,-0.10995327,0,0,0,0,0
45476682,0.0,0.0,-0.9896454,-0.4601699,0.8800529,0.0,0.0,-0.47487563,0.0,0.0,-0.10995327,0,0,0,0,0
45526625,0.0,-0.0008271703,-1.0139022,-0.50369954,0.8742288,-0.00020080141,-0.00036156806,-0.48551404,0.0,0.0,-0.10415888,0,0,0,0,0
45576508,0.0,-0.012407555,-1.0389671,-0.49748102,0.868059,-0.0030797333,-0.005385314,-0.49642232,0.0,0.0,-0.10415888,0,0,0,0,0
45626456,0.0,-0.018197745,-1.0635036,-0.48504397,0.8618845,-0.004613465,-0.007842393,-0.50702304,0.0,0.0,-0.10415888,0,0,0,0,0
45676306,0.0,-0.019852085,-1.0876822,-0.48504397,0.85568535,-0.0051359152,-0.008493848,-0.5174013,0.0,0.0,-0.10271028,0,0,0,0,0
45726257,0.0,-0.022333596,-1.1117254,-0.47260696,0.84939253,-0.0058923326,-0.009485389,-0.52764344,0.0,0.0,-0.09836449,0,0,0,0,0
45776167,0.0,-0.023987936,-1.1350039,-0.4601699,0.84318566,-0.00644693,-0.010113627,-0.5374886,0.0,0.0,-0.0896729,0,0,0,0,0
45826042,0.0,-0.026469449,-1.1579543,-0.4601699,0.83694947,-0.007241407,-0.011077442,-0.54712015,0.0,0.0,-0.086051404,0,0,0,0,0
45875966,0.0,-0.016543405,-1.1808965,-0.45395142,0.8306627,-0.004605081,-0.006871152,-0.55671436,0.0,0.0,-0.086051404,0,0,0,0,0
45925900,0.0,-0.011580384,-1.203564,-0.45395142,0.82431424,-0.003277881,-0.0047729914,-0.56610286,0.0,0.0,-0.086051404,0,0,0,0,0
45980847,0.0,-0.0074445326,-1.2285078,-0.45395142,0.817198,-0.0021453192,-0.0030418425,-0.57634497,0.0,0.0,-0.086051404,0,0,0,0,0
46025721,0.0,-0.006617362,-1.248879,-0.45395142,0.81128645,-0.0019343924,-0.002684298,-0.5846394,0.0,0.0,-0.086051404,0,0,0,0,0
46075664,0.0,0.0,-1.2713628,-0.4415144,0.80466735,0.0,0.0,-0.5937259,0.0,0.0,-0.086051404,0,0,0,0,0
46130641,0.0,0.0,-1.295639,-0.4415144,0.7974015,0.0,0.0,-0.6034491,0.0,0.0,-0.0875,0,0,0,0,0
46180640,0.0,0.0,-1.3174636,-0.43529588,0.7907691,0.0,0.0,-0.6121145,0.0,0.0,-0.0882243,0,0,0,0,0
46225403,0.0,0.0,-1.3369502,-0.43529588,0.7847677,0.0,0.0,-0.61979,0.0,0.0,-0.0882243,0,0,0,0,0
46275334,0.0,0.0,-1.3587152,-0.4415144,0.7779765,0.0,0.0,-0.6282934,0.0,0.0,-0.0882243,0,0,0,0,0
46330370,0.0,0.0,-1.3828586,-0.4415144,0.7703354,0.0,0.0,-0.63763887,0.0,0.0,-0.0882243,0,0,0,0,0
46375207,0.0,0.0,-1.4027485,-0.4477329,0.7639561,0.0,0.0,-0.64526814,0.0,0.0,-0.08894859,0,0,0,0,0
46425128,0.0,0.0,-1.425535,-0.4601699,0.756555,0.0,0.0,-0.65393,0.0,0.0,-0.0932944,0,0,0,0,0
46474990,0.0,0.0,-1.4486662,-0.46638846,0.74894154,0.0,0.0,-0.6626361,0.0,0.0,-0.10126168,0,0,0,0,0
46524911,0.0,0.0,-1.4719487,-0.46638846,0.741177,0.0,0.0,-0.67130965,0.0,0.0,-0.10198598,0,0,0,0,0
46574878,0.0,0.0,-1.4949592,-0.4601699,0.7334045,0.0,0.0,-0.67979246,0.0,0.0,-0.10198598,0,0,0,0,0
46624802,0.0,0.0,-1.5179471,-0.4601699,0.7255428,0.0,0.0,-0.68817705,0.0,0.0,-0.10198598,0,0,0,0,0
46679662,0.0,0.0,-1.54319,-0.4601699,0.71679944,0.0,0.0,-0.6972794,0.0,0.0,-0.10198598,0,0,0,0,0
46729582,0.0,0.0,-1.5661631,-0.4601699,0.708743,0.0,0.0,-0.70546675,0.0,0.0,-0.10198598,0,0,0,0,0
46774580,0.0,0.0,-1.5866215,-0.4477329,0.7014896,0.0,0.0,-0.7126796,0.0,0.0,-0.10198598,0,0,0,0,0
46829432,0.0,0.0,-1.6110243,-0.4415144,0.692742,0.0,0.0,-0.72118556,0.0,0.0,-0.10198598,0,0,0,0,0
46879352,0.0,0.0016782013,-1.6328156,-0.4290774,0.68484294,0.00061144447,0.0005746523,-0.72869015,0.0,0.0,-0.10271028,0,0,0,0,0
