timestamp,timestamp_sample,ref_timestamp,ref_lat,ref_lon,x,y,z,delta_xy[0],delta_xy[1],delta_z,vx,vy,vz,z_deriv,delta_vxy[0],delta_vxy[1],delta_vz,ax,ay,az,heading,delta_heading,ref_alt,dist_bottom,eph,epv,evh,evv,vxy_max,vz_max,hagl_min,hagl_max,xy_valid,z_valid,v_xy_valid,v_z_valid,xy_reset_counter,z_reset_counter,vxy_reset_counter,vz_reset_counter,heading_reset_counter,xy_global,z_global,dist_bottom_valid,dist_bottom_sensor_bitfield
22220084,22219210,0,nan,nan,0.030040763,0.025330776,0.40405574,3.6148373e-05,5.13927e-05,-3.7690163e-05,0.032205094,0.029325476,0.024937179,-0.0003328046,0.005127244,0.014130588,-0.011329105,-0.20404188,-0.044372544,-0.25407004,-0.31150237,-0.01343903,nan,0.1,0.36241186,0.5511444,0.23123294,0.14667805,inf,inf,inf,inf,0,1,0,1,1,1,1,1,2,0,0,1,0
22230533,22229146,0,nan,nan,0.029939929,0.025291234,0.4039983,3.6148373e-05,5.13927e-05,-3.7690163e-05,0.032724686,0.028703569,0.027360337,0.0020440686,0.005127244,0.014130588,-0.011329105,0.26603708,-0.045670416,0.28841606,-0.31149653,-0.01343903,nan,0.1,0.3238986,0.55233043,0.21376841,0.14686522,inf,inf,inf,inf,0,1,0,1,1,1,1,1,2,0,0,1,0
22329769,22328980,0,nan,nan,0.029630903,0.025413116,0.4049108,3.6148373e-05,5.13927e-05,-3.7690163e-05,0.033376932,0.031147845,0.028054243,0.0036752583,0.005127244,0.014130588,-0.011329105,0.722262,1.1790868,0.23402464,-0.311398,-0.01343903,nan,0.1,0.3418374,0.5505764,0.22121081,0.14638506,inf,inf,inf,inf,0,1,0,1,1,1,1,1,2,0,0,1,0
22429694,22428816,0,nan,nan,0.030407287,0.026299542,0.40545022,3.6148373e-05,5.13927e-05,-3.7690163e-05,0.0341719,0.02675071,0.02863169,0.004705142,0.005127244,0.014130588,-0.011329105,0.801195,-0.49719,0.2860175,-0.3108325,-0.01343903,nan,0.1,0.3607014,0.5488626,0.22873564,0.14592688,inf,inf,inf,inf,0,1,0,1,1,1,1,1,2,0,0,1,0
22529677,22528720,0,nan,nan,0.029972479,0.026255982,0.40641925,3.6148373e-05,5.13927e-05,-3.7690163e-05,0.031040225,0.02974663,0.02883074,0.005583803,0.005127244,0.014130588,-0.011329105,-0.4003605,0.5595048,-0.08736732,-0.3102887,-0.01343903,nan,0.1,0.33859742,0.5471594,0.21822175,0.14548273,inf,inf,inf,inf,0,1,0,1,1,1,1,1,2,0,0,1,0
22619475,22618501,0,nan,nan,0.030532697,0.026972331,0.4071912,3.6148373e-05,5.13927e-05,-3.7690163e-05,0.029892677,0.028993584,0.030379632,0.0075297663,0.005127244,0.014130588,-0.011329105,-0.7403094,-0.28016606,0.57043374,-0.309793,-0.01343903,nan,0.1,0.35525414,0.544333,0.22487956,0.14487308,inf,inf,inf,inf,0,1,0,1,1,1,1,1,2,0,0,1,0
22729205,22728370,0,nan,nan,0.030239623,0.026952976,0.4098848,3.6148373e-05,5.13927e-05,-3.7690163e-05,0.03265006,0.026614148,0.030532397,0.009653075,0.005127244,0.014130588,-0.011329105,0.6560669,-0.75596696,0.059852596,-0.30919653,-0.01343903,nan,0.1,0.33546105,0.54384494,0.21539366,0.14465088,inf,inf,inf,inf,0,1,0,1,1,1,1,1,2,0,0,1,0
22819074,22818172,0,nan,nan,0.03061378,0.027463429,0.4113093,3.6148373e-05,5.13927e-05,-3.7690163e-05,0.029626014,0.03040861,0.032045733,0.011776558,0.005127244,0.014130588,-0.011329105,-0.68957627,0.5285839,0.16344412,-0.30848283,-0.01343903,nan,0.1,0.35185212,0.5476916,0.22194743,0.14520687,inf,inf,inf,inf,0,1,0,1,1,1,1,1,2,0,0,1,0
22928948,22927990,0,nan,nan,0.030333834,0.0274759,0.4117065,3.6148373e-05,5.13927e-05,-3.7690163e-05,0.030154752,0.029596169,0.03121916,0.010314394,0.005127244,0.014130588,-0.011329105,-0.4625216,0.4620369,0.11129452,-0.30755174,-0.01343903,nan,0.1,0.33242562,0.5406581,0.21272677,0.14389239,inf,inf,inf,inf,0,1,0,1,1,1,1,1,2,0,0,1,0
23028632,23027824,0,nan,nan,0.030681638,0.027978308,0.41022506,3.6148373e-05,5.13927e-05,-3.7690163e-05,0.0312289,0.02785999,0.028429247,0.0051830546,0.005127244,0.014130588,-0.011329105,0.48892188,-0.4370195,-0.36999562,-0.30716825,-0.01343903,nan,0.1,0.35040173,0.5456336,0.22045334,0.1446488,inf,inf,inf,inf,0,1,0,1,1,1,1,1,2,0,0,1,0
23128671,23127659,0,nan,nan,0.031600118,0.029365357,0.40955374,3.6148373e-05,5.13927e-05,-3.7690163e-05,0.020391732,0.03289462,0.019268237,-0.005130461,0.005127244,0.014130588,-0.011329105,0.2405314,-0.55625147,-2.1423786,-0.3069286,-0.01343903,nan,0.1,0.3691553,0.5440517,0.2313147,0.14429696,inf,inf,inf,inf,0,1,0,1,1,1,1,1,2,0,0,1,0
23228365,23227494,0,nan,nan,0.032489765,0.031837456,0.40597063,3.6148373e-05,5.13927e-05,-3.7690163e-05,0.015552425,0.0390897,-0.0006891668,-0.027088461,0.005127244,0.014130588,-0.011329105,-0.21374667,-0.25392747,-0.41346756,-0.3059445,-0.01343903,nan,0.1,0.3889746,0.54250884,0.24534275,0.14396389,inf,inf,inf,inf,0,1,0,1,1,1,1,1,2,0,0,1,0
23328200,23327329,0,nan,nan,0.032138016,0.03571555,0.40106806,3.6148373e-05,5.13927e-05,-3.7690163e-05,-0.002586175,0.050319172,-0.029709155,-0.057194635,0.005127244,0.014130588,-0.011329105,0.7065323,0.15233995,-0.27812445,-0.30344805,-0.01343903,nan,0.10307929,0.40969703,0.5409768,0.26210764,0.14364408,inf,inf,inf,inf,0,1,0,1,1,1,1,1,2,0,0,1,0
23428113,23427164,0,nan,nan,0.03020013,0.04051369,0.39304247,3.6148373e-05,5.13927e-05,-3.7690163e-05,-0.030506229,0.04838235,-0.08170762,-0.10960955,0.005127244,0.014130588,-0.011329105,-0.62310594,-0.68564636,-0.36433747,-0.29974127,-0.01343903,nan,0.111104876,0.4317821,0.5394828,0.28111178,0.14334264,inf,inf,inf,inf,0,1,0,1,1,1,1,1,2,0,0,1,0
23527873,23526999,0,nan,nan,0.026093304,0.04496067,0.37948784,3.6148373e-05,5.13927e-05,-3.7690163e-05,-0.048297103,0.040529482,-0.14028563,-0.16752046,0.005127244,0.014130588,-0.011329105,-0.64545935,0.09374837,-0.1834796,-0.2971116,-0.01343903,nan,0.12465951,0.4550194,0.53802615,0.3018538,0.14305992,inf,inf,inf,inf,0,1,0,1,1,1,1,1,2,0,0,1,0
23627726,23626834,0,nan,nan,0.02059644,0.04809361,0.359721,3.6148373e-05,5.13927e-05,-3.7690163e-05,-0.05226467,0.01832265,-0.19022024,-0.21661068,0.005127244,0.014130588,-0.011329105,-0.030400746,-0.20346463,-0.40047717,-0.29533145,-0.01343903,nan,0.14442635,0.48004252,0.53657955,0.32420212,0.14278811,inf,inf,inf,inf,0,1,0,1,1,1,1,1,2,0,0,1,0
23727684,23726669,0,nan,nan,0.016391534,0.049091782,0.33970025,3.6148373e-05,5.13927e-05,-3.7690163e-05,-0.034378808,0.0057778163,-0.20320733,-0.22743301,0.005127244,0.014130588,-0.011329105,0.47226813,0.66078115,-0.2632451,-0.2903558,-0.01343903,nan,0.1644471,0.50650513,0.5415378,0.3475425,0.14359751,inf,inf,inf,inf,0,1,0,1,1,1,1,1,2,0,0,1,0
23827315,23826505,0,nan,nan,0.013562207,0.048893876,0.3191198,3.6148373e-05,5.13927e-05,-3.7690163e-05,-0.018908434,-0.008004116,-0.23372683,-0.2544596,0.005127244,0.014130588,-0.011329105,0.37599942,0.04635274,-0.08572798,-0.28186873,-0.01343903,nan,0.18502754,0.5351747,0.5401145,0.37164032,0.14333554,inf,inf,inf,inf,0,1,0,1,1,1,1,1,2,0,0,1,0
23927119,23926340,0,nan,nan,0.012241286,0.046900243,0.29681417,3.6148373e-05,5.13927e-05,-3.7690163e-05,-0.009736838,-0.026977737,-0.2189984,-0.23708425,0.005127244,0.014130588,-0.011329105,-0.12875645,-0.086969405,0.6422376,-0.27396685,-0.01343903,nan,0.20733318,0.56547886,0.53870106,0.3965202,0.14308344,inf,inf,inf,inf,0,1,0,1,1,1,1,1,2,0,0,1,0
24027103,24026175,0,nan,nan,0.010788803,0.04371089,0.2777992,3.6148373e-05,5.13927e-05,-3.7690163e-05,-0.02656247,-0.03938656,-0.19632605,-0.21092711,0.005127244,0.014130588,-0.011329105,-0.21860448,-0.12448674,-0.088357024,-0.26728997,-0.01343903,nan,0.22634816,0.5984403,0.5373237,0.4219887,0.14284731,inf,inf,inf,inf,0,1,0,1,1,1,1,1,2,0,0,1,0
24126907,24126010,0,nan,nan,0.0076562013,0.039740656,0.2639178,3.6148373e-05,5.13927e-05,-3.7690163e-05,-0.043393616,-0.043765042,-0.11494447,-0.12585802,0.005127244,0.014130588,-0.011329105,-0.2633208,0.27161798,1.1769496,-0.26264656,-0.01343903,nan,0.24022955,0.6331368,0.53598195,0.44762698,0.14262444,inf,inf,inf,inf,0,1,0,1,1,1,1,1,2,0,0,1,0
24226698,24225845,0,nan,nan,0.0023928662,0.035610273,0.25857717,3.6148373e-05,5.13927e-05,-3.7690163e-05,-0.0678645,-0.043666508,-0.017172182,-0.025812259,0.005127244,0.014130588,-0.011329105,-0.43249017,-0.2510528,1.2303131,-0.26031718,-0.01343903,nan,0.24557018,0.6709088,0.5346485,0.47377285,0.14240436,inf,inf,inf,inf,0,1,0,1,1,1,1,1,2,0,0,1,0
24326897,24325681,0,nan,nan,-0.0045558787,0.031089425,0.26172286,3.6148373e-05,5.13927e-05,-3.7690163e-05,-0.081675395,-0.047917545,0.06157067,0.054334726,0.005127244,0.014130588,-0.011329105,-0.13397606,0.25141597,1.0575594,-0.2611521,-0.01343903,nan,0.24242449,0.71034825,0.5333233,0.4997594,0.14218992,inf,inf,inf,inf,0,1,0,1,1,1,1,1,2,0,0,1,0
24426584,24425516,0,nan,nan,-0.013153408,0.026028097,0.27132118,3.6148373e-05,5.13927e-05,-3.7690163e-05,-0.097288564,-0.054373417,0.10697041,0.1014128,0.005127244,0.014130588,-0.011329105,-0.30507392,-0.54219985,0.53153837,-0.26516455,-0.01343903,nan,0.23282617,0.75329876,0.53831434,0.52660125,0.14303677,inf,inf,inf,inf,0,1,0,1,1,1,1,1,2,0,0,1,0
24526121,24525351,0,nan,nan,-0.022750063,0.020264149,0.28330562,3.6148373e-05,5.13927e-05,-3.7690163e-05,-0.10887698,-0.06117409,0.08030552,0.07664097,0.005127244,0.014130588,-0.011329105,-0.16731782,-0.3249005,-0.1289412,-0.27089608,-0.01343903,nan,0.22084174,0.7990206,0.53701186,0.5539377,0.14284226,inf,inf,inf,inf,0,1,0,1,1,1,1,1,2,0,0,1,0
24626135,24625186,0,nan,nan,-0.03309431,0.014153113,0.28910905,3.6148373e-05,5.13927e-05,-3.7690163e-05,-0.10867137,-0.06325271,0.021515371,0.01835828,0.005127244,0.014130588,-0.011329105,-0.07672022,-0.046187993,-1.1433682,-0.277034,-0.01343903,nan,0.2150383,0.8462475,0.5357436,0.5812143,0.14266476,inf,inf,inf,inf,0,1,0,1,1,1,1,1,2,0,0,1,0
24726027,24725021,0,nan,nan,-0.044487853,0.007918706,0.28449023,3.6148373e-05,5.13927e-05,-3.7690163e-05,-0.12617108,-0.058919862,-0.08121278,-0.085651845,0.005127244,0.014130588,-0.011329105,0.058953576,0.90259486,-1.2658029,-0.2817767,-0.01343903,nan,0.21965712,0.89774054,0.53448325,0.60950714,0.14249487,inf,inf,inf,inf,0,1,0,1,1,1,1,1,2,0,0,1,0
24825697,24824857,0,nan,nan,-0.056847103,0.0015537506,0.26851958,3.6148373e-05,5.13927e-05,-3.7690163e-05,-0.13324685,-0.06995855,-0.18587899,-0.1927929,0.005127244,0.014130588,-0.011329105,-0.14040165,0.4401482,-1.8899044,-0.28678757,-0.01343903,nan,0.23562777,0.95032716,0.533257,0.63726467,0.1423426,inf,inf,inf,inf,0,1,0,1,1,1,1,1,2,0,0,1,0
24925563,24924765,0,nan,nan,-0.07023058,-0.0052218665,0.24174361,3.6148373e-05,5.13927e-05,-3.7690163e-05,-0.14358456,-0.07206874,-0.29929218,-0.30773512,0.005127244,0.014130588,-0.011329105,-0.110789865,-0.47291094,-0.82489556,-0.29170278,-0.01343903,nan,0.26240373,1.0078611,0.5320383,0.6661475,0.14219394,inf,inf,inf,inf,0,1,0,1,1,1,1,1,2,0,0,1,0
25020297,25019535,0,nan,nan,-0.08352053,-0.012029017,0.20824933,3.6148373e-05,5.13927e-05,-3.7690163e-05,-0.15008041,-0.072049335,-0.39143983,-0.39991271,0.005127244,0.014130588,-0.011329105,-0.31026182,0.094643444,-1.2702163,-0.29521552,-0.01343903,nan,0.29589802,1.0595752,0.5359381,0.69097054,0.14289469,inf,inf,inf,inf,0,1,0,1,1,1,1,1,2,0,0,1,0
25130464,25129355,0,nan,nan,-0.100010395,-0.020063533,0.16319557,3.6148373e-05,5.13927e-05,-3.7690163e-05,-0.15605587,-0.07462195,-0.44318557,-0.44989416,0.005127244,0.014130588,-0.011329105,-0.21870744,-0.012552783,-0.039884962,-0.2924072,-0.01343903,nan,0.3409518,1.1294703,0.52969885,0.72323954,0.14193392,inf,inf,inf,inf,0,1,0,1,1,1,1,1,2,0,0,1,0
25220119,25219208,0,nan,nan,-0.11371132,-0.026941635,0.12120834,3.6148373e-05,5.13927e-05,-3.7690163e-05,-0.15855026,-0.07856124,-0.44989493,-0.45779034,0.005127244,0.014130588,-0.011329105,-0.17430407,0.22726749,0.49196818,-0.28436232,-0.01343903,nan,0.382939,1.1855967,0.53361213,0.7473179,0.14264101,inf,inf,inf,inf,0,1,0,1,1,1,1,1,2,0,0,1,0
25329792,25329025,0,nan,nan,-0.13080955,-0.035660967,0.06882645,3.6148373e-05,5.13927e-05,-3.7690163e-05,-0.16479763,-0.07688677,-0.4477537,-0.4576229,0.005127244,0.014130588,-0.011329105,-0.65530014,-0.022724835,0.8966943,-0.26795748,-0.01343903,nan,0.4353209,1.2621759,0.53360385,0.7790955,0.14270972,inf,inf,inf,inf,0,1,0,1,1,1,1,1,2,0,0,1,0
25419748,25418930,0,nan,nan,-0.14476341,-0.042782754,0.028947372,3.6148373e-05,5.13927e-05,-3.7690163e-05,-0.16397981,-0.07678997,-0.4074163,-0.4176669,0.005127244,0.014130588,-0.011329105,-0.5048086,0.38097903,1.1262943,-0.24902272,-0.01343903,nan,0.47519997,1.3221458,0.53138345,0.80234176,0.14240322,inf,inf,inf,inf,0,1,0,1,1,1,1,1,2,0,0,1,0
25529508,25528696,0,nan,nan,-0.16212076,-0.05153171,-0.011754793,3.6148373e-05,5.13927e-05,-3.7690163e-05,-0.16304733,-0.07928147,-0.33473498,-0.34409413,0.005127244,0.014130588,-0.011329105,0.8628157,-0.15335602,0.28381756,-0.2200936,-0.01343903,nan,0.51590216,1.4052521,0.53140444,0.83396673,0.1424781,inf,inf,inf,inf,0,1,0,1,1,1,1,1,2,0,0,1,0
25619532,25618548,0,nan,nan,-0.17637818,-0.058631215,-0.040647604,3.6148373e-05,5.13927e-05,-3.7690163e-05,-0.1706368,-0.08017602,-0.2723453,-0.28278106,0.005127244,0.014130588,-0.011329105,0.3748474,-0.20497812,0.36547247,-0.19300595,-0.01343903,nan,0.544795,1.468391,0.5292207,0.85597074,0.14217675,inf,inf,inf,inf,0,1,0,1,1,1,1,1,2,0,0,1,0
25729377,25728370,0,nan,nan,-0.19409716,-0.06740546,-0.071029276,3.6148373e-05,5.13927e-05,-3.7690163e-05,-0.17721663,-0.07732791,-0.20098725,-0.21445307,0.005127244,0.014130588,-0.011329105,-0.085146524,0.02287064,0.58073944,-0.15560903,-0.01343903,nan,0.5751766,1.5578282,0.52926946,0.8874855,0.14226064,inf,inf,inf,inf,0,1,0,1,1,1,1,1,2,0,0,1,0
25819295,25818219,0,nan,nan,-0.20893604,-0.07433977,-0.09125489,3.6148373e-05,5.13927e-05,-3.7690163e-05,-0.18149127,-0.07509163,-0.15862438,-0.17496894,0.005127244,0.014130588,-0.011329105,0.049682222,-0.07568108,0.022437535,-0.12123655,-0.01343903,nan,0.59540224,1.6233094,0.53322804,0.9082068,0.142982,inf,inf,inf,inf,0,1,0,1,1,1,1,1,2,0,0,1,0
25928970,25928039,0,nan,nan,-0.22757669,-0.082480066,-0.1116558,3.6148373e-05,5.13927e-05,-3.7690163e-05,-0.18892692,-0.07277306,-0.116992734,-0.1366507,0.005127244,0.014130588,-0.011329105,-0.18628727,0.19550078,0.5270141,-0.07565965,-0.01343903,nan,0.6158031,1.7188982,0.5272202,0.9396436,0.14207289,inf,inf,inf,inf,0,1,0,1,1,1,1,1,2,0,0,1,0
26028782,26027874,0,nan,nan,-0.24514621,-0.08942575,-0.12834351,3.6148373e-05,5.13927e-05,-3.7690163e-05,-0.1930201,-0.06738528,-0.1114017,-0.1339282,0.005127244,0.014130588,-0.011329105,0.004356094,0.111088224,0.25519103,-0.03176783,-0.01343903,nan,0.6324909,1.7948219,0.53228635,0.9614766,0.14299111,inf,inf,inf,inf,0,1,0,1,1,1,1,1,2,0,0,1,0
26128530,26127710,0,nan,nan,-0.2625321,-0.09590455,-0.14384715,3.6148373e-05,5.13927e-05,-3.7690163e-05,-0.19758087,-0.06614558,-0.100369155,-0.12550026,0.005127244,0.014130588,-0.011329105,-0.02489622,-0.005895019,0.059282362,0.014473748,-0.01343903,nan,0.6479945,1.8872634,0.53129476,0.98996776,0.14291584,inf,inf,inf,inf,0,1,0,1,1,1,1,1,2,0,0,1,0
26228305,26227545,0,nan,nan,-0.2802959,-0.10227702,-0.15788217,3.6148373e-05,5.13927e-05,-3.7690163e-05,-0.19847502,-0.063641295,-0.090397984,-0.11727444,0.005127244,0.014130588,-0.011329105,0.11193257,0.010210754,0.080434725,0.06242716,-0.01343903,nan,0.6620295,1.9638944,0.5303034,1.0095084,0.14283915,inf,inf,inf,inf,0,1,0,1,1,1,1,1,2,0,0,1,0
26328334,26327386,0,nan,nan,-0.29668763,-0.10813598,-0.17121975,3.6148373e-05,5.13927e-05,-3.7690163e-05,-0.18606044,-0.059838198,-0.10746545,-0.13534808,0.005127244,0.014130588,-0.011329105,0.024309617,0.06692172,-0.3325982,0.111251906,-0.01343903,nan,0.6753671,2.0614328,0.52933806,1.0374471,0.14276983,inf,inf,inf,inf,0,1,0,1,1,1,1,1,2,0,0,1,0
26428019,26427216,0,nan,nan,-0.3116602,-0.11361274,-0.18701307,3.6148373e-05,5.13927e-05,-3.7690163e-05,-0.16508913,-0.054749,-0.12874712,-0.1574758,0.005127244,0.014130588,-0.011329105,0.3677476,-0.12555541,-0.1357388,0.15976708,-0.01343903,nan,0.69116044,2.137325,0.5283732,1.0541242,0.14270435,inf,inf,inf,inf,0,1,0,1,1,1,1,1,2,0,0,1,0
26527944,26527051,0,nan,nan,-0.32300422,-0.11825203,-0.20554036,3.6148373e-05,5.13927e-05,-3.7690163e-05,-0.13803992,-0.049967803,-0.15930061,-0.18866907,0.005127244,0.014130588,-0.011329105,0.2292697,0.06221487,-0.051971573,0.20703828,-0.01343903,nan,0.7096877,2.2395766,0.5274333,1.0814613,0.14264762,inf,inf,inf,inf,0,1,0,1,1,1,1,1,2,0,0,1,0
26628042,26626887,0,nan,nan,-0.33184218,-0.12258,-0.22698332,3.6148373e-05,5.13927e-05,-3.7690163e-05,-0.10191798,-0.04551662,-0.18873052,-0.21864599,0.005127244,0.014130588,-0.011329105,0.58243537,-0.31915137,-0.0382044,0.25201964,-0.01343903,nan,0.73113066,2.3131213,0.52649283,1.0946965,0.14259565,inf,inf,inf,inf,0,1,0,1,1,1,1,1,2,0,0,1,0
26727558,26726727,0,nan,nan,-0.3355027,-0.12554955,-0.25221962,3.6148373e-05,5.13927e-05,-3.7690163e-05,-0.07263824,-0.035024766,-0.24507439,-0.27527004,0.005127244,0.014130588,-0.011329105,0.29211903,-0.09202436,0.10023986,0.29440603,-0.01343903,nan,0.75636697,2.4196205,0.53163105,1.1211601,0.1435622,inf,inf,inf,inf,0,1,0,1,1,1,1,1,2,0,0,1,0
26827320,26826558,0,nan,nan,-0.3377339,-0.12849051,-0.2810868,3.6148373e-05,5.13927e-05,-3.7690163e-05,-0.05178127,-0.031314503,-0.29323414,-0.32234234,0.005127244,0.014130588,-0.011329105,-0.117172845,0.2552816,-0.28211358,0.333601,-0.01343903,nan,0.78523415,2.5288773,0.53070754,1.1474608,0.14353111,inf,inf,inf,inf,0,1,0,1,1,1,1,1,2,0,0,1,0
26927361,26926394,0,nan,nan,-0.33578554,-0.13030796,-0.3125112,3.6148373e-05,5.13927e-05,-3.7690163e-05,-0.039061602,-0.032912277,-0.2815736,-0.31009614,0.005127244,0.014130588,-0.011329105,0.039077364,-0.05342357,0.3808001,0.36852694,-0.01343903,nan,0.81665856,2.599272,0.5297831,1.1562004,0.14349696,inf,inf,inf,inf,0,1,0,1,1,1,1,1,2,0,0,1,0
27027234,27026233,0,nan,nan,-0.33491483,-0.13271375,-0.34438202,3.6148373e-05,5.13927e-05,-3.7690163e-05,-0.035860673,-0.035478376,-0.26909208,-0.2988138,0.005127244,0.014130588,-0.011329105,0.13652706,-0.1808213,0.3740609,0.3996997,-0.01343903,nan,0.84852934,2.7121296,0.5288829,1.1813912,0.14345951,inf,inf,inf,inf,0,1,0,1,1,1,1,1,2,0,0,1,0
27126885,27126065,0,nan,nan,-0.33153766,-0.13426058,-0.3744803,3.6148373e-05,5.13927e-05,-3.7690163e-05,-0.03815325,-0.036706816,-0.25082657,-0.2813194,0.005127244,0.014130588,-0.011329105,0.13899577,-0.18571182,0.48433253,0.4271379,-0.01343903,nan,0.87862766,2.7761273,0.5280071,1.1857382,0.14341928,inf,inf,inf,inf,0,1,0,1,1,1,1,1,2,0,0,1,0
27226889,27225901,0,nan,nan,-0.32952794,-0.13639288,-0.40410015,3.6148373e-05,5.13927e-05,-3.7690163e-05,-0.033245433,-0.03551171,-0.23427439,-0.26697242,0.005127244,0.014130588,-0.011329105,-0.03838113,0.08580284,0.22546932,0.45173588,-0.01343903,nan,0.9082475,2.8919694,0.5271277,1.2101263,0.14337188,inf,inf,inf,inf,0,1,0,1,1,1,1,1,2,0,0,1,0
27326869,27325737,0,nan,nan,-0.32473755,-0.1372283,-0.43204194,3.6148373e-05,5.13927e-05,-3.7690163e-05,-0.02429492,-0.031511743,-0.22230491,-0.25671795,0.005127244,0.014130588,-0.011329105,0.044927225,0.07150126,0.23536478,0.474904,-0.01343903,nan,0.9361893,2.9478045,0.52627045,1.2102083,0.14332956,inf,inf,inf,inf,0,1,0,1,1,1,1,1,2,0,0,1,0
27426432,27425572,0,nan,nan,-0.31976366,-0.13815776,-0.4564363,3.6148373e-05,5.13927e-05,-3.7690163e-05,-0.0065521365,-0.026142374,-0.20312135,-0.23738697,0.005127244,0.014130588,-0.011329105,0.011169018,0.20721802,0.10204697,0.49718052,-0.01343903,nan,0.9605837,3.0660787,0.53145915,1.2339733,0.14430612,inf,inf,inf,inf,0,1,0,1,1,1,1,1,2,0,0,1,0
27526438,27525416,0,nan,nan,-0.31111732,-0.13748588,-0.4783339,3.6148373e-05,5.13927e-05,-3.7690163e-05,0.0164101,-0.018111935,-0.17905322,-0.21270859,0.005127244,0.014130588,-0.011329105,0.22144136,0.034536712,0.021991175,0.5186219,-0.01343903,nan,0.98248124,3.1121871,0.5305911,1.2297493,0.14427237,inf,inf,inf,inf,0,1,0,1,1,1,1,1,2,0,0,1,0
27626292,27625244,0,nan,nan,-0.30145994,-0.13618447,-0.4992239,3.6148373e-05,5.13927e-05,-3.7690163e-05,0.03514157,-0.0075337705,-0.16214928,-0.19569013,0.005127244,0.014130588,-0.011329105,0.21429023,0.1799678,0.12746581,0.53980607,-0.01343903,nan,1.0033712,3.2323515,0.5297449,1.2528291,0.14425047,inf,inf,inf,inf,0,1,0,1,1,1,1,1,2,0,0,1,0
27725879,27725109,0,nan,nan,-0.28839785,-0.13314065,-0.5210605,3.6148373e-05,5.13927e-05,-3.7690163e-05,0.057387147,0.004209743,-0.16794768,-0.20318982,0.005127244,0.014130588,-0.011329105,0.10491786,0.14352846,0.023471959,0.56123304,-0.01343903,nan,1.0252079,3.2673995,0.5289215,1.2443066,0.14423561,inf,inf,inf,inf,0,1,0,1,1,1,1,1,2,0,0,1,0
27820911,27819927,0,nan,nan,-0.27499214,-0.12926966,-0.54087335,3.6148373e-05,5.13927e-05,-3.7690163e-05,0.072346285,0.017272921,-0.161048,-0.19698526,0.005127244,0.014130588,-0.011329105,0.12912823,0.078546524,0.015916653,0.582437,-0.01343903,nan,1.0450207,3.3766675,0.5269684,1.264597,0.14402112,inf,inf,inf,inf,0,1,0,1,1,1,1,1,2,0,0,1,0
27920600,27919759,0,nan,nan,-0.25840977,-0.12331936,-0.55999726,3.6148373e-05,5.13927e-05,-3.7690163e-05,0.08627987,0.031756915,-0.1566967,-0.19186287,0.005127244,0.014130588,-0.011329105,0.03327348,0.19562231,0.13654198,0.60591483,-0.01343903,nan,1.0641446,3.4004586,0.5261872,1.2523255,0.14402159,inf,inf,inf,inf,0,1,0,1,1,1,1,1,2,0,0,1,0
28020430,28019595,0,nan,nan,-0.24053322,-0.11549871,-0.57922363,3.6148373e-05,5.13927e-05,-3.7690163e-05,0.10058227,0.05160424,-0.14834422,-0.18365686,0.005127244,0.014130588,-0.011329105,0.094954684,0.15223521,0.072745115,0.63017905,-0.01343903,nan,1.0833709,3.5226486,0.525399,1.2741187,0.14401506,inf,inf,inf,inf,0,1,0,1,1,1,1,1,2,0,0,0,0
28130252,28129415,0,nan,nan,-0.21939848,-0.10445152,-0.60041285,3.6148373e-05,5.13927e-05,-3.7690163e-05,0.11692712,0.07605383,-0.13966878,-0.1755642,0.005127244,0.014130588,-0.011329105,0.14719918,0.16374971,0.30941913,0.65729463,-0.01343903,nan,1.1045601,3.5458581,0.52572507,1.2595518,0.14419514,inf,inf,inf,inf,0,1,0,1,1,1,1,1,2,0,0,0,0
28220036,28219266,0,nan,nan,-0.20058256,-0.092989564,-0.61590505,3.6148373e-05,5.13927e-05,-3.7690163e-05,0.12994201,0.10041045,-0.11862634,-0.15477875,0.005127244,0.014130588,-0.011329105,0.08872858,0.22613262,0.15970911,0.67948055,-0.01343903,nan,1.1200523,3.6562278,0.5298501,1.2784548,0.14500377,inf,inf,inf,inf,0,1,0,1,1,1,1,1,2,0,0,0,0
28330110,28329100,0,nan,nan,-0.17691915,-0.07639715,-0.631574,3.6148373e-05,5.13927e-05,-3.7690163e-05,0.14329915,0.13050209,-0.08055381,-0.11674667,0.005127244,0.014130588,-0.011329105,0.13232628,0.29203746,0.5099641,0.7065429,-0.01343903,nan,1.1357213,3.6662793,0.53019583,1.259793,0.14518565,inf,inf,inf,inf,0,1,0,1,1,1,1,1,2,0,0,0,0
28419919,28418939,0,nan,nan,-0.15600236,-0.059832584,-0.6428647,3.6148373e-05,5.13927e-05,-3.7690163e-05,0.15968485,0.16012202,-0.04690287,-0.085091,0.005127244,0.014130588,-0.011329105,0.1989835,0.25027204,0.22077686,0.7284495,-0.01343903,nan,1.147012,3.7764795,0.52830166,1.2778698,0.14499351,inf,inf,inf,inf,0,1,0,1,1,1,1,1,2,0,0,0,0
28529701,28528757,0,nan,nan,-0.12957558,-0.03683552,-0.65181726,3.6148373e-05,5.13927e-05,-3.7690163e-05,0.18320383,0.19408685,-0.043187935,-0.08125124,0.005127244,0.014130588,-0.011329105,0.14510351,0.33545136,-0.09586699,0.7556011,-0.01343903,nan,1.1559646,3.7732763,0.5286843,1.2554914,0.14518885,inf,inf,inf,inf,0,1,0,1,1,1,1,1,2,0,0,0,0
28619471,28618667,0,nan,nan,-0.10554195,-0.014984825,-0.6590082,3.6148373e-05,5.13927e-05,-3.7690163e-05,0.20123374,0.22560333,-0.05770615,-0.09465795,0.005127244,0.014130588,-0.011329105,0.18174389,0.40868002,-0.28682578,0.77853984,-0.01343903,nan,1.1631556,3.88288,0.52680236,1.2729272,0.14500752,inf,inf,inf,inf,0,1,0,1,1,1,1,1,2,0,0,0,0
28729245,28728430,0,nan,nan,-0.07563528,0.014144222,-0.67026883,3.6148373e-05,5.13927e-05,-3.7690163e-05,0.22900489,0.25634202,-0.08862496,-0.12426931,0.005127244,0.014130588,-0.011329105,0.35525727,0.26178035,-0.42520928,0.807186,-0.01343903,nan,1.1744162,3.8667133,0.52719253,1.2475247,0.1452188,inf,inf,inf,inf,0,1,0,1,1,1,1,1,2,0,0,0,0
28829098,28828265,0,nan,nan,-0.045626655,0.043352716,-0.6872625,3.6148373e-05,5.13927e-05,-3.7690163e-05,0.2535107,0.28675413,-0.1544232,-0.19098827,0.005127244,0.014130588,-0.011329105,0.09830857,0.3261762,-0.70356876,0.8332644,-0.01343903,nan,1.1914098,3.9875433,0.5264742,1.266183,0.14525457,inf,inf,inf,inf,0,1,0,1,1,1,1,1,2,0,0,0,0
28929305,28928102,0,nan,nan,-0.015375928,0.07440653,-0.71293503,3.6148373e-05,5.13927e-05,-3.7690163e-05,0.2740021,0.31112522,-0.23361003,-0.27254215,0.005127244,0.014130588,-0.011329105,0.13877892,0.24468108,-0.5334905,0.85958976,-0.01343903,nan,1.2170824,3.9468374,0.5257413,1.2362652,0.14525269,inf,inf,inf,inf,0,1,0,1,1,1,1,1,2,0,0,0,0
29028736,29027937,0,nan,nan,0.016365524,0.1065375,-0.7452351,3.6148373e-05,5.13927e-05,-3.7690163e-05,0.2895359,0.33597648,-0.29857364,-0.3391173,0.005127244,0.014130588,-0.011329105,0.14065093,0.2533947,-0.58891,0.8859058,-0.01343903,nan,1.2493825,4.0662794,0.5310444,1.254286,0.14630547,inf,inf,inf,inf,0,1,0,1,1,1,1,1,2,0,0,0,0
29128591,29127773,0,nan,nan,0.047716856,0.14106126,-0.78249276,3.6148373e-05,5.13927e-05,-3.7690163e-05,0.29297587,0.3581987,-0.3486478,-0.38936192,0.005127244,0.014130588,-0.011329105,0.16978507,0.21547432,-0.27149603,0.9122302,-0.01343903,nan,1.2866402,4.187404,0.5303287,1.2721415,0.14632842,inf,inf,inf,inf,0,1,0,1,1,1,1,1,2,0,0,0,0
29228591,29227656,0,nan,nan,0.0783354,0.17516848,-0.82222474,3.6148373e-05,5.13927e-05,-3.7690163e-05,0.29158315,0.38364887,-0.40802786,-0.44626027,0.005127244,0.014130588,-0.011329105,-0.090965904,0.31363833,-0.39725384,0.9387798,-0.01343903,nan,1.3263721,4.131869,0.529594,1.2392366,0.14629225,inf,inf,inf,inf,0,1,0,1,1,1,1,1,2,0,0,0,0
29328302,29327445,0,nan,nan,0.10796804,0.21250059,-0.86605805,3.6148373e-05,5.13927e-05,-3.7690163e-05,0.28479868,0.40638864,-0.44968754,-0.48458445,0.005127244,0.014130588,-0.011329105,0.12098037,0.31550574,-0.18201964,0.96614355,-0.01343903,nan,1.3702054,4.251174,0.528889,1.2562852,0.14630769,inf,inf,inf,inf,0,1,0,1,1,1,1,1,2,0,0,0,0
29428081,29427281,0,nan,nan,0.13471048,0.24847579,-0.9146879,3.6148373e-05,5.13927e-05,-3.7690163e-05,0.27763388,0.43013573,-0.4910703,-0.52387226,0.005127244,0.014130588,-0.011329105,-0.080269,0.26904014,-0.10377983,0.99423367,-0.01343903,nan,1.4188352,4.1850066,0.528158,1.2216396,0.14625736,inf,inf,inf,inf,0,1,0,1,1,1,1,1,2,0,0,0,0
29528121,29527118,0,nan,nan,0.16058956,0.28800756,-0.96693313,3.6148373e-05,5.13927e-05,-3.7690163e-05,0.2701489,0.4492052,-0.48759875,-0.5200423,0.005127244,0.014130588,-0.011329105,-0.061319444,0.12642267,0.13244295,1.0229865,-0.01343903,nan,1.4710805,4.302209,0.5274547,1.237853,0.14625283,inf,inf,inf,inf,0,1,0,1,1,1,1,1,2,0,0,0,0
29627848,29626954,0,nan,nan,0.18290785,0.32441387,-1.0177914,3.6148373e-05,5.13927e-05,-3.7690163e-05,0.26383102,0.459664,-0.46883145,-0.5007787,0.005127244,0.014130588,-0.011329105,-0.03942906,0.19714405,0.17939146,1.0526819,-0.01343903,nan,1.5219388,4.2265444,0.52673024,1.201822,0.14618708,inf,inf,inf,inf,0,1,0,1,1,1,1,1,2,0,0,0,0
29727659,29726791,0,nan,nan,0.20525804,0.36306483,-1.0658531,3.6148373e-05,5.13927e-05,-3.7690163e-05,0.26271904,0.4667589,-0.43659636,-0.4678498,0.005127244,0.014130588,-0.011329105,-0.00067566655,0.07167606,0.29265356,1.0829407,-0.01343903,nan,1.5700004,4.3414087,0.5321,1.2170975,0.147184,inf,inf,inf,inf,0,1,0,1,1,1,1,1,2,0,0,0,0
29827588,29826625,0,nan,nan,0.22490881,0.3970752,-1.1095313,3.6148373e-05,5.13927e-05,-3.7690163e-05,0.26332808,0.4615737,-0.40911993,-0.438512,0.005127244,0.014130588,-0.011329105,-0.08052493,0.01390461,0.25839907,1.1135445,-0.01343903,nan,1.6136787,4.25742,0.5313717,1.180205,0.14708541,inf,inf,inf,inf,0,1,0,1,1,1,1,1,2,0,0,0,0
29927305,29926462,0,nan,nan,0.24477735,0.4314318,-1.1515955,3.6148373e-05,5.13927e-05,-3.7690163e-05,0.26520994,0.45568228,-0.3771166,-0.4061532,0.005127244,0.014130588,-0.011329105,0.03893357,-0.042223897,0.3128535,1.1347059,-0.009521439,nan,1.6557429,4.3697085,0.5306576,1.1941411,0.14699546,inf,inf,inf,inf,0,1,0,1,1,1,1,1,3,0,0,0,0
30027098,30026297,0,nan,nan,0.2622052,0.46056426,-1.1911931,3.6148373e-05,5.13927e-05,-3.7690163e-05,0.2647823,0.44285965,-0.36591798,-0.39448923,0.005127244,0.014130588,-0.011329105,0.056434546,-0.0330905,0.15577707,1.1651771,-0.009521439,nan,1.6953404,4.278415,0.5299478,1.1543471,0.14672172,inf,inf,inf,inf,0,1,0,1,1,1,1,1,3,0,0,0,0
30128708,30126175,0,nan,nan,0.28023514,0.48923215,-1.2279528,3.6148373e-05,5.13927e-05,-3.7690163e-05,0.2687541,0.44171003,-0.37061143,-0.39686486,0.005127244,0.014130588,-0.011329105,-0.08975286,-0.07466558,-0.38638455,1.194938,-0.009521439,nan,1.7321002,4.3875256,0.52926195,1.1657417,0.14651309,inf,inf,inf,inf,0,1,0,1,1,1,1,1,3,0,0,0,0
30228568,30225970,0,nan,nan,0.29696944,0.5148385,-1.2649062,3.6148373e-05,5.13927e-05,-3.7690163e-05,0.27348086,0.44317693,-0.3804973,-0.4038317,0.005127244,0.014130588,-0.011329105,-0.009801331,0.08347567,-0.043307275,1.223503,-0.009521439,nan,1.7690535,4.2898664,0.52853405,1.1268435,0.14627546,inf,inf,inf,inf,0,1,0,1,1,1,1,1,3,0,0,0,0
30326773,30325806,0,nan,nan,0.3137722,0.5399365,-1.3035381,3.6148373e-05,5.13927e-05,-3.7690163e-05,0.28204763,0.45108354,-0.38579452,-0.40719587,0.005127244,0.014130588,-0.011329105,0.055086017,0.08999109,0.13588548,1.2511714,-0.009521439,nan,1.8076854,4.3956695,0.5278317,1.1381187,0.14611441,inf,inf,inf,inf,0,1,0,1,1,1,1,1,3,0,0,0,0
30428196,30425645,0,nan,nan,0.33068132,0.5649142,-1.3422029,3.6148373e-05,5.13927e-05,-3.7690163e-05,0.2887848,0.46135432,-0.37965345,-0.39932835,0.005127244,0.014130588,-0.011329105,0.10359143,0.20011887,-0.009196749,1.2777054,-0.009521439,nan,1.8463502,4.29297,0.5271137,1.1004711,0.1459355,inf,inf,inf,inf,0,1,0,1,1,1,1,1,3,0,0,0,0
30528108,30525479,0,nan,nan,0.34656927,0.58816105,-1.3805982,3.6148373e-05,5.13927e-05,-3.7690163e-05,0.29514584,0.46941715,-0.3651934,-0.3839777,0.005127244,0.014130588,-0.011329105,0.1765153,0.15205413,0.21131179,1.3032947,-0.009521439,nan,1.8847456,4.3955226,0.5324805,1.1116905,0.14684631,inf,inf,inf,inf,0,1,0,1,1,1,1,1,3,0,0,0,0
30626205,30625315,0,nan,nan,0.36326504,0.6132989,-1.4177548,3.6148373e-05,5.13927e-05,-3.7690163e-05,0.29676008,0.47799495,-0.3463609,-0.3648195,0.005127244,0.014130588,-0.011329105,-0.00307964,0.23809887,0.141017,1.3278512,-0.009521439,nan,1.9219022,4.2889895,0.5317232,1.0755559,0.14668822,inf,inf,inf,inf,0,1,0,1,1,1,1,1,3,0,0,0,0
30727591,30725151,0,nan,nan,0.37678036,0.63419217,-1.4530821,3.6148373e-05,5.13927e-05,-3.7690163e-05,0.2909267,0.4811393,-0.313036,-0.33212924,0.005127244,0.014130588,-0.011329105,-0.041432064,0.070008844,0.14035432,1.3508431,-0.009521439,nan,1.9572294,4.3883257,0.5309965,1.08677,0.14658421,inf,inf,inf,inf,0,1,0,1,1,1,1,1,3,0,0,0,0
30827613,30824988,0,nan,nan,0.3916624,0.6590515,-1.4849844,3.6148373e-05,5.13927e-05,-3.7690163e-05,0.2837404,0.4837158,-0.266137,-0.28636155,0.005127244,0.014130588,-0.011329105,-0.26487103,-0.048514575,0.34646472,1.372111,-0.009521439,nan,1.9891317,4.2790375,0.5302276,1.0523334,0.1464406,inf,inf,inf,inf,0,1,0,1,1,1,1,1,3,0,0,0,0
30925608,30924824,0,nan,nan,0.40165108,0.6765518,-1.5119271,3.6148373e-05,5.13927e-05,-3.7690163e-05,0.27852768,0.482835,-0.21233396,-0.2336781,0.005127244,0.014130588,-0.011329105,-0.10940319,-0.0029996997,0.64656246,1.3917617,-0.009521439,nan,2.0160744,4.3752923,0.5294903,1.063589,0.14634857,inf,inf,inf,inf,0,1,0,1,1,1,1,1,3,0,0,0,0
31015552,31014724,0,nan,nan,0.41511497,0.7001216,-1.5300676,3.6148373e-05,5.13927e-05,-3.7690163e-05,0.278043,0.48214447,-0.16975218,-0.19039564,0.005127244,0.014130588,-0.011329105,-0.076254055,0.10903691,0.28998402,1.4081391,-0.009521439,nan,2.034215,4.4626245,0.533719,1.0738122,0.14710253,inf,inf,inf,inf,0,1,0,1,1,1,1,1,3,0,0,0,0
31132116,31129488,0,nan,nan,0.42474285,0.7171884,-1.5470169,3.6148373e-05,5.13927e-05,-3.7690163e-05,0.2793322,0.48251364,-0.1073452,-0.12688492,0.005127244,0.014130588,-0.011329105,0.09639617,0.091529384,0.36607942,1.4276856,-0.009521439,nan,2.0511642,4.3575153,0.5279663,1.0424036,0.14614736,inf,inf,inf,inf,0,1,0,1,1,1,1,1,3,0,0,0,0
31220113,31219341,0,nan,nan,0.43721136,0.7385602,-1.5563091,3.6148373e-05,5.13927e-05,-3.7690163e-05,0.28437948,0.48446435,-0.072968185,-0.09191222,0.005127244,0.014130588,-0.011329105,0.1325065,0.071344495,0.45713073,1.442371,-0.009521439,nan,2.0604565,4.4422126,0.53219134,1.0528532,0.14693019,inf,inf,inf,inf,0,1,0,1,1,1,1,1,3,0,0,0,0
31329956,31329162,0,nan,nan,0.44549006,0.75208884,-1.5615923,3.6148373e-05,5.13927e-05,-3.7690163e-05,0.28878978,0.4866799,-0.013565284,-0.031102544,0.005127244,0.014130588,-0.011329105,0.17526355,0.16292924,0.39377612,1.4598207,-0.009521439,nan,2.0657396,4.336008,0.5325932,1.023508,0.14706081,inf,inf,inf,inf,0,1,0,1,1,1,1,1,3,0,0,0,0
31431472,31428997,0,nan,nan,0.4598988,0.7748938,-1.5590205,3.6148373e-05,5.13927e-05,-3.7690163e-05,0.2960855,0.49498498,0.025162756,0.010997464,0.005127244,0.014130588,-0.011329105,0.006869318,0.08518675,0.24464469,1.4749209,-0.009521439,nan,2.0631678,4.4273896,0.5318793,1.0352545,0.1470415,inf,inf,inf,inf,0,1,0,1,1,1,1,1,3,0,0,0,0
31531320,31528833,0,nan,nan,0.4673004,0.7859343,-1.5539284,3.6148373e-05,5.13927e-05,-3.7690163e-05,0.29809067,0.49454898,0.06893265,0.05648403,0.005127244,0.014130588,-0.011329105,0.06927568,0.11580657,0.33922827,1.4895056,-0.009521439,nan,2.0580757,4.3115935,0.5311243,1.0067639,0.14699307,inf,inf,inf,inf,0,1,0,1,1,1,1,1,3,0,0,0,0
31629544,31628672,0,nan,nan,0.48076642,0.8069124,-1.5468919,3.6148373e-05,5.13927e-05,-3.7690163e-05,0.30430502,0.49900734,0.089315966,0.076796755,0.005127244,0.014130588,-0.011329105,-0.05646562,-0.017566616,0.17141561,1.5036453,-0.009521439,nan,2.0510392,4.400424,0.5303808,1.0187755,0.14698544,inf,inf,inf,inf,0,1,0,1,1,1,1,1,3,0,0,0,0
31721172,31718524,0,nan,nan,0.48758155,0.81647176,-1.5389816,3.6148373e-05,5.13927e-05,-3.7690163e-05,0.30686447,0.4947824,0.12619248,0.11287564,0.005127244,0.014130588,-0.011329105,0.026304452,0.14524488,0.24942431,1.5163114,-0.009521439,nan,2.043129,4.2764564,0.528479,0.99108213,0.1467461,inf,inf,inf,inf,0,1,0,1,1,1,1,1,3,0,0,0,0
31819311,31818410,0,nan,nan,0.4993227,0.8337111,-1.5289558,3.6148373e-05,5.13927e-05,-3.7690163e-05,0.3073412,0.4931854,0.12403226,0.1092488,0.005127244,0.014130588,-0.011329105,-0.016538264,0.044323068,0.08168709,1.5307952,-0.009521439,nan,2.0331032,4.362848,0.5277623,1.0033424,0.14675346,inf,inf,inf,inf,0,1,0,1,1,1,1,1,3,0,0,0,0
31920671,31918195,0,nan,nan,0.5078909,0.8455264,-1.5203967,3.6148373e-05,5.13927e-05,-3.7690163e-05,0.30838183,0.49178222,0.10163901,0.08505411,0.005127244,0.014130588,-0.011329105,0.10353812,0.053861596,-0.13356848,1.5458418,-0.009521439,nan,2.024544,4.2487054,0.5331124,0.978839,0.14777003,inf,inf,inf,inf,0,1,0,1,1,1,1,1,3,0,0,0,0
32028911,32028017,0,nan,nan,0.5195441,0.8624242,-1.5144702,3.6148373e-05,5.13927e-05,-3.7690163e-05,0.3065465,0.49603856,0.07018787,0.051620282,0.005127244,0.014130588,-0.011329105,0.06896682,0.18072233,-0.0592489,1.5628165,-0.009521439,nan,2.0186176,4.341429,0.5335274,0.992782,0.1480096,inf,inf,inf,inf,0,1,0,1,1,1,1,1,3,0,0,0,0
32130322,32127855,0,nan,nan,0.526972,0.8738679,-1.5132015,3.6148373e-05,5.13927e-05,-3.7690163e-05,0.30214524,0.5068551,0.018790033,-0.001186457,0.005127244,0.014130588,-0.011329105,-0.008300307,0.21164118,-0.8457626,1.57853,-0.009521439,nan,2.0173488,4.2282047,0.5327758,0.97019625,0.14802511,inf,inf,inf,inf,0,1,0,1,1,1,1,1,3,0,0,0,0
32228524,32227689,0,nan,nan,0.53597057,0.88933253,-1.5180249,3.6148373e-05,5.13927e-05,-3.7690163e-05,0.2985719,0.5156824,-0.05365262,-0.07485518,0.005127244,0.014130588,-0.011329105,-0.14468358,0.070945315,-0.5061318,1.5943736,-0.009521439,nan,2.0221722,4.3105955,0.5320393,0.98320925,0.14808348,inf,inf,inf,inf,0,1,0,1,1,1,1,1,3,0,0,0,0
32328349,32327525,0,nan,nan,0.543126,0.90344703,-1.5290753,3.6148373e-05,5.13927e-05,-3.7690163e-05,0.3000937,0.5293433,-0.113359794,-0.13509807,0.005127244,0.014130588,-0.011329105,0.10166268,0.23815963,-0.82751894,1.6103615,-0.009521439,nan,2.0332227,4.198894,0.5312686,0.96248716,0.14812467,inf,inf,inf,inf,0,1,0,1,1,1,1,1,3,0,0,0,0
32429743,32427361,0,nan,nan,0.55059165,0.91890943,-1.5467856,3.6148373e-05,5.13927e-05,-3.7690163e-05,0.29690793,0.5373293,-0.19430403,-0.21597482,0.005127244,0.014130588,-0.011329105,0.1508273,0.16388798,-0.1977774,1.626381,-0.009521439,nan,2.050933,4.279536,0.5305405,0.97578907,0.14820485,inf,inf,inf,inf,0,1,0,1,1,1,1,1,3,0,0,0,0
32528020,32527198,0,nan,nan,0.55813324,0.9357944,-1.57135,3.6148373e-05,5.13927e-05,-3.7690163e-05,0.3000879,0.5476438,-0.24469009,-0.26697052,0.005127244,0.014130588,-0.011329105,-0.07028748,0.22019877,-0.7857622,1.6422958,-0.009521439,nan,2.0754974,4.1695585,0.5298064,0.9567125,0.14826947,inf,inf,inf,inf,0,1,0,1,1,1,1,1,3,0,0,0,0
32628011,32627089,0,nan,nan,0.56410503,0.95041144,-1.6022766,3.6148373e-05,5.13927e-05,-3.7690163e-05,0.29913363,0.5495535,-0.2943062,-0.31835344,0.005127244,0.014130588,-0.011329105,-0.08251807,0.0041502616,-0.39392644,1.6578926,-0.009521439,nan,2.1064239,4.2486405,0.5290882,0.97018534,0.14835367,inf,inf,inf,inf,0,1,0,1,1,1,1,1,3,0,0,0,0
32729423,32726871,0,nan,nan,0.57210577,0.9687226,-1.6372329,3.6148373e-05,5.13927e-05,-3.7690163e-05,0.30109045,0.5508091,-0.3005441,-0.3270687,0.005127244,0.014130588,-0.011329105,0.07559333,0.024424532,0.46773288,1.6726326,-0.009521439,nan,2.1413803,4.1405487,0.5345171,0.9524541,0.14946519,inf,inf,inf,inf,0,1,0,1,1,1,1,1,3,0,0,0,0
32827544,32826707,0,nan,nan,0.5770171,0.9809005,-1.669545,3.6148373e-05,5.13927e-05,-3.7690163e-05,0.30218777,0.5473419,-0.27469334,-0.3024081,0.005127244,0.014130588,-0.011329105,-0.079114795,-0.0047315345,0.25126007,1.6865335,-0.009521439,nan,2.1736925,4.2182493,0.5338113,0.9659616,0.14954665,inf,inf,inf,inf,0,1,0,1,1,1,1,1,3,0,0,0,0
32927420,32926545,0,nan,nan,0.585777,0.9995881,-1.6991242,3.6148373e-05,5.13927e-05,-3.7690163e-05,0.29983357,0.5418809,-0.22885787,-0.2584047,0.005127244,0.014130588,-0.011329105,0.0716496,-0.06695473,0.29072338,1.6999005,-0.009521439,nan,2.2032716,4.1120753,0.53309935,0.9491998,0.14959209,inf,inf,inf,inf,0,1,0,1,1,1,1,1,3,0,0,0,0
33028813,33026380,0,nan,nan,0.58893216,1.0077459,-1.7233443,3.6148373e-05,5.13927e-05,-3.7690163e-05,0.2935722,0.5286901,-0.19008872,-0.21960312,0.005127244,0.014130588,-0.011329105,-0.0442951,0.0015703088,0.31947187,1.7129147,-0.009521439,nan,2.2274916,4.1885567,0.5324294,0.9626008,0.14966032,inf,inf,inf,inf,0,1,0,1,1,1,1,1,3,0,0,0,0
33127245,33126217,0,nan,nan,0.59805816,1.0259145,-1.742275,3.6148373e-05,5.13927e-05,-3.7690163e-05,0.28760624,0.5217833,-0.15520957,-0.18359935,0.005127244,0.014130588,-0.011329105,0.010762536,0.002435895,0.35682267,1.7258092,-0.009521439,nan,2.2464223,4.0843673,0.5317263,0.94693106,0.14969839,inf,inf,inf,inf,0,1,0,1,1,1,1,1,3,0,0,0,0
33226901,33226053,0,nan,nan,0.59850353,1.0292734,-1.7582023,3.6148373e-05,5.13927e-05,-3.7690163e-05,0.2775282,0.5066226,-0.11914219,-0.14660136,0.005127244,0.014130588,-0.011329105,-0.19257596,0.002864454,0.405017,1.7385507,-0.009521439,nan,2.2623496,4.1597915,0.5310639,0.96051186,0.14976704,inf,inf,inf,inf,0,1,0,1,1,1,1,1,3,0,0,0,0
33328465,33325890,0,nan,nan,0.60645586,1.0463194,-1.7731853,3.6148373e-05,5.13927e-05,-3.7690163e-05,0.2691345,0.49616927,-0.10077242,-0.12971887,0.005127244,0.014130588,-0.011329105,-0.05167531,-0.09010376,0.21623483,1.7512625,-0.009521439,nan,2.2773325,4.236384,0.53039217,0.9741527,0.14983161,inf,inf,inf,inf,0,1,0,1,1,1,1,1,3,0,0,0,0
33428620,33425727,0,nan,nan,0.60330373,1.044475,-1.7885265,3.6148373e-05,5.13927e-05,-3.7690163e-05,0.2609058,0.48512116,-0.0843313,-0.11623999,0.005127244,0.014130588,-0.011329105,-0.07760362,0.011830659,0.15971136,1.7638433,-0.009521439,nan,2.2926738,4.1321287,0.529715,0.95966375,0.1498801,inf,inf,inf,inf,0,1,0,1,1,1,1,1,3,0,0,0,0
33526342,33525564,0,nan,nan,0.60890216,1.0575417,-1.801272,3.6148373e-05,5.13927e-05,-3.7690163e-05,0.2555579,0.47664502,-0.074976645,-0.10804486,0.005127244,0.014130588,-0.011329105,0.006052604,0.07799647,0.47861516,1.7758359,-0.009521439,nan,2.3054194,4.2078958,0.53522867,0.97354245,0.15100814,inf,inf,inf,inf,0,1,0,1,1,1,1,1,3,0,0,0,0
33621320,33620415,0,nan,nan,0.6068517,1.0568606,-1.8133684,3.6148373e-05,5.13927e-05,-3.7690163e-05,0.25347435,0.46678105,-0.074358866,-0.10895024,0.005127244,0.014130588,-0.011329105,-0.013273236,0.15112977,0.022730235,1.787064,-0.009521439,nan,2.3175159,4.0983,0.5333615,0.95865834,0.15083747,inf,inf,inf,inf,0,1,0,1,1,1,1,1,3,0,0,0,0
33732819,33730228,0,nan,nan,0.61064017,1.0659934,-1.827675,3.6148373e-05,5.13927e-05,-3.7690163e-05,0.248945,0.45185164,-0.07353884,-0.11023137,0.005127244,0.014130588,-0.011329105,0.067465,-0.09487623,0.38133812,1.7998356,-0.009521439,nan,2.3318224,4.180788,0.53388643,0.97433895,0.15114483,inf,inf,inf,inf,0,1,0,1,1,1,1,1,3,0,0,0,0
33820933,33820081,0,nan,nan,0.60614926,1.0594952,-1.8388155,3.6148373e-05,5.13927e-05,-3.7690163e-05,0.2467214,0.44037396,-0.06563223,-0.1035715,0.005127244,0.014130588,-0.011329105,0.14291015,-0.030209463,0.7902356,1.8098735,-0.009521439,nan,2.3429627,4.0739174,0.53208345,0.96043533,0.15098943,inf,inf,inf,inf,0,1,0,1,1,1,1,1,3,0,0,0,0
33930754,33929902,0,nan,nan,0.60909885,1.0653582,-1.8507704,3.6148373e-05,5.13927e-05,-3.7690163e-05,0.24468267,0.4328934,-0.052122638,-0.09120392,0.005127244,0.014130588,-0.011329105,-0.046781488,0.013794896,-0.056185383,1.8215247,-0.009521439,nan,2.3549178,4.155824,0.5326424,0.97596455,0.15128334,inf,inf,inf,inf,0,1,0,1,1,1,1,1,3,0,0,0,0
34020608,34019755,0,nan,nan,0.60571843,1.0593399,-1.8600024,3.6148373e-05,5.13927e-05,-3.7690163e-05,0.2440385,0.4181753,-0.037336417,-0.07808684,0.005127244,0.014130588,-0.011329105,0.00622915,-0.19263653,0.32548752,1.8307006,-0.009521439,nan,2.3641498,4.0509243,0.5308451,0.9626655,0.15111533,inf,inf,inf,inf,0,1,0,1,1,1,1,1,3,0,0,0,0
34120438,34119592,0,nan,nan,0.6072556,1.0605278,-1.8685963,3.6148373e-05,5.13927e-05,-3.7690163e-05,0.24586578,0.4071498,-0.014301401,-0.056982093,0.005127244,0.014130588,-0.011329105,0.1716775,0.17236575,0.2671463,1.8406566,-0.009521439,nan,2.3727436,4.124933,0.53645235,0.97687924,0.15225475,inf,inf,inf,inf,0,1,0,1,1,1,1,1,3,0,0,0,0
34230335,34229434,0,nan,nan,0.6055878,1.0544047,-1.875488,3.6148373e-05,5.13927e-05,-3.7690163e-05,0.24381712,0.38991508,0.0032510275,-0.040907126,0.005127244,0.014130588,-0.011329105,-0.07801951,-0.3298149,0.07556736,1.8513392,-0.009521439,nan,2.3796353,4.036687,0.5307916,0.9669397,0.15143959,inf,inf,inf,inf,0,1,0,1,1,1,1,1,3,0,0,0,0
34320135,34319266,0,nan,nan,0.6069739,1.0527917,-1.8797162,3.6148373e-05,5.13927e-05,-3.7690163e-05,0.24488537,0.3789634,0.029946841,-0.015545007,0.005127244,0.014130588,-0.011329105,0.07371828,-0.09183199,0.5599711,1.8597094,-0.009521439,nan,2.3838634,4.103101,0.5352113,0.9797744,0.15234569,inf,inf,inf,inf,0,1,0,1,1,1,1,1,3,0,0,0,0
34431957,34429086,0,nan,nan,0.6061681,1.0455688,-1.8844266,3.6148373e-05,5.13927e-05,-3.7690163e-05,0.24495374,0.36831218,0.043756843,-0.0050325594,0.005127244,0.014130588,-0.011329105,-0.07220745,0.10392868,0.023189012,1.8696127,-0.009521439,nan,2.388574,4.016623,0.5357933,0.9703203,0.15260307,inf,inf,inf,inf,0,1,0,1,1,1,1,1,3,0,0,0,0
34521471,34518939,0,nan,nan,0.6065171,1.0410173,-1.8869188,3.6148373e-05,5.13927e-05,-3.7690163e-05,0.24132435,0.3633915,0.06020786,0.008784686,0.005127244,0.014130588,-0.011329105,0.02910522,-0.07933864,-0.015252673,1.8772012,-0.009521439,nan,2.391066,4.082867,0.5340037,0.98325,0.15242942,inf,inf,inf,inf,0,1,0,1,1,1,1,1,3,0,0,0,0
34631288,34628759,0,nan,nan,0.60617757,1.0342749,-1.8875676,3.6148373e-05,5.13927e-05,-3.7690163e-05,0.23535073,0.35436425,0.08721924,0.033044584,0.005127244,0.014130588,-0.011329105,0.012469378,-0.019467318,0.5748629,1.8854033,-0.009521439,nan,2.391715,3.998053,0.53456056,0.97424716,0.15267493,inf,inf,inf,inf,0,1,0,1,1,1,1,1,3,0,0,0,0
34719532,34718613,0,nan,nan,0.6051752,1.0278641,-1.8843099,3.6148373e-05,5.13927e-05,-3.7690163e-05,0.23065872,0.35266396,0.12774922,0.07217899,0.005127244,0.014130588,-0.011329105,-0.016022814,0.057952527,0.21805261,1.8911191,-0.009521439,nan,2.3884573,4.0642447,0.5327727,0.9871863,0.15249124,inf,inf,inf,inf,0,1,0,1,1,1,1,1,3,0,0,0,0
34829269,34828433,0,nan,nan,0.6046731,1.0225686,-1.87575,3.6148373e-05,5.13927e-05,-3.7690163e-05,0.22288325,0.3488399,0.18852568,0.13086921,0.005127244,0.014130588,-0.011329105,-0.06397233,0.10518005,0.6392714,1.8974267,-0.009521439,nan,2.3798974,3.9810004,0.53335917,0.9783309,0.15272866,inf,inf,inf,inf,0,1,0,1,1,1,1,1,3,0,0,0,0
34929116,34928270,0,nan,nan,0.60235596,1.014737,-1.8607516,3.6148373e-05,5.13927e-05,-3.7690163e-05,0.21776775,0.34641084,0.24949755,0.19078639,0.005127244,0.014130588,-0.011329105,0.056395136,0.071069755,0.60731333,1.9024642,-0.009521439,nan,2.364899,4.0546446,0.53273356,0.9925785,0.15271167,inf,inf,inf,inf,0,1,0,1,1,1,1,1,3,0,0,0,0
35030558,35028107,0,nan,nan,0.6053578,1.0116668,-1.8393147,3.6148373e-05,5.13927e-05,-3.7690163e-05,0.21687837,0.34610656,0.3090586,0.2498806,0.005127244,0.014130588,-0.011329105,0.06786784,0.15698332,0.2551988,1.8966572,-0.009521439,nan,2.343462,3.9654095,0.53832835,0.98247397,0.15370266,inf,inf,inf,inf,0,1,0,1,1,1,1,1,3,0,0,0,0
35128742,35127944,0,nan,nan,0.6059059,1.0028938,-1.8140681,3.6148373e-05,5.13927e-05,-3.7690163e-05,0.22149982,0.34870163,0.37420142,0.31266224,0.005127244,0.014130588,-0.011329105,0.09237658,-0.022840546,0.66543597,1.8851196,-0.009521439,nan,2.3182154,4.0391927,0.53771144,0.99692446,0.15364935,inf,inf,inf,inf,0,1,0,1,1,1,1,1,3,0,0,0,0
35228759,35227836,0,nan,nan,0.61026144,1.0020831,-1.7830719,3.6148373e-05,5.13927e-05,-3.7690163e-05,0.22749387,0.35066605,0.43156096,0.36766526,0.005127244,0.014130588,-0.011329105,-0.004188709,-0.056675162,0.85956484,1.882382,-0.009521439,nan,2.2872193,3.9513457,0.5370656,0.98705393,0.1535963,inf,inf,inf,inf,0,1,0,1,1,1,1,1,3,0,0,0,0
35330106,35327675,0,nan,nan,0.6091121,0.9924486,-1.7463574,3.6148373e-05,5.13927e-05,-3.7690163e-05,0.2373034,0.35205716,0.47879413,0.4133271,0.005127244,0.014130588,-0.011329105,0.068484515,0.03734968,0.48603958,1.8898182,-0.009521439,nan,2.2505047,4.0253716,0.536452,1.0015631,0.1535711,inf,inf,inf,inf,0,1,0,1,1,1,1,1,3,0,0,0,0
35428477,35427455,0,nan,nan,0.615111,0.9939553,-1.7072403,3.6148373e-05,5.13927e-05,-3.7690163e-05,0.253606,0.34941092,0.46371147,0.3969465,0.005127244,0.014130588,-0.011329105,0.14875272,0.09599478,-0.1877466,1.9030395,-0.009521439,nan,2.2113876,3.9387515,0.5358277,0.9917341,0.15354435,inf,inf,inf,inf,0,1,0,1,1,1,1,1,3,0,0,0,0
35528167,35527292,0,nan,nan,0.6145871,0.98314303,-1.6705928,3.6148373e-05,5.13927e-05,-3.7690163e-05,0.2720198,0.34544772,0.43499336,0.36687762,0.005127244,0.014130588,-0.011329105,0.24277939,-0.0037148385,-0.28306463,1.9196683,-0.009521439,nan,2.17474,4.0130486,0.5352049,1.0065509,0.1535472,inf,inf,inf,inf,0,1,0,1,1,1,1,1,3,0,0,0,0
35628225,35627129,0,nan,nan,0.62477237,0.986426,-1.6387686,3.6148373e-05,5.13927e-05,-3.7690163e-05,0.3002624,0.3424526,0.38355473,0.31322336,0.005127244,0.014130588,-0.011329105,0.48917744,0.06393746,-0.57277614,1.9379581,-0.009521439,nan,2.142916,4.08905,0.5345976,1.0215181,0.15355188,inf,inf,inf,inf,0,1,0,1,1,1,1,1,3,0,0,0,0
35727853,35726966,0,nan,nan,0.6274379,0.9733136,-1.6140677,3.6148373e-05,5.13927e-05,-3.7690163e-05,0.33099103,0.3339215,0.3336403,0.2596373,0.005127244,0.014130588,-0.011329105,0.2889724,-0.034929965,-0.7186779,1.9564472,-0.009521439,nan,2.118215,4.002258,0.53398937,1.0121669,0.15355018,inf,inf,inf,inf,0,1,0,1,1,1,1,1,3,0,0,0,0
35827578,35826803,0,nan,nan,0.6427914,0.9744403,-1.5928786,3.6148373e-05,5.13927e-05,-3.7690163e-05,0.36826003,0.3342226,0.29818416,0.22207455,0.005127244,0.014130588,-0.011329105,0.5247401,0.3011563,-0.17402208,1.9725163,-0.009521439,nan,2.0970259,4.078683,0.53971255,1.0272057,0.1546684,inf,inf,inf,inf,0,1,0,1,1,1,1,1,3,0,0,0,0
35927589,35926640,0,nan,nan,0.6534214,0.96258855,-1.5768236,3.6148373e-05,5.13927e-05,-3.7690163e-05,0.40903616,0.34207132,0.26961637,0.18954945,0.005127244,0.014130588,-0.011329105,0.46933082,0.32830682,-0.12104749,1.9843936,-0.009521439,nan,2.080971,3.9928975,0.539079,1.0176733,0.15465252,inf,inf,inf,inf,0,1,0,1,1,1,1,1,3,0,0,0,0
36027246,36026477,0,nan,nan,0.67580193,0.96397144,-1.5639768,3.6148373e-05,5.13927e-05,-3.7690163e-05,0.45328283,0.36289942,0.25252,0.16796896,0.005127244,0.014130588,-0.011329105,0.42597303,0.3599032,-0.6027397,1.9922651,-0.009521439,nan,2.068124,4.069737,0.5384723,1.032533,0.15464693,inf,inf,inf,inf,0,1,0,1,1,1,1,1,3,0,0,0,0
36127145,36126314,0,nan,nan,0.6951744,0.95712966,-1.5521419,3.6148373e-05,5.13927e-05,-3.7690163e-05,0.49659634,0.3811749,0.2227658,0.13537344,0.005127244,0.014130588,-0.011329105,0.44297937,0.2239046,-0.25029597,1.9970181,-0.009521439,nan,2.0562892,3.984803,0.5378339,1.0226682,0.15462025,inf,inf,inf,inf,0,1,0,1,1,1,1,1,3,0,0,0,0
36227092,36226151,0,nan,nan,0.7247262,0.9619385,-1.5419917,3.6148373e-05,5.13927e-05,-3.7690163e-05,0.5369405,0.40477887,0.21114299,0.12140983,0.005127244,0.014130588,-0.011329105,0.39098787,0.13829459,-0.115303434,1.9996516,-0.009521439,nan,2.046139,4.062081,0.53722054,1.0375072,0.15461132,inf,inf,inf,inf,0,1,0,1,1,1,1,1,3,0,0,0,0
36327072,36325988,0,nan,nan,0.751715,0.96098524,-1.533006,3.6148373e-05,5.13927e-05,-3.7690163e-05,0.57270706,0.41818163,0.19178161,0.100537315,0.005127244,0.014130588,-0.011329105,0.4240191,0.19667356,-0.63799036,2.0010242,-0.009521439,nan,2.0371532,3.9778636,0.5365759,1.0274898,0.1545757,inf,inf,inf,inf,0,1,0,1,1,1,1,1,3,0,0,0,0
36426731,36425825,0,nan,nan,0.7859632,0.9676303,-1.5253161,3.6148373e-05,5.13927e-05,-3.7690163e-05,0.59854734,0.42300254,0.17132798,0.07906931,0.005127244,0.014130588,-0.011329105,0.32522708,-0.019527223,-0.23611823,2.0005639,-0.009521439,nan,2.0294635,4.0556083,0.53595537,1.0422349,0.15454961,inf,inf,inf,inf,0,1,0,1,1,1,1,1,3,0,0,0,0
36526680,36525663,0,nan,nan,0.8174611,0.9697804,-1.5193218,3.6148373e-05,5.13927e-05,-3.7690163e-05,0.6156212,0.42107508,0.15665983,0.06373079,0.005127244,0.014130588,-0.011329105,0.18347289,0.18543424,-0.044961717,1.9976704,-0.009521439,nan,2.0234692,3.9720013,0.54170555,1.0320741,0.15563692,inf,inf,inf,inf,0,1,0,1,1,1,1,1,3,0,0,0,0
36626528,36625559,0,nan,nan,0.8526505,0.9750394,-1.5142064,3.6148373e-05,5.13927e-05,-3.7690163e-05,0.6293656,0.4102599,0.14401765,0.051154263,0.005127244,0.014130588,-0.011329105,0.19595881,-0.0779784,-0.21155433,1.9923115,-0.009521439,nan,2.0183537,4.050233,0.5410538,1.0468255,0.15557936,inf,inf,inf,inf,0,1,0,1,1,1,1,1,3,0,0,0,0
36721314,36720348,0,nan,nan,0.88451993,0.9768115,-1.5083684,3.6148373e-05,5.13927e-05,-3.7690163e-05,0.6392667,0.3960045,0.13410893,0.042907838,0.005127244,0.014130588,-0.011329105,0.24269776,0.053470585,-0.08459728,1.9844201,-0.009521439,nan,2.0125158,3.9599266,0.53917754,1.0350481,0.1552803,inf,inf,inf,inf,0,1,0,1,1,1,1,1,3,0,0,0,0
36821206,36820182,0,nan,nan,0.918151,0.97660935,-1.5030981,3.6148373e-05,5.13927e-05,-3.7690163e-05,0.65045863,0.37880945,0.13487382,0.04521969,0.005127244,0.014130588,-0.011329105,0.05202594,-0.18072908,0.023056926,1.9737,-0.009521439,nan,2.0072455,4.03851,0.5385744,1.0501515,0.15523657,inf,inf,inf,inf,0,1,0,1,1,1,1,1,3,0,0,0,0
36920873,36920036,0,nan,nan,0.95271593,0.97569865,-1.4985456,3.6148373e-05,5.13927e-05,-3.7690163e-05,0.66506064,0.3640334,0.13100591,0.041886225,0.005127244,0.014130588,-0.011329105,0.18042795,0.07763001,0.19163638,1.9610875,-0.009521439,nan,2.002693,3.9564607,0.53793764,1.0395181,0.15514514,inf,inf,inf,inf,0,1,0,1,1,1,1,1,3,0,0,0,0
37020812,37019856,0,nan,nan,0.9856445,0.9714099,-1.4959916,3.6148373e-05,5.13927e-05,-3.7690163e-05,0.6826416,0.35652006,0.11146829,0.022203749,0.005127244,0.014130588,-0.011329105,0.16223776,0.054820612,0.17465879,1.9484624,-0.009521439,nan,2.000139,4.0355864,0.5373196,1.0542395,0.15506284,inf,inf,inf,inf,0,1,0,1,1,1,1,1,3,0,0,0,0
37120736,37119694,0,nan,nan,1.0224686,0.97111326,-1.4955797,3.6148373e-05,5.13927e-05,-3.7690163e-05,0.69556916,0.35281497,0.064448506,-0.023550171,0.005127244,0.014130588,-0.011329105,0.25480542,0.012974096,-0.16497062,1.9367093,-0.009521439,nan,1.999727,3.9537861,0.54311997,1.0434772,0.15612276,inf,inf,inf,inf,0,1,0,1,1,1,1,1,3,0,0,0,0
37230492,37229515,0,nan,nan,1.0576266,0.9656109,-1.4954951,3.6148373e-05,5.13927e-05,-3.7690163e-05,0.70391196,0.35505053,0.07786322,-0.0077050524,0.005127244,0.014130588,-0.011329105,0.044480134,0.20744088,0.19739187,1.9249429,-0.009521439,nan,1.9996424,4.0415454,0.53725326,1.0599654,0.15511177,inf,inf,inf,inf,0,1,0,1,1,1,1,1,3,0,0,0,0
37320191,37319368,0,nan,nan,1.0913709,0.9671561,-1.4940777,3.6148373e-05,5.13927e-05,-3.7690163e-05,0.7048142,0.35564613,0.09246567,0.008734437,0.005127244,0.014130588,-0.011329105,0.121461384,0.20000711,0.1584666,1.9171249,-0.009521439,nan,1.998225,3.9518309,0.54180557,1.04718,0.15592715,inf,inf,inf,inf,0,1,0,1,1,1,1,1,3,0,0,0,0
37430026,37429193,0,nan,nan,1.121599,0.95976174,-1.4927047,3.6148373e-05,5.13927e-05,-3.7690163e-05,0.69758004,0.35601977,0.119334824,0.03501711,0.005127244,0.014130588,-0.011329105,-0.10156439,0.115941934,0.1268074,1.9095443,-0.009521439,nan,1.9968522,4.0402174,0.5423942,1.0631669,0.15603226,inf,inf,inf,inf,0,1,0,1,1,1,1,1,3,0,0,0,0
37520008,37519043,0,nan,nan,1.1540802,0.9627118,-1.4919107,3.6148373e-05,5.13927e-05,-3.7690163e-05,0.6872872,0.35199037,0.13622966,0.049263388,0.005127244,0.014130588,-0.011329105,-0.032490067,0.009806129,0.33412987,1.9050685,-0.009521439,nan,1.996058,3.950472,0.5404888,1.049861,0.15566935,inf,inf,inf,inf,0,1,0,1,1,1,1,1,3,0,0,0,0
37629981,37628922,0,nan,nan,1.1762508,0.95305187,-1.48916,3.6148373e-05,5.13927e-05,-3.7690163e-05,0.6687256,0.3463142,0.14800091,0.058273453,0.005127244,0.014130588,-0.011329105,-0.10322977,-0.029432846,0.17546737,1.9012405,-0.009521439,nan,1.9933074,4.0394344,0.5410276,1.0657341,0.155735,inf,inf,inf,inf,0,1,0,1,1,1,1,1,3,0,0,0,0
37729738,37728701,0,nan,nan,1.206535,0.9551461,-1.4830198,3.6148373e-05,5.13927e-05,-3.7690163e-05,0.64928377,0.33997318,0.17156206,0.0811511,0.005127244,0.014130588,-0.011329105,-0.18865523,-0.088745974,0.0050194287,1.8986171,-0.009521439,nan,1.9871671,3.9576201,0.5403342,1.0535309,0.15557677,inf,inf,inf,inf,0,1,0,1,1,1,1,1,3,0,0,0,0
37829483,37828538,0,nan,nan,1.2193896,0.94317526,-1.4748895,3.6148373e-05,5.13927e-05,-3.7690163e-05,0.63286006,0.31553543,0.17674518,0.08651787,0.005127244,0.014130588,-0.011329105,-0.022422975,-0.12542094,0.11421669,1.896689,-0.009521439,nan,1.9790368,4.0390873,0.5396566,1.0678151,0.15541099,inf,inf,inf,inf,0,1,0,1,1,1,1,1,3,0,0,0,0
37929406,37928376,0,nan,nan,1.2471204,0.9425951,-1.4665844,3.6148373e-05,5.13927e-05,-3.7690163e-05,0.62778944,0.2889381,0.1843359,0.09372058,0.005127244,0.014130588,-0.011329105,0.061053578,-0.30048716,-0.1752923,1.8942779,-0.009521439,nan,1.9707317,4.1224794,0.5389548,1.08229,0.15524143,inf,inf,inf,inf,0,1,0,1,1,1,1,1,3,0,0,0,0
38029055,38028213,0,nan,nan,1.2537153,0.9228182,-1.4591631,3.6148373e-05,5.13927e-05,-3.7690163e-05,0.6275908,0.2484691,0.19002435,0.097888686,0.005127244,0.014130588,-0.011329105,0.23618604,-0.2425359,-0.16975522,1.8894832,-0.009521439,nan,1.9633105,4.0390625,0.5447585,1.0694866,0.1562312,inf,inf,inf,inf,0,1,0,1,1,1,1,1,3,0,0,0,0
38128830,38128050,0,nan,nan,1.2786043,0.9133667,-1.4517186,3.6148373e-05,5.13927e-05,-3.7690163e-05,0.6431573,0.20724496,0.19680469,0.10262917,0.005127244,0.014130588,-0.011329105,0.23666707,-0.42098713,-0.10491188,1.881541,-0.009521439,nan,1.9558659,4.122923,0.5440408,1.0838838,0.15604614,inf,inf,inf,inf,0,1,0,1,1,1,1,1,3,0,0,0,0
38228848,38227888,0,nan,nan,1.2876377,0.8869648,-1.4422022,3.6148373e-05,5.13927e-05,-3.7690163e-05,0.6638672,0.16370669,0.20885648,0.11378851,0.005127244,0.014130588,-0.011329105,0.5019891,-0.1492077,0.38631156,1.8697361,-0.009521439,nan,1.9463496,4.0392227,0.54331684,1.0706265,0.15585227,inf,inf,inf,inf,0,1,0,1,1,1,1,1,3,0,0,0,0
38328494,38327726,0,nan,nan,1.3143063,0.8681602,-1.4308531,3.6148373e-05,5.13927e-05,-3.7690163e-05,0.6957977,0.126732,0.23161855,0.13575846,0.005127244,0.014130588,-0.011329105,0.15921657,-0.5027685,0.30431935,1.8525532,-0.009521439,nan,1.9350004,4.123504,0.54257965,1.0848902,0.15566878,inf,inf,inf,inf,0,1,0,1,1,1,1,1,3,0,0,0,0
38428397,38427563,0,nan,nan,1.3292394,0.8361246,-1.4174988,3.6148373e-05,5.13927e-05,-3.7690163e-05,0.7272555,0.09030759,0.25144792,0.15477839,0.005127244,0.014130588,-0.011329105,0.2183921,-0.43225297,-0.22736214,1.8309346,-0.009521439,nan,1.9216461,4.0394607,0.54183626,1.0710567,0.15546931,inf,inf,inf,inf,0,1,0,1,1,1,1,1,3,0,0,0,0
38528341,38527440,0,nan,nan,1.35898,0.80966115,-1.4018687,3.6148373e-05,5.13927e-05,-3.7690163e-05,0.7601992,0.056362614,0.28515244,0.1872666,0.005127244,0.014130588,-0.011329105,0.49071878,-0.14779353,0.37561607,1.8060573,-0.009521439,nan,1.9060161,4.124111,0.541078,1.0850759,0.15526947,inf,inf,inf,inf,0,1,0,1,1,1,1,1,3,0,0,0,0
38628198,38627281,0,nan,nan,1.38136,0.77491176,-1.3845913,3.6148373e-05,5.13927e-05,-3.7690163e-05,0.7879252,0.01530592,0.28820845,0.18917458,0.005127244,0.014130588,-0.011329105,0.31235045,-0.25752154,0.21845347,1.7777977,-0.009521439,nan,1.8887386,4.039317,0.5403081,1.0703543,0.1550442,inf,inf,inf,inf,0,1,0,1,1,1,1,1,3,0,0,0,0
38728006,38727075,0,nan,nan,1.4189719,0.7448332,-1.3687867,3.6148373e-05,5.13927e-05,-3.7690163e-05,0.81548196,-0.02345727,0.25883815,0.15865709,0.005127244,0.014130588,-0.011329105,0.57259417,-0.03970932,0.12494049,1.7466561,-0.009521439,nan,1.8729341,4.124017,0.5395486,1.0841347,0.1548259,inf,inf,inf,inf,0,1,0,1,1,1,1,1,3,0,0,0,0
38829396,38826913,0,nan,nan,1.4506459,0.70866215,-1.3568399,3.6148373e-05,5.13927e-05,-3.7690163e-05,0.8425154,-0.06288492,0.21448253,0.113060236,0.005127244,0.014130588,-0.011329105,0.19928825,-0.33707115,-0.50348866,1.714833,-0.009521439,nan,1.8609872,4.039082,0.5452927,1.0696368,0.15580156,inf,inf,inf,inf,0,1,0,1,1,1,1,1,3,0,0,0,0
38927620,38926750,0,nan,nan,1.4867206,0.6733201,-1.3494925,3.6148373e-05,5.13927e-05,-3.7690163e-05,0.86466783,-0.0978155,0.1647193,0.06289119,0.005127244,0.014130588,-0.011329105,0.39125392,-0.072424985,-0.34564087,1.6822671,-0.009521439,nan,1.8536398,4.1242576,0.54450035,1.083768,0.1556184,inf,inf,inf,inf,0,1,0,1,1,1,1,1,3,0,0,0,0
39027369,39026589,0,nan,nan,1.5191095,0.63318795,-1.3461249,3.6148373e-05,5.13927e-05,-3.7690163e-05,0.88087416,-0.13026552,0.11072264,0.009844192,0.005127244,0.014130588,-0.011329105,0.26675415,-0.27935818,-0.33503604,1.6492783,-0.009521439,nan,1.8502722,4.038941,0.5437075,1.0690156,0.15543611,inf,inf,inf,inf,0,1,0,1,1,1,1,1,3,0,0,0,0
39128962,39126425,0,nan,nan,1.5522947,0.59130675,-1.3460902,3.6148373e-05,5.13927e-05,-3.7690163e-05,0.89786124,-0.15872197,0.086242825,-0.014065128,0.005127244,0.014130588,-0.011329105,0.2181089,-0.26585028,-0.86202717,1.6158003,-0.009521439,nan,1.8502376,4.1244135,0.5429025,1.08307,0.15525275,inf,inf,inf,inf,0,1,0,1,1,1,1,1,3,0,0,0,0
39228820,39226267,0,nan,nan,1.5867481,0.5498385,-1.3485004,3.6148373e-05,5.13927e-05,-3.7690163e-05,0.9111701,-0.18553704,0.043726433,-0.055078305,0.005127244,0.014130588,-0.011329105,0.40922076,-0.28745097,-0.4679148,1.5819415,-0.009521439,nan,1.8526478,4.038653,0.54209846,1.0675443,0.1550521,inf,inf,inf,inf,0,1,0,1,1,1,1,1,3,0,0,0,0
39326999,39326100,0,nan,nan,1.6172926,0.5046582,-1.3554789,3.6148373e-05,5.13927e-05,-3.7690163e-05,0.9227913,-0.21674916,-0.02857587,-0.12532806,0.005127244,0.014130588,-0.011329105,0.32623217,-0.47368172,-0.645047,1.5478057,-0.009521439,nan,1.8596263,4.12435,0.54128236,1.0813311,0.15486272,inf,inf,inf,inf,0,1,0,1,1,1,1,1,3,0,0,0,0
39428361,39425943,0,nan,nan,1.6542039,0.46088514,-1.3700839,3.6148373e-05,5.13927e-05,-3.7690163e-05,0.9364,-0.24782728,-0.10399204,-0.19923986,0.005127244,0.014130588,-0.011329105,0.10979993,-0.46522036,-0.91486555,1.5139139,-0.009521439,nan,1.8742313,4.0380955,0.5404671,1.0656687,0.15467642,inf,inf,inf,inf,0,1,0,1,1,1,1,1,3,0,0,0,0
39528604,39525776,0,nan,nan,1.6808091,0.4105519,-1.3922255,3.6148373e-05,5.13927e-05,-3.7690163e-05,0.94729114,-0.2780828,-0.16016325,-0.25447524,0.005127244,0.014130588,-0.011329105,0.039692935,-0.37821856,-0.6338096,1.4809217,-0.009521439,nan,1.8963728,4.123964,0.54620045,1.0794559,0.15567523,inf,inf,inf,inf,0,1,0,1,1,1,1,1,3,0,0,0,0
39626379,39625613,0,nan,nan,1.7190081,0.3628546,-1.4201049,3.6148373e-05,5.13927e-05,-3.7690163e-05,0.9587011,-0.3074156,-0.18732119,-0.2820849,0.005127244,0.014130588,-0.011329105,0.2479285,-0.33252722,-0.09483737,1.4491234,-0.009521439,nan,1.9242523,4.037207,0.54537636,1.0632102,0.15548098,inf,inf,inf,inf,0,1,0,1,1,1,1,1,3,0,0,0,0
