timestamp,timestamp_sample,states[0],states[1],states[2],states[3],states[4],states[5],states[6],states[7],states[8],states[9],states[10],states[11],states[12],states[13],states[14],states[15],states[16],states[17],states[18],states[19],states[20],states[21],states[22],states[23],covariances[0],covariances[1],covariances[2],covariances[3],covariances[4],covariances[5],covariances[6],covariances[7],covariances[8],covariances[9],covariances[10],covariances[11],covariances[12],covariances[13],covariances[14],covariances[15],covariances[16],covariances[17],covariances[18],covariances[19],covariances[20],covariances[21],covariances[22],covariances[23],n_states
22220037,22219210,0.987945,0.0016342141,0.0011608239,-0.15479197,0.030137423,0.02698212,0.025330875,0.025946315,0.020814545,0.39711416,-7.4007265e-05,4.062352e-05,3.4404547e-05,0.0,0.0,-0.001312375,0.38650006,2.3148647e-08,0.22496867,0.0,0.0,0.0,0.0,0.0,3.1903785e-06,8.913337e-06,8.91351e-06,0.00012409537,0.0267351,0.02673357,0.02151445,0.06567256,0.0656698,0.3037602,6.6273514e-11,6.627234e-11,7.367372e-10,4.0000004e-06,4.0000004e-06,5.0000356e-08,0.0,0.0,0.0,0.0,0.0,0.0,0.0,0.0,24
23228319,23227494,0.9884312,0.0022700515,0.0022929823,-0.15163597,0.022290267,0.03592593,0.030037705,0.03281812,0.02923758,0.39908347,-7.3627954e-05,4.0384526e-05,2.692605e-05,-5.2697097e-11,1.0057966e-09,-0.0013076821,0.38650006,2.3148647e-08,0.22496867,0.0,0.0,0.0,0.0,0.0,3.0812955e-06,8.3403675e-06,8.339565e-06,0.00011743756,0.030097015,0.030096045,0.0207256,0.07565175,0.07564948,0.29431584,5.5939735e-11,5.5935027e-11,6.1336536e-10,4.0000027e-06,4.0000027e-06,5.000027e-08,0.0,0.0,0.0,0.0,0.0,0.0,0.0,0.0,24
24226655,24225845,0.99157965,0.004501667,0.011136405,-0.12894014,-0.03793564,-0.04352849,-0.124636695,0.012705884,0.04318401,0.2733434,-7.356032e-05,4.0351744e-05,8.324305e-06,6.678718e-08,3.1788068e-07,-0.0013095246,0.38650006,2.3148647e-08,0.22496867,0.0,0.0,0.0,0.0,0.0,2.4975293e-06,1.0643425e-05,1.06298785e-05,0.000111623245,0.1122239,0.11223682,0.020279001,0.22506131,0.22505732,0.28584898,5.6838593e-11,5.6835453e-11,5.159492e-10,3.998882e-06,3.998882e-06,5.000009e-08,0.0,0.0,0.0,0.0,0.0,0.0,0.0,0.0,24
29228517,29227656,0.8973074,0.013023864,-0.013609825,0.44100407,0.2887955,0.35320154,-0.34775084,0.03849193,0.12581669,-0.7749644,-7.348038e-05,4.0401705e-05,-7.183701e-05,-9.313987e-05,-6.1233695e-05,-0.001317246,0.38650006,2.3148647e-08,0.22496867,0.0,0.0,0.0,0.0,0.0,1.3987562e-05,2.0909534e-05,2.0914804e-05,7.579852e-05,0.7677033,0.768004,0.021401426,8.535106,8.537237,0.28046983,5.623294e-11,5.6232286e-11,2.4798538e-10,2.4762774e-06,2.4764547e-06,5e-08,0.0,0.0,0.0,0.0,0.0,0.0,0.0,0.0,24
30228456,30225970,0.82756126,0.0052448143,-0.010058946,0.5612607,0.26172724,0.42313397,-0.3638463,0.23361993,0.4170644,-1.2165843,-7.340529e-05,4.0388706e-05,-7.703695e-05,-6.92562e-05,-1.3042163e-05,-0.0013206989,0.28902343,-0.00017839226,0.17410564,-0.012269266,-0.0064878515,0.0025789829,0.0,0.0,0.0008113668,2.2260892e-05,2.2074943e-05,0.001776182,0.6348059,0.6349701,0.02139651,9.199577,9.203378,0.27934825,5.5961392e-11,5.5958464e-11,2.2847722e-10,1.9692773e-06,1.970024e-06,5.000009e-08,0.0012834542,3.1612184e-05,0.0012891085,0.00075760315,0.0011647036,0.0012890261,0.0,0.0,24
31220068,31219341,0.75686795,0.0097482,-0.011994358,0.65338504,0.27280602,0.46863052,-0.11304767,0.38731644,0.66017014,-1.5424025,-7.330236e-05,4.038447e-05,-7.7078184e-05,-3.0105937e-05,4.2166655e-05,-0.0013173458,0.28764853,-0.00018283169,0.17570306,-0.011110015,-0.008851096,0.004058892,0.0,0.0,0.0011012052,2.3148375e-05,2.302912e-05,0.0014874905,0.55425817,0.55424184,0.021588478,9.863816,9.869435,0.28322762,5.624629e-11,5.623883e-11,2.2897723e-10,1.6752402e-06,1.6766728e-06,5.000036e-08,0.0011315601,2.945603e-05,0.0012585616,0.00065033993,0.0010262971,0.0012580542,0.0,0.0,24
32228427,32227689,0.70472497,0.016724972,-0.012681339,0.70917016,0.2986031,0.49103534,0.02548708,0.48376802,0.80683154,-1.5199039,-7.316366e-05,4.0405095e-05,-7.712264e-05,3.3962915e-05,0.000110805995,-0.0013134812,0.29408622,-0.0001447895,0.17572647,-0.0146068605,-0.0029991688,0.004794263,0.0,0.0,0.0012987731,2.4246896e-05,2.456283e-05,0.0012912231,0.48356748,0.483133,0.021928715,9.287918,9.293314,0.2830658,5.667126e-11,5.6655357e-11,2.2951556e-10,1.4186792e-06,1.4206767e-06,5.000027e-08,0.001020749,2.749125e-05,0.0012536152,0.0004974674,0.0009428318,0.0012531943,0.0,0.0,24
33226857,33226053,0.6506057,0.013034527,-0.0067598405,0.7592738,0.2842248,0.5056859,-0.15807737,0.5465599,0.93905014,-1.7425213,-7.303025e-05,4.047131e-05,-7.716277e-05,0.000110307505,0.00016883749,-0.0013093764,0.29787177,0.00020453306,0.17503072,-0.025987053,-0.0035973424,0.0067628953,0.0,0.0,0.0014904265,2.525316e-05,2.55743e-05,0.0011020746,0.4618217,0.46076128,0.022430168,8.650183,8.65368,0.28202888,5.7243443e-11,5.721623e-11,2.3018538e-10,1.2415983e-06,1.2441205e-06,5.000009e-08,0.00092838734,2.5882877e-05,0.0012510158,0.00033359736,0.0008959933,0.0012502257,0.0,0.0,24
35228717,35227836,0.5935183,0.013981686,-0.015576931,0.80454826,0.21988414,0.3328324,0.36491185,0.561026,0.9188599,-1.8352886,-7.284728e-05,4.0888066e-05,-7.6578464e-05,0.00029368472,0.00023070433,-0.001284518,0.29534325,0.0005394248,0.17692913,-0.034569725,-0.008577341,0.0075140954,0.0,0.0,0.00075716944,2.863895e-05,2.8185055e-05,0.0003786017,0.4877802,0.48649523,0.023591824,7.8075204,7.8056116,0.28843948,5.8122854e-11,5.827494e-11,2.3086114e-10,1.0073753e-06,1.009672e-06,5.000009e-08,0.0007840941,2.3260272e-05,0.0012484785,0.00015698098,0.00080682704,0.0012473465,0.0,0.0,24
36227049,36226151,0.5425374,0.002276222,-0.03636372,0.8392412,0.4885342,0.37280697,0.22261101,0.6755049,0.9388633,-1.5776719,-7.2791445e-05,4.105255e-05,-7.6453915e-05,0.00036112405,0.00023327657,-0.0012671889,0.29496467,0.00053780555,0.17684683,-0.034187403,-0.008892211,0.007555075,0.0,0.0,0.0002571689,3.0709427e-05,3.000935e-05,9.73143e-05,0.5389369,0.5374842,0.023904659,8.253348,8.247151,0.28860593,5.858021e-11,5.8797224e-11,2.3129629e-10,9.366751e-07,9.390914e-07,5e-08,0.0,0.0,0.0,0.0,0.0,0.0,0.0,0.0,24
37230449,37229515,0.56659365,0.007736441,-0.020534642,0.8237052,0.68467075,0.34346074,0.0630391,0.96608925,0.939922,-1.5017312,-7.270711e-05,4.1254418e-05,-7.6330834e-05,0.00043894403,0.00021488282,-0.0012553713,0.29496467,0.00053780555,0.17684683,-0.034187403,-0.008892211,0.007555075,0.0,0.0,0.0001438377,3.2346066e-05,3.2028212e-05,6.152e-05,0.5624666,0.5610601,0.02405966,8.171502,8.162584,0.2886411,5.899099e-11,5.919773e-11,2.3176906e-10,8.606436e-07,8.632682e-07,5e-08,0.0,0.0,0.0,0.0,0.0,0.0,0.0,0.0,24
38228805,38227888,0.5898356,-0.0077764546,-0.0068993038,0.8074565,0.61906683,0.19620627,0.19319262,1.1711016,0.86210877,-1.4685395,-7.2604096e-05,4.1468087e-05,-7.582112e-05,0.0005114456,0.00016933923,-0.0012388588,0.29496467,0.00053780555,0.17684683,-0.034187403,-0.008892211,0.007555075,0.0,0.0,9.859099e-05,3.4489258e-05,3.430449e-05,4.712053e-05,0.57384974,0.5723914,0.024289932,8.162751,8.15257,0.2951932,5.943058e-11,5.962537e-11,2.3189355e-10,7.962713e-07,7.989285e-07,5.0000107e-08,0.0,0.0,0.0,0.0,0.0,0.0,0.0,0.0,24
39228670,39226267,0.69003195,-0.005291022,-0.014409993,0.7236161,0.86516565,-0.16041689,0.09177727,1.4008151,0.58129084,-1.3532444,-7.2319e-05,4.185915e-05,-7.507192e-05,0.00057972764,9.0530026e-05,-0.0012244455,0.30396974,0.00096802023,0.17410292,-0.031128816,-0.020511288,0.004094348,0.0,0.0,6.330368e-05,3.6607435e-05,3.640323e-05,5.1128616e-05,0.5702861,0.5693648,0.024041152,8.160343,8.150375,0.29387072,5.9793774e-11,5.9882106e-11,2.3144227e-10,7.4066253e-07,7.441158e-07,5.000008e-08,0.0003978697,2.0761463e-05,0.0006459391,7.934275e-05,0.00039674388,0.00064605335,0.0,0.0,24
41228806,41228008,0.9005415,0.0022062636,-0.007887252,0.43469292,0.7251106,-0.5401031,0.06510934,1.8744326,-0.23043634,-1.7543609,-7.213777e-05,4.293304e-05,-7.158972e-05,0.00067100395,-6.12046e-05,-0.0012014088,0.33450794,0.0019369725,0.17715447,-0.026392445,0.011934768,0.0063802926,0.0,0.0,2.3014203e-05,4.126415e-05,4.118815e-05,8.271641e-05,0.5433396,0.54232097,0.023650266,8.762325,8.754394,0.2966237,6.088314e-11,6.103814e-11,2.3026771e-10,6.6972916e-07,6.7327585e-07,5.0000267e-08,0.00017628536,1.8513616e-05,0.0006275268,5.2649048e-05,0.00017400416,0.00062737975,0.0,0.0,24
42227169,42226388,0.9685157,0.0012066879,-0.01293771,0.24861324,0.41457832,-0.5520026,-0.073243625,1.6560757,-0.6273038,-1.8363689,-7.2203344e-05,4.2952477e-05,-7.199313e-05,0.0006422725,-0.00010692062,-0.0011947984,0.33369437,0.0017062457,0.17718835,-0.0254155,0.010578031,0.0067992792,0.0,0.0,7.748821e-06,4.272999e-05,4.26136e-05,8.8708926e-05,0.50659454,0.50511277,0.023113227,8.560891,8.552665,0.29330656,6.130303e-11,6.157983e-11,2.2852281e-10,6.446468e-07,6.480262e-07,5.000009e-08,8.747184e-05,1.7342798e-05,0.00062514,4.1338277e-05,8.463063e-05,0.0006249151,0.0,0.0,24
43222221,43219777,0.9997183,0.0050129583,-0.0033877776,0.022953602,0.12699465,-0.40704203,0.17086451,1.2925286,-0.803883,-1.8627622,-7.215289e-05,4.3142492e-05,-7.22874e-05,0.00061619864,-0.00014217827,-0.0011883689,0.32666698,0.0015547078,0.17703733,-0.023500767,0.0033297422,0.006247346,0.0,0.0,5.7277487e-07,4.273907e-05,4.2886426e-05,8.512271e-05,0.48479483,0.4821659,0.022785721,8.270153,8.25902,0.29530257,6.1677996e-11,6.192156e-11,2.2543228e-10,6.290287e-07,6.3286654e-07,5.0000217e-08,4.742203e-05,1.6248317e-05,0.00062386406,2.9726816e-05,4.4321627e-05,0.0006235867,0.0,0.0,24
45228943,45226527,0.9132516,-0.0023267835,-0.018570498,-0.40696603,-0.113472864,0.032731157,0.11972692,0.42715445,-0.3880795,-2.101612,-7.221158e-05,4.534932e-05,-6.201936e-05,0.0007577821,-0.00018364814,-0.0011837312,0.30214003,0.0032904805,0.17049317,-0.02289131,-0.023660067,0.009385365,0.0,0.0,1.0584278e-05,3.9246952e-05,3.9351453e-05,6.175491e-05,0.5785307,0.57016575,0.021770766,8.513453,8.482969,0.28835365,6.2055944e-11,6.156247e-11,2.1705229e-10,6.163175e-07,6.2382605e-07,5e-08,1.9917266e-05,1.4558093e-05,0.0006166187,1.5245825e-05,1.6345324e-05,0.00061645696,0.0,0.0,24
46227236,46224912,0.79513264,-0.003977877,-0.005499622,-0.60639775,-0.27530345,0.40203038,-0.15472102,0.009874843,0.1278401,-2.2910006,-7.260538e-05,4.6376106e-05,-4.9034876e-05,0.0008757207,-0.0001643769,-0.0011900652,0.29468346,0.0050996533,0.17193681,-0.025394,-0.035240997,0.007097817,0.0,0.0,2.332629e-05,3.4796223e-05,3.51433e-05,4.73323e-05,0.6555704,0.643103,0.021765485,8.422212,8.381689,0.29114938,6.1277136e-11,6.042618e-11,2.1183677e-10,6.093003e-07,6.1909213e-07,5.000013e-08,1.4851958e-05,1.3929505e-05,0.0006145912,1.171636e-05,1.1458654e-05,0.00061433186,0.0,0.0,24
48229262,48226679,0.48194328,-0.0011322848,0.00017691581,-0.8762017,-0.40437534,1.3152089,0.024932243,-0.780905,1.7055718,-2.5375314,-7.390135e-05,4.693112e-05,-2.0555613e-05,0.0010300053,-3.6914687e-05,-0.0012042528,0.2930193,0.007914746,0.17844664,-0.032073777,-0.048439253,-0.0005708432,0.0,0.0,5.003486e-05,2.4573876e-05,2.4514111e-05,1.9935182e-05,0.7602031,0.7415619,0.021545315,8.561114,8.499897,0.28435844,5.7265106e-11,5.66268e-11,1.9702244e-10,5.682001e-07,5.78971e-07,5e-08,9.494579e-06,1.2942711e-05,0.00060868857,7.812569e-06,6.907442e-06,0.00060812884,0.0,0.0,24
50229185,50228452,0.15314335,-0.0015543209,0.0071417466,-0.98817706,-0.14767736,1.7281907,0.07742959,-0.81802565,3.0968504,-2.6214147,-7.443611e-05,4.5427038e-05,-1.1117551e-05,0.00091618876,1.6897398e-05,-0.0012279304,0.2971858,0.008704424,0.17676976,-0.037154946,-0.051999174,0.0004960294,0.0,0.0,6.69469e-05,1.6711885e-05,1.6547277e-05,3.492154e-06,0.75291675,0.73408264,0.02175871,9.469736,9.378421,0.2859957,5.283169e-11,5.318776e-11,1.762022e-10,4.9492115e-07,5.0187873e-07,5.000018e-08,6.8186932e-06,1.2170813e-05,0.000602468,5.8352125e-06,5.33575e-06,0.00060175045,0.0,0.0,24
51227689,51226844,0.03406298,-0.005451447,0.009899861,-0.99935585,-0.0741626,1.5021565,-0.044162568,-0.57768875,3.2391138,-2.5341196,-7.419373e-05,4.4328637e-05,-1.6265752e-05,0.00077203754,-2.8469274e-06,-0.0012379133,0.29887095,0.008857632,0.17398916,-0.03919492,-0.0518386,0.0034001777,0.0,0.0,6.9181966e-05,1.3809961e-05,1.3706568e-05,9.492635e-07,0.67786443,0.66211563,0.021419767,9.30074,9.20705,0.28338072,5.0889702e-11,5.163535e-11,1.6377481e-10,4.4753804e-07,4.521425e-07,5.0000093e-08,5.8873397e-06,1.1808982e-05,0.0005972643,5.139094e-06,4.961245e-06,0.00059653446,0.0,0.0,24
52226112,52225238,-0.0022708117,-0.022557355,0.00030815497,-0.9997429,-0.04201321,1.3989979,0.16897102,-0.41807207,3.228807,-2.5820155,-7.422691e-05,4.340772e-05,-2.4057643e-05,0.0006314536,-2.2523867e-05,-0.0012416985,0.29922882,0.009056184,0.1741063,-0.04024836,-0.050981686,0.0031530918,0.0,0.0,6.948715e-05,1.1818841e-05,1.1745636e-05,5.689576e-07,0.5956553,0.58368933,0.020993497,9.0027,8.912606,0.28053775,4.960194e-11,5.0532533e-11,1.5203767e-10,4.016281e-07,4.0427153e-07,5e-08,5.1868396e-06,1.14578725e-05,0.0005921052,4.6227283e-06,4.745006e-06,0.00059134676,0.0,0.0,24
54227833,54227023,-0.009519848,-0.010370118,0.008797704,-0.99986225,-0.20625414,1.043586,0.33225814,-0.47340038,3.1718385,-2.1614752,-7.394623e-05,4.2202057e-05,-3.1935964e-05,0.00041741924,-9.140493e-05,-0.0012298679,0.2992447,0.009214082,0.17522836,-0.040749453,-0.05046389,0.0018695352,0.0,0.0,6.653188e-05,1.0504378e-05,1.0745534e-05,5.0040893e-07,0.5004319,0.49333748,0.020249698,9.0222845,8.924548,0.28017393,4.9126453e-11,5.0005035e-11,1.3376401e-10,3.3085428e-07,3.3164778e-07,5.0000093e-08,0.0,0.0,0.0,0.0,0.0,0.0,0.0,0.0,24
55226479,55225421,-0.0055861967,-0.023554787,-0.00054023555,-0.99970686,-0.12670827,1.1431974,0.11865482,-0.4124698,3.0516677,-1.946026,-7.3567106e-05,4.1864605e-05,-3.4320492e-05,0.00032249634,-0.0001507559,-0.001216273,0.2992447,0.009214082,0.17522836,-0.040749453,-0.05046389,0.0018695352,0.0,0.0,6.405902e-05,1.0683067e-05,1.092329e-05,5.0303396e-07,0.45270196,0.4490036,0.019804606,8.597502,8.513965,0.27645597,4.9461435e-11,5.032047e-11,1.2640176e-10,2.9913016e-07,2.9925397e-07,5e-08,0.0,0.0,0.0,0.0,0.0,0.0,0.0,0.0,24
57228112,57227214,-0.0066923313,-0.031061472,-0.012496956,-0.999417,-0.3658906,0.76348174,0.4643968,-0.5211328,2.7239666,-1.909303,-7.303662e-05,4.1574287e-05,-3.9733703e-05,0.00017576007,-0.00028369762,-0.0011793021,0.2992447,0.009214082,0.17522836,-0.040749453,-0.05046389,0.0018695352,0.0,0.0,6.053127e-05,1.257254e-05,1.281579e-05,5.019132e-07,0.38306004,0.38415748,0.019260881,7.857802,7.8131695,0.27549413,5.0893522e-11,5.173787e-11,1.1323686e-10,2.4980088e-07,2.487592e-07,5e-08,0.0,0.0,0.0,0.0,0.0,0.0,0.0,0.0,24
58226632,58225616,0.0006180964,0.002283238,-0.020181986,-0.9997935,-0.38700095,0.18037204,0.26511195,-0.77645576,2.4179516,-1.7352598,-7.2936054e-05,4.1601976e-05,-4.286762e-05,0.00014180806,-0.00033901262,-0.0011600305,0.2992447,0.009214082,0.17522836,-0.040749453,-0.05046389,0.0018695352,0.0,0.0,5.9154903e-05,1.4261769e-05,1.4517149e-05,4.935512e-07,0.38208392,0.3848241,0.01892563,8.166742,8.135317,0.27198812,5.1839266e-11,5.26799e-11,1.07298115e-10,2.3440643e-07,2.3302695e-07,5e-08,0.0,0.0,0.0,0.0,0.0,0.0,0.0,0.0,24
60228238,60227418,0.42388186,-0.021742059,-0.0093700085,-0.90540797,-0.25882146,-0.14634997,0.13182464,-1.3648837,1.1920488,-1.5192586,-7.134407e-05,4.7439004e-05,-3.9934326e-05,0.00020662819,-0.0004962676,-0.0010901189,0.29567623,0.009339062,0.18218568,-0.03859503,-0.052331556,0.0011961232,0.0,0.0,3.9696788e-05,1.739174e-05,1.7375969e-05,9.094972e-06,0.35296202,0.3621879,0.018645164,7.5874844,7.621943,0.27165458,5.2984648e-11,5.308479e-11,8.9456616e-11,2.038517e-07,2.0230505e-07,5.000009e-08,4.133443e-06,9.015419e-06,0.00029880184,3.8479716e-06,4.238352e-06,0.00029813653,0.0,0.0,24
61221637,61220832,0.45217162,-0.010355976,-0.019969208,-0.8916473,-0.43716484,-0.4331115,0.41490084,-1.9159087,0.618794,-1.3714399,-6.941271e-05,5.2570304e-05,-3.6515255e-05,0.00031325058,-0.0006102151,-0.0010474566,0.2928662,0.009577629,0.18418676,-0.037647136,-0.05485368,-0.0022020421,0.0,0.0,3.8062462e-05,1.876436e-05,1.896587e-05,1.0133418e-05,0.3397934,0.35146683,0.018632846,7.349284,7.407502,0.27364922,5.3569937e-11,5.32296e-11,8.548227e-11,1.9214887e-07,1.9065698e-07,5.000009e-08,3.95224e-06,8.589957e-06,0.00029496037,3.743616e-06,4.0877862e-06,0.00029387962,0.0,0.0,24
62230025,62229224,0.5394479,-0.016085336,-0.018317819,-0.8416661,-0.41732502,-0.65836984,0.031924438,-2.154309,0.025953952,-1.3780003,-6.688549e-05,5.6214532e-05,-3.205831e-05,0.00040683808,-0.00071865704,-0.0010128827,0.29091725,0.010069956,0.18351838,-0.037291918,-0.056661252,0.00028473212,0.0,0.0,3.455835e-05,2.0315252e-05,2.0390458e-05,1.4532598e-05,0.3352758,0.34995496,0.018490383,7.1901984,7.2700467,0.27189824,5.4040286e-11,5.3352312e-11,8.256272e-11,1.8254545e-07,1.8113361e-07,5.000009e-08,3.814973e-06,8.307297e-06,0.00029276742,3.6797446e-06,3.965612e-06,0.00029165566,0.0,0.0,24
63228413,63227633,0.6736192,-0.022318928,-0.016427178,-0.7385589,-0.62877023,-0.74769634,0.06850354,-2.7952917,-0.540385,-1.3209349,-6.352933e-05,6.115338e-05,-2.9296305e-05,0.00053609855,-0.0008471793,-0.00097216666,0.2883561,0.009945593,0.18288507,-0.037778586,-0.059079807,0.0012115529,0.0,0.0,2.7412534e-05,2.1682536e-05,2.1245232e-05,2.2865546e-05,0.3439694,0.362453,0.0183006,7.555073,7.670668,0.26912326,5.4346746e-11,5.3440943e-11,7.995474e-11,1.7625902e-07,1.7490957e-07,5.000009e-08,3.697992e-06,8.085525e-06,0.00029134186,3.6351921e-06,3.8020812e-06,0.00029023841,0.0,0.0,24
64228571,64226045,0.7512152,-0.028853655,0.010888507,-0.6593365,-0.9676355,-0.63826185,-0.089063026,-3.3061688,-0.8535801,-1.466777,-5.96157e-05,6.4756896e-05,-2.5745485e-05,0.0006643961,-0.0009826873,-0.00093123555,0.28607592,0.0098664155,0.18612865,-0.039049126,-0.060803123,-0.00179866,0.0,0.0,2.2482005e-05,2.207358e-05,2.14526e-05,2.9388619e-05,0.3393028,0.36026034,0.018099412,7.3752103,7.5129824,0.26638296,5.4267372e-11,5.3371762e-11,7.7479e-11,1.7024271e-07,1.6890282e-07,5e-08,3.5935293e-06,7.897453e-06,0.00028996202,3.5855328e-06,3.62645e-06,0.00028854984,0.0,0.0,24
65226911,65224456,0.83691686,-0.02919798,0.0252323,-0.54596794,-1.7372305,-0.33312815,0.055227,-4.09157,-0.7764428,-1.4063402,-5.558044e-05,6.7029665e-05,-2.2483375e-05,0.00077773415,-0.0011226946,-0.0008990376,0.28424743,0.009760217,0.19951625,-0.04061238,-0.061664697,-0.0150766745,0.0,0.0,1.5893445e-05,2.2099044e-05,2.0996773e-05,3.7450904e-05,0.33500648,0.35675606,0.018137729,7.1989036,7.3565516,0.26947722,5.3769593e-11,5.309952e-11,7.509573e-11,1.660276e-07,1.6457793e-07,5e-08,3.5014273e-06,7.731679e-06,0.00028450813,3.510067e-06,3.4555794e-06,0.00028182263,0.0,0.0,24
66230240,66227862,0.92923313,-0.0117929885,0.008638839,-0.36920485,-1.9023927,0.08712913,0.21236514,-4.963438,-0.3644459,-1.3348888,-5.198506e-05,6.774485e-05,-1.9089248e-05,0.00086606044,-0.0012626516,-0.00086623407,0.28256354,0.009617199,0.20134738,-0.042087734,-0.06163971,-0.016399411,0.0,0.0,7.5167977e-06,2.1931883e-05,1.990511e-05,4.6501234e-05,0.334125,0.3582745,0.017989082,7.0417852,7.215915,0.26685366,5.2913795e-11,5.267251e-11,7.268893e-11,1.633822e-07,1.6166645e-07,5e-08,3.3983008e-06,7.575087e-06,0.0002825568,3.3921847e-06,3.2778441e-06,0.00028001005,0.0,0.0,24
67228914,67226277,0.9990367,0.00038784384,-0.000829924,-0.043872718,-2.2360346,0.46956563,-0.056448333,-6.0728126,0.30291048,-1.2667449,-4.91363e-05,6.7473746e-05,-1.36326125e-05,0.00092740555,-0.0013918336,-0.00083172426,0.28085166,0.0096665425,0.20404957,-0.043017637,-0.060157113,-0.018835042,0.0,0.0,5.5963557e-07,2.0895037e-05,1.7978738e-05,5.3778942e-05,0.35411504,0.3832739,0.0178737,7.411716,7.634183,0.2644292,5.212757e-11,5.2348965e-11,7.006611e-11,1.6205699e-07,1.6002062e-07,5e-08,3.2727978e-06,7.4254617e-06,0.00028158107,3.1687484e-06,3.0807712e-06,0.0002792003,0.0,0.0,24
68232125,68229686,0.9480479,0.0248129,0.009519776,0.31701577,-2.6557913,0.8272238,0.013565835,-6.959544,1.1741828,-1.2019433,-4.703261e-05,6.6466964e-05,-4.226824e-06,0.0009913042,-0.0015437454,-0.0007869503,0.2787146,0.010053053,0.21145898,-0.042388245,-0.05703147,-0.026389794,0.0,0.0,6.6296216e-06,1.767949e-05,1.5656053e-05,4.7941485e-05,0.35791102,0.3910611,0.018034613,7.2691674,7.5184736,0.2679523,5.1060413e-11,5.158613e-11,6.7235606e-11,1.6116412e-07,1.5873606e-07,5e-08,3.1203124e-06,7.283455e-06,0.00027940836,2.864948e-06,2.8640181e-06,0.00027719536,0.0,0.0,24
69218949,69218118,0.77428734,0.027735692,0.026261413,0.6316804,-3.5746965,0.9323396,-0.09311394,-8.594284,1.9867002,-1.1973234,-4.4996323e-05,6.6885455e-05,1.359289e-06,0.0010929238,-0.001743021,-0.0007546937,0.275876,0.010358876,0.2245434,-0.041814122,-0.05353337,-0.040551845,0.0,0.0,2.3337176e-05,1.41353885e-05,1.3903452e-05,3.1698648e-05,0.358717,0.39515334,0.017993359,7.118183,7.3967156,0.26476485,5.003636e-11,5.0599053e-11,6.469618e-11,1.6055688e-07,1.5772758e-07,5.000009e-08,2.9758871e-06,7.1538348e-06,0.00027609282,2.5903466e-06,2.6479436e-06,0.0002735062,0.0,0.0,24
70227379,70226539,0.5510748,0.008020253,0.010447503,0.83435196,-4.2715735,0.42924657,-0.30456367,-10.497991,2.0397243,-1.390892,-4.476428e-05,6.783852e-05,-1.5606729e-07,0.0011871032,-0.0018948055,-0.0007445368,0.27342767,0.010561334,0.23348722,-0.04190487,-0.050863147,-0.051370192,0.0,0.0,3.903163e-05,1.2041805e-05,1.3113565e-05,1.6057902e-05,0.35368344,0.39235932,0.018049214,7.029076,7.3366675,0.26388574,4.9074456e-11,4.953329e-11,6.2453945e-11,1.5971027e-07,1.5655169e-07,5e-08,2.8474476e-06,7.0278347e-06,0.00027324125,2.3893006e-06,2.4534988e-06,0.00027036012,0.0,0.0,24
71225877,71224941,0.41949672,0.030291224,0.025548339,0.9068916,-4.5673413,-0.359028,0.09489641,-11.530442,1.3333874,-1.4183309,-4.5959187e-05,6.71082e-05,-4.550885e-06,0.0011985479,-0.0019405839,-0.0007512122,0.27191284,0.010721168,0.23989192,-0.042398646,-0.04933628,-0.05902259,0.0,0.0,4.6379453e-05,1.0828819e-05,1.2029897e-05,9.805954e-06,0.33849448,0.3754097,0.018301874,6.9164095,7.2383323,0.26784098,4.8145026e-11,4.849319e-11,6.046352e-11,1.5822727e-07,1.5494552e-07,5e-08,2.740827e-06,6.905166e-06,0.00026900062,2.256925e-06,2.308072e-06,0.00026585688,0.0,0.0,24
72229208,72228353,0.33493495,0.039502505,-0.01777998,0.9412449,-4.489322,-0.67547643,-0.59725136,-12.4791565,0.38198972,-1.6315844,-4.6909718e-05,6.479357e-05,-9.986537e-06,0.0011263281,-0.0018969523,-0.00076681096,0.27148604,0.010793884,0.23622651,-0.043495882,-0.048783407,-0.05650438,0.0,0.0,5.0366856e-05,1.0819669e-05,1.1697474e-05,6.471139e-06,0.34266683,0.38040698,0.01822321,7.311381,7.6850047,0.26616567,4.7630462e-11,4.7895646e-11,5.866385e-11,1.5638156e-07,1.5318705e-07,5.0000093e-08,2.6507294e-06,6.786604e-06,0.00026500912,2.1690157e-06,2.198098e-06,0.00026185194,0.0,0.0,24
73227582,73226776,0.3586531,0.056373414,-0.0010572129,0.9317666,-4.299496,-0.48061672,-0.011712966,-12.245001,-0.15762302,-2.024218,-4.789132e-05,6.0996837e-05,-1.6174226e-05,0.0010157928,-0.0018254854,-0.00078047253,0.27066913,0.010914872,0.22664085,-0.044387408,-0.048058245,-0.047545698,0.0,0.0,4.978732e-05,1.0532996e-05,1.1151237e-05,7.872628e-06,0.324957,0.35739625,0.018068671,7.1853,7.5433593,0.2643532,4.681165e-11,4.7021755e-11,5.6912218e-11,1.5341502e-07,1.5057331e-07,5e-08,2.5568409e-06,6.6690704e-06,0.0002579358,2.1106955e-06,2.1118321e-06,0.00025486128,0.0,0.0,24
75229536,75228617,0.36456257,0.031556293,-0.015165919,0.9305204,-4.364447,-0.1295504,0.36679548,-12.330342,-0.12950796,-2.1793902,-5.0277537e-05,5.4104123e-05,-2.3685185e-05,0.0007684141,-0.0016166914,-0.0007965793,0.27049688,0.010977513,0.21887277,-0.044954997,-0.047948126,-0.039958935,0.0,0.0,4.5938683e-05,1.105775e-05,1.1489896e-05,8.020516e-06,0.30584633,0.32376266,0.018090729,6.938809,7.178339,0.26625174,4.5795718e-11,4.600064e-11,5.2267333e-11,1.4558962e-07,1.4372489e-07,5.0000033e-08,0.0,0.0,0.0,0.0,0.0,0.0,0.0,0.0,24
76228031,76227042,0.383467,0.020077026,-0.01046028,0.92327714,-4.1992493,-0.0531956,0.05584067,-13.047973,-0.039220545,-2.031068,-5.1387164e-05,5.193019e-05,-2.5762978e-05,0.0006898813,-0.0015088096,-0.0008009412,0.27049688,0.010977513,0.21887277,-0.044954997,-0.047948126,-0.039958935,0.0,0.0,4.3455384e-05,1.18094895e-05,1.2217613e-05,8.660026e-06,0.31638622,0.33153617,0.017952818,7.3179297,7.5376525,0.26421776,4.5847545e-11,4.6035457e-11,5.025196e-11,1.420133e-07,1.4047107e-07,5e-08,0.0,0.0,0.0,0.0,0.0,0.0,0.0,0.0,24
78229992,78228890,0.3595824,0.012109575,0.008115026,0.93299943,-2.7154965,-0.27869534,-0.05766226,-11.177564,-0.12515245,-2.0803795,-5.3695603e-05,4.722405e-05,-2.7777996e-05,0.00056073524,-0.0011939044,-0.0008293128,0.27049688,0.010977513,0.21887277,-0.044954997,-0.047948126,-0.039958935,0.0,0.0,4.1824213e-05,1.3423322e-05,1.3679074e-05,7.5004964e-06,0.30928588,0.3193275,0.017843122,7.0749483,7.2183065,0.26540262,4.597719e-11,4.6102875e-11,4.6973914e-11,1.3255347e-07,1.3168156e-07,5e-08,0.0,0.0,0.0,0.0,0.0,0.0,0.0,0.0,24
80226665,80225795,0.3621584,0.020259611,-0.0073838765,0.9318672,-1.9861562,-0.6253557,-0.14719462,-8.710572,-0.7156747,-2.24749,-5.4565244e-05,4.351338e-05,-2.8928878e-05,0.00048511586,-0.00090859045,-0.0008700535,0.27049688,0.010977513,0.21887277,-0.044954997,-0.047948126,-0.039958935,0.0,0.0,4.0006602e-05,1.5719626e-05,1.5782234e-05,7.3325373e-06,0.30836567,0.31385723,0.017941074,6.861903,6.9515285,0.2670212,4.65825e-11,4.6647394e-11,4.44873e-11,1.2302917e-07,1.2253834e-07,5e-08,0.0,0.0,0.0,0.0,0.0,0.0,0.0,0.0,24
82228499,82227607,0.3628134,0.013123112,-0.013717439,0.9316685,-1.4624833,-0.47555444,0.25204077,-7.0910215,-1.15294,-2.2460759,-5.419295e-05,4.086822e-05,-3.0468458e-05,0.00043542968,-0.0007093818,-0.0009115475,0.27049688,0.010977513,0.21887277,-0.044954997,-0.047948126,-0.039958935,0.0,0.0,3.8485534e-05,1.867363e-05,1.8696961e-05,7.1652767e-06,0.32760832,0.33071837,0.017770266,7.1837764,7.2427816,0.2631683,4.7405732e-11,4.742382e-11,4.248289e-11,1.1531303e-07,1.14935496e-07,5e-08,0.0,0.0,0.0,0.0,0.0,0.0,0.0,0.0,24
83226837,83226044,0.40384066,0.016009534,-0.031077772,0.91416115,-1.1026282,-0.3363693,0.1253089,-6.0372667,-1.1496828,-1.8341861,-5.3663447e-05,3.966386e-05,-3.1264044e-05,0.00041558416,-0.0006225558,-0.0009288219,0.27049688,0.010977513,0.21887277,-0.044954997,-0.047948126,-0.039958935,0.0,0.0,3.638956e-05,2.0142697e-05,2.0100324e-05,8.5439515e-06,0.3349754,0.33735818,0.017902646,7.104126,7.14738,0.26697475,4.7657173e-11,4.7651334e-11,4.1630713e-11,1.11625475e-07,1.11238634e-07,5.0000093e-08,0.0,0.0,0.0,0.0,0.0,0.0,0.0,0.0,24
85228877,85227906,0.51483333,0.010870294,-0.022015272,0.85693866,-0.5426356,0.0031587859,-0.061305698,-4.2423882,-0.735017,-1.7109277,-5.2510284e-05,3.80043e-05,-3.1906704e-05,0.00039508854,-0.0005096253,-0.0009610901,0.27049688,0.010977513,0.21887277,-0.044954997,-0.047948126,-0.039958935,0.0,0.0,3.085631e-05,2.3223793e-05,2.3192408e-05,1.28411475e-05,0.37197402,0.37391022,0.017700763,7.543353,7.5703235,0.26308703,4.792411e-11,4.7880075e-11,4.0171075e-11,1.0631717e-07,1.05835106e-07,5e-08,0.0,0.0,0.0,0.0,0.0,0.0,0.0,0.0,24
86227350,86226343,0.53364116,0.019542087,-0.019400986,0.84526265,-0.34933802,-0.029401895,-0.10437753,-3.2805464,-0.54424506,-1.7501615,-5.185219e-05,3.734188e-05,-3.0998635e-05,0.00039157635,-0.00046714518,-0.0009657486,0.27049688,0.010977513,0.21887277,-0.044954997,-0.047948126,-0.039958935,0.0,0.0,2.9691113e-05,2.441719e-05,2.4418236e-05,1.3486855e-05,0.38132328,0.3832487,0.01782995,7.51195,7.532163,0.2668078,4.766594e-11,4.760304e-11,3.954236e-11,1.0411603e-07,1.0355784e-07,5e-08,0.0,0.0,0.0,0.0,0.0,0.0,0.0,0.0,24
88229128,88228214,0.57666445,0.016086478,-0.011173058,0.81674635,0.13242182,0.13595219,-0.09492515,-1.7579056,-0.170408,-1.8174006,-5.078129e-05,3.64418e-05,-2.910345e-05,0.00038902852,-0.00041780306,-0.00097115844,0.27049688,0.010977513,0.21887277,-0.044954997,-0.047948126,-0.039958935,0.0,0.0,2.7159795e-05,2.628249e-05,2.633673e-05,1.5056564e-05,0.39460704,0.3968996,0.017596127,7.438236,7.4521275,0.26278314,4.643105e-11,4.6341916e-11,3.845415e-11,1.01201714e-07,1.0049119e-07,5e-08,0.0,0.0,0.0,0.0,0.0,0.0,0.0,0.0,24
89227530,89226658,0.6197578,0.014580903,-0.01503037,0.7845137,0.091866806,0.13285948,0.15655197,-1.194684,-0.032610897,-1.7104774,-5.0463757e-05,3.6229198e-05,-2.7303238e-05,0.00038943472,-0.00040649498,-0.000966719,0.27049688,0.010977513,0.21887277,-0.044954997,-0.047948126,-0.039958935,0.0,0.0,2.4925503e-05,2.736423e-05,2.7425524e-05,1.695171e-05,0.4165734,0.4191813,0.017729398,7.976136,7.9914355,0.2664201,4.5888626e-11,4.5795086e-11,3.8016337e-11,1.005139e-07,9.9748775e-08,5.000009e-08,0.0,0.0,0.0,0.0,0.0,0.0,0.0,0.0,24
92227804,92226977,0.77901024,-0.0073253866,-0.00947907,0.6268968,0.45067728,-0.106947325,0.08822002,0.07484507,0.33866137,-1.5910244,-4.9299742e-05,3.6828562e-05,-1.6838361e-05,0.0004188473,-0.0003998959,-0.0009099198,0.2705464,0.011527751,0.22084826,-0.044777915,-0.047947522,-0.038082235,0.0,0.0,1.5875326e-05,2.7126367e-05,2.7107126e-05,2.4468502e-05,0.41235542,0.41706812,0.017672151,7.727543,7.758397,0.26606986,4.1950506e-11,4.1977543e-11,3.666498e-11,9.920501e-08,9.8242566e-08,5.000009e-08,2.5130569e-06,6.537238e-06,0.00019651791,2.0840153e-06,2.0717519e-06,0.00019476272,0.0,0.0,24
93222988,93220429,0.86668104,-0.0017416144,-0.0078259185,0.4987984,0.63967377,0.5992802,-0.02366798,0.8157693,2.5947397,-1.5837054,-4.348615e-05,4.301226e-05,-6.798324e-06,0.00061312754,-0.00056595233,-0.00087638764,0.27127215,0.016260287,0.22571945,-0.043182705,-0.047885217,-0.03604978,0.0,0.0,9.835906e-06,2.4610843e-05,2.4244822e-05,2.7147104e-05,0.38562727,0.3961357,0.01757881,7.4236965,7.5007358,0.26307416,3.884079e-11,3.924196e-11,3.5198865e-11,9.756449e-08,9.627674e-08,5e-08,2.4242756e-06,5.9420704e-06,0.00013780007,2.0301663e-06,2.0073155e-06,0.00013813103,0.0,0.0,24
94231223,94228860,0.9430877,0.0027932052,-0.018792681,0.3320011,0.873122,1.1848688,-0.11766991,2.2273293,4.3128357,-1.6514455,-3.8085207e-05,4.5832174e-05,-2.706953e-07,0.00071073807,-0.0007522873,-0.00087114365,0.27245384,0.019140422,0.230148,-0.041916985,-0.047807816,-0.03650919,0.0,0.0,4.8049055e-06,2.3348715e-05,2.2245535e-05,3.097257e-05,0.38788614,0.40555203,0.017603226,7.8016357,7.9486046,0.26226982,3.707802e-11,3.7909124e-11,3.4618364e-11,9.663862e-08,9.4801045e-08,5e-08,2.359723e-06,5.617692e-06,0.00013230182,1.992759e-06,1.9651643e-06,0.00013304267,0.0,0.0,24
96228461,96225756,0.9997988,0.014440512,-0.01390645,0.00063357083,1.5662832,1.7210432,-0.40856308,4.882477,5.521452,-1.5886706,-3.1420444e-05,4.68793e-05,4.912078e-06,0.0007635451,-0.0010746381,-0.0009064248,0.27505872,0.021391831,0.23705898,-0.03983285,-0.047237843,-0.039359998,0.0,0.0,5.0108207e-07,1.9269544e-05,1.7468605e-05,3.4872755e-05,0.36441818,0.39076242,0.017900875,7.3914895,7.613099,0.26443848,3.437199e-11,3.5641812e-11,3.4144406e-11,9.54379e-08,9.239228e-08,5e-08,2.2615568e-06,5.242392e-06,0.00012789508,1.9023552e-06,1.913846e-06,0.00012950158,0.0,0.0,24
97231770,97229198,0.99875194,-0.0020607482,-0.021198323,0.045178674,1.4705323,2.1983569,-0.3743339,5.512114,5.9392104,-1.9564737,-3.048451e-05,4.7122376e-05,5.336365e-06,0.0007748852,-0.0011619485,-0.00093032623,0.27607575,0.021679804,0.23773728,-0.03902581,-0.047004763,-0.04053899,0.0,0.0,6.430209e-07,1.7634862e-05,1.5763446e-05,3.4739733e-05,0.35501593,0.38223708,0.018022867,7.2285028,7.471884,0.2629814,3.3576454e-11,3.4804888e-11,3.404653e-11,9.481941e-08,9.1328396e-08,5e-08,2.2199413e-06,5.117424e-06,0.00012681272,1.8598819e-06,1.8972703e-06,0.00012827227,0.0,0.0,24
98228464,98227652,0.99837357,0.021410968,-0.016540602,-0.050182544,1.4500564,2.849412,0.18138711,5.81074,6.807761,-1.8098996,-3.0823943e-05,4.7256675e-05,5.195552e-06,0.0007910314,-0.0011831278,-0.00095099636,0.2766044,0.021805475,0.23827493,-0.038596474,-0.046909757,-0.041711815,0.0,0.0,5.0012744e-07,1.6647784e-05,1.4947746e-05,3.5106874e-05,0.3621361,0.3887544,0.018427756,7.6349287,7.9072666,0.2674938,3.338957e-11,3.4432793e-11,3.4010537e-11,9.414812e-08,9.0582766e-08,5.0000093e-08,0.0,0.0,0.0,0.0,0.0,0.0,0.0,0.0,24
99226829,99226100,0.99642295,0.038747307,-0.030356152,-0.06869235,1.5643445,3.381297,0.27666602,5.286352,7.3597627,-1.6117936,-3.275297e-05,4.6500692e-05,4.674945e-06,0.0008085283,-0.0011329963,-0.0009618847,0.2766044,0.021805475,0.23827493,-0.038596474,-0.046909757,-0.041711815,0.0,0.0,5.642226e-07,1.5665837e-05,1.4274997e-05,3.4690987e-05,0.35856807,0.38060883,0.018574053,7.5212674,7.7548313,0.26631805,3.3268333e-11,3.400445e-11,3.392133e-11,9.304375e-08,8.98426e-08,5.000009e-08,0.0,0.0,0.0,0.0,0.0,0.0,0.0,0.0,24
100230260,100229544,0.99684966,0.035408158,-0.04625834,-0.053825524,1.7889739,3.6050892,0.051324334,5.047295,8.099973,-1.3455166,-3.4548288e-05,4.5518056e-05,3.839593e-06,0.00081953214,-0.0010683495,-0.000970234,0.2766044,0.021805475,0.23827493,-0.038596474,-0.046909757,-0.041711815,0.0,0.0,5.503286e-07,1.5035708e-05,1.3853888e-05,3.443557e-05,0.35502943,0.3730675,0.01860747,7.4091325,7.603798,0.26525563,3.3246773e-11,3.3738734e-11,3.3848025e-11,9.158946e-08,8.880295e-08,5.000009e-08,0.0,0.0,0.0,0.0,0.0,0.0,0.0,0.0,24
101228838,101227998,0.99804115,0.021493498,-0.021847446,-0.05453952,1.6949843,3.5181541,0.2659425,4.993873,8.536028,-1.3267127,-3.619437e-05,4.419191e-05,3.6026065e-06,0.0008153678,-0.0009876562,-0.0009685824,0.2766044,0.021805475,0.23827493,-0.038596474,-0.046909757,-0.041711815,0.0,0.0,5.3619016e-07,1.4407042e-05,1.3713017e-05,3.453269e-05,0.345868,0.359322,0.018722974,7.291731,7.450037,0.2698045,3.334234e-11,3.3653986e-11,3.3797236e-11,8.982554e-08,8.745214e-08,5.0000104e-08,0.0,0.0,0.0,0.0,0.0,0.0,0.0,0.0,24
102227431,102226451,0.99833244,-0.0033897567,-0.016031353,-0.05535251,1.5828239,3.2128031,0.25209162,4.8252053,8.662251,-1.0202204,-3.761088e-05,4.271936e-05,3.4903287e-06,0.0008025742,-0.0008961869,-0.00096512574,0.2766044,0.021805475,0.23827493,-0.038596474,-0.046909757,-0.041711815,0.0,0.0,5.4024116e-07,1.422952e-05,1.3793095e-05,3.447275e-05,0.33703798,0.3466565,0.01851011,7.1591787,7.2814503,0.26819217,3.3567957e-11,3.3749874e-11,3.3762472e-11,8.7825875e-08,8.5831985e-08,5e-08,0.0,0.0,0.0,0.0,0.0,0.0,0.0,0.0,24
103225817,103224907,0.99824834,0.012149253,-0.021426454,-0.053793658,1.5279641,3.154608,0.32720172,4.927009,9.171853,-0.804909,-3.852454e-05,4.152192e-05,3.2869862e-06,0.0007889303,-0.00081927754,-0.00096131203,0.2766044,0.021805475,0.23827493,-0.038596474,-0.046909757,-0.041711815,0.0,0.0,5.463271e-07,1.4621594e-05,1.4267993e-05,3.4491186e-05,0.34444213,0.3513989,0.018339302,7.560069,7.6643605,0.26622733,3.404128e-11,3.4144285e-11,3.3746186e-11,8.6117204e-08,8.439522e-08,5.000004e-08,0.0,0.0,0.0,0.0,0.0,0.0,0.0,0.0,24
104229207,104228356,0.9980632,0.010000117,-0.020449132,-0.057893544,1.42362,2.95354,0.31622675,4.6617875,8.914165,-0.5412043,-3.9360042e-05,4.0036935e-05,3.1828938e-06,0.0007682564,-0.0007232813,-0.00096089015,0.2766044,0.021805475,0.23827493,-0.038596474,-0.046909757,-0.041711815,0.0,0.0,5.6432333e-07,1.4932915e-05,1.4693579e-05,3.4520774e-05,0.3365636,0.34080604,0.018416235,7.412012,7.4851174,0.27004313,3.4488294e-11,3.452884e-11,3.373461e-11,8.3963975e-08,8.251896e-08,5.0000384e-08,0.0,0.0,0.0,0.0,0.0,0.0,0.0,0.0,24
105227752,105226814,0.9985027,0.00049427315,-0.0013525106,-0.05468396,1.2292429,2.7810833,-0.2661828,4.352239,8.57544,-0.5602218,-3.985426e-05,3.8616923e-05,2.9151752e-06,0.0007468567,-0.0006301385,-0.000965938,0.2766044,0.021805475,0.23827493,-0.038596474,-0.046909757,-0.041711815,0.0,0.0,5.5106983e-07,1.5400274e-05,1.5296511e-05,3.463242e-05,0.3333694,0.3355843,0.018258289,7.2708993,7.318806,0.2679297,3.5024116e-11,3.502404e-11,3.3728617e-11,8.18537e-08,8.0634685e-08,5.0000256e-08,0.0,0.0,0.0,0.0,0.0,0.0,0.0,0.0,24
107229569,107228723,0.9980632,0.001881577,-0.030609615,-0.054123994,0.6335105,2.047165,0.11499378,3.3673868,7.9462137,-0.44317976,-3.983688e-05,3.6247497e-05,3.282326e-06,0.0007040804,-0.00048283357,-0.00097146584,0.2766044,0.021805475,0.23827493,-0.038596474,-0.046909757,-0.041711815,0.0,0.0,5.8007663e-07,1.7145641e-05,1.7046612e-05,3.4831784e-05,0.33818394,0.33833483,0.018104114,7.521914,7.538578,0.26905033,3.6292355e-11,3.625664e-11,3.372306e-11,7.842356e-08,7.750263e-08,5.000045e-08,0.0,0.0,0.0,0.0,0.0,0.0,0.0,0.0,24
108228067,108227184,0.99771553,0.0063993605,-0.039090727,-0.054725036,0.8272766,1.6937177,0.6896199,2.942493,7.0881267,-0.092613466,-3.9412273e-05,3.5172026e-05,3.040855e-06,0.0006838354,-0.0004168661,-0.00097508315,0.2766044,0.021805475,0.23827493,-0.038596474,-0.046909757,-0.041711815,0.0,0.0,6.049766e-07,1.8029623e-05,1.7934313e-05,3.501913e-05,0.332808,0.33269364,0.017991513,7.387596,7.3941045,0.2668122,3.6874635e-11,3.6829872e-11,3.373712e-11,7.683528e-08,7.603019e-08,5.000027e-08,0.0,0.0,0.0,0.0,0.0,0.0,0.0,0.0,24
109226493,109225645,0.9984585,0.011115708,-0.027876073,-0.046690058,1.0136119,1.5236017,0.5038019,2.837785,6.2980385,0.5008977,-3.880413e-05,3.4272747e-05,1.7956471e-06,0.0006710246,-0.00035969072,-0.0009762785,0.2766044,0.021805475,0.23827493,-0.038596474,-0.046909757,-0.041711815,0.0,0.0,5.7962933e-07,1.8940325e-05,1.889561e-05,3.5197583e-05,0.33496675,0.33480614,0.017914305,7.262036,7.262729,0.26469526,3.739404e-11,3.73416e-11,3.372481e-11,7.5509675e-08,7.479203e-08,5.0000093e-08,0.0,0.0,0.0,0.0,0.0,0.0,0.0,0.0,24
112227002,112226027,0.9936414,-0.0013769466,-0.005264424,-0.11246052,0.50734127,0.7090151,0.888913,2.4888637,4.476074,1.9438012,-3.6484027e-05,3.1955165e-05,2.463274e-06,0.0006626255,-0.000287383,-0.0009740871,0.2766044,0.021805475,0.23827493,-0.038596474,-0.046909757,-0.041711815,0.0,0.0,9.050297e-07,2.1932648e-05,2.1968883e-05,3.5242978e-05,0.3612043,0.36362138,0.023676528,7.5025635,7.50172,0.2645765,3.838303e-11,3.8322408e-11,3.3661934e-11,7.3966454e-08,7.3338924e-08,5.000492e-08,0.0,0.0,0.0,0.0,0.0,0.0,0.0,0.0,24
