timestamp,timestamp_last_signal,rssi,rc_lost_frame_count,rc_total_frame_count,rc_ppm_frame_length,values[0],values[1],values[2],values[3],values[4],values[5],values[6],values[7],values[8],values[9],values[10],values[11],values[12],values[13],values[14],values[15],values[16],values[17],channel_count,rc_failsafe,rc_lost,input_source
22211770,22211770,40,0,0,0,1498,1495,1065,1932,1933,1933,1065,1153,1065,1057,1542,1542,1514,1514,1514,1514,998,998,18,0,0,4
22729320,22729320,40,0,0,0,1498,1495,1065,1497,1933,1933,1065,1153,1065,1057,1542,1542,1514,1514,1514,1514,998,998,18,0,0,4
23208530,23208530,40,0,0,0,1498,1495,1159,1498,1933,1933,1065,1153,1065,1057,1542,1542,1514,1514,1514,1514,998,998,18,0,0,4
23709032,23709032,40,0,0,0,1497,1495,1181,1498,1933,1933,1065,1153,1065,1057,1542,1542,1514,1514,1514,1514,998,998,18,0,0,4
24206853,24206853,40,0,0,0,1497,1495,1172,1499,1933,1933,1065,1153,1065,1057,1542,1542,1514,1514,1514,1514,998,998,18,0,0,4
24727878,24727878,40,0,0,0,1500,1495,1209,1498,1933,1933,1065,1153,1065,1057,1542,1542,1514,1514,1514,1514,998,998,18,0,0,4
25226077,25226077,40,0,0,0,1496,1494,1185,1545,1933,1933,1065,1153,1065,1057,1542,1542,1514,1514,1514,1514,998,998,18,0,0,4
25722494,25722494,40,0,0,0,1497,1480,1178,1560,1933,1933,1065,1153,1065,1057,1542,1542,1514,1514,1514,1514,998,998,18,0,0,4
26224585,26224585,40,0,0,0,1495,1440,1194,1566,1933,1933,1065,1153,1065,1057,1542,1542,1514,1514,1514,1514,998,998,18,0,0,4
26726354,26726354,40,0,0,0,1502,1481,1202,1559,1933,1933,1065,1153,1065,1057,1542,1542,1514,1514,1514,1514,998,998,18,0,0,4
27220014,27220014,40,0,0,0,1497,1449,1186,1552,1933,1933,1065,1153,1065,1057,1542,1542,1514,1514,1514,1514,998,998,18,0,0,4
27721385,27721385,40,0,0,0,1518,1448,1190,1552,1933,1933,1065,1153,1065,1057,1542,1542,1514,1514,1514,1514,998,998,18,0,0,4
28221717,28221717,40,0,0,0,1526,1429,1181,1548,1933,1933,1065,1153,1065,1057,1542,1542,1514,1514,1514,1514,998,998,18,0,0,4
28721574,28721574,40,0,0,0,1498,1429,1210,1550,1933,1933,1065,1153,1065,1057,1542,1542,1514,1514,1514,1514,998,998,18,0,0,4
29217055,29217055,40,0,0,0,1535,1455,1203,1551,1933,1933,1065,1153,1065,1057,1542,1542,1514,1514,1514,1514,998,998,18,0,0,4
29719671,29719671,40,0,0,0,1496,1482,1187,1552,1933,1933,1065,1153,1065,1057,1542,1542,1514,1514,1514,1514,998,998,18,0,0,4
30219069,30219069,40,0,0,0,1507,1444,1197,1547,1933,1933,1065,1153,1065,1057,1542,1542,1514,1514,1514,1514,998,998,18,0,0,4
30714421,30714421,40,0,0,0,1518,1452,1182,1539,1933,1933,1065,1153,1065,1057,1542,1542,1514,1514,1514,1514,998,998,18,0,0,4
31216690,31216690,40,0,0,0,1496,1434,1182,1535,1933,1933,1065,1153,1065,1057,1542,1542,1514,1514,1514,1514,998,998,18,0,0,4
31707618,31707618,40,0,0,0,1496,1446,1195,1533,1933,1933,1065,1153,1065,1057,1542,1542,1514,1514,1514,1514,998,998,18,0,0,4
32226820,32226820,40,0,0,0,1497,1442,1208,1532,1933,1933,1065,1153,1065,1057,1542,1542,1514,1514,1514,1514,998,998,18,0,0,4
32722451,32722451,40,0,0,0,1516,1448,1183,1528,1933,1933,1065,1153,1065,1057,1542,1542,1514,1514,1514,1514,998,998,18,0,0,4
33205580,33205580,40,0,0,0,1513,1448,1190,1527,1933,1933,1065,1153,1065,1057,1542,1542,1514,1514,1514,1514,998,998,18,0,0,4
33729390,33729390,40,0,0,0,1497,1453,1190,1522,1933,1933,1065,1153,1065,1057,1542,1542,1514,1514,1514,1514,998,998,18,0,0,4
34228673,34228673,40,0,0,0,1496,1442,1186,1522,1933,1933,1065,1153,1065,1057,1542,1542,1514,1514,1514,1514,998,998,18,0,0,4
34717777,34717777,40,0,0,0,1495,1439,1175,1522,1933,1933,1065,1153,1065,1057,1542,1542,1514,1514,1514,1514,998,998,18,0,0,4
35226872,35226872,40,0,0,0,1467,1452,1183,1523,1933,1933,1065,1153,1065,1057,1542,1542,1514,1514,1514,1514,998,998,18,0,0,4
35728009,35728009,40,0,0,0,1402,1441,1195,1515,1933,1933,1065,1153,1065,1057,1542,1542,1514,1514,1514,1514,998,998,18,0,0,4
36207987,36207987,40,0,0,0,1454,1447,1194,1487,1933,1933,1065,1153,1065,1057,1542,1542,1514,1514,1514,1514,998,998,18,0,0,4
36727259,36727259,40,0,0,0,1462,1447,1190,1468,1933,1933,1065,1153,1065,1057,1542,1542,1514,1514,1514,1514,998,998,18,0,0,4
37225309,37225309,40,0,0,0,1473,1435,1185,1483,1933,1933,1065,1153,1065,1057,1542,1542,1514,1514,1514,1514,998,998,18,0,0,4
37724294,37724294,40,0,0,0,1492,1497,1189,1490,1933,1933,1065,1153,1065,1057,1542,1542,1514,1514,1514,1514,998,998,18,0,0,4
38227009,38227009,40,0,0,0,1438,1490,1184,1449,1933,1933,1065,1153,1065,1057,1542,1542,1514,1514,1514,1514,998,998,18,0,0,4
38724195,38724195,40,0,0,0,1444,1496,1206,1443,1933,1933,1065,1153,1065,1057,1542,1542,1514,1514,1514,1514,998,998,18,0,0,4
39222258,39222258,40,0,0,0,1466,1495,1213,1437,1933,1933,1065,1153,1065,1057,1542,1542,1514,1514,1514,1514,998,998,18,0,0,4
39725232,39725232,40,0,0,0,1482,1449,1198,1437,1933,1933,1065,1153,1065,1057,1542,1542,1514,1514,1514,1514,998,998,18,0,0,4
40208963,40208963,40,0,0,0,1475,1497,1187,1426,1933,1933,1065,1153,1065,1057,1542,1542,1514,1514,1514,1514,998,998,18,0,0,4
40710552,40710552,40,0,0,0,1487,1472,1183,1424,1933,1933,1065,1153,1065,1057,1542,1542,1514,1514,1514,1514,998,998,18,0,0,4
41225146,41225146,40,0,0,0,1495,1488,1203,1422,1933,1933,1065,1153,1065,1057,1542,1542,1514,1514,1514,1514,998,998,18,0,0,4
41719580,41719580,41,0,0,0,1495,1458,1198,1418,1933,1933,1065,1153,1065,1057,1542,1542,1514,1514,1514,1514,998,998,18,0,0,4
42215593,42215593,41,0,0,0,1496,1458,1193,1413,1933,1933,1065,1153,1065,1057,1542,1542,1514,1514,1514,1514,998,998,18,0,0,4
42717531,42717531,41,0,0,0,1496,1483,1185,1413,1933,1933,1065,1153,1065,1057,1542,1542,1514,1514,1514,1514,998,998,18,0,0,4
43212105,43212105,41,0,0,0,1496,1456,1204,1412,1933,1933,1065,1153,1065,1057,1542,1542,1514,1514,1514,1514,998,998,18,0,0,4
43718112,43718112,41,0,0,0,1495,1457,1209,1417,1933,1933,1065,1153,1065,1057,1542,1542,1514,1514,1514,1514,998,998,18,0,0,4
44212231,44212231,41,0,0,0,1498,1438,1189,1415,1933,1933,1065,1153,1065,1057,1542,1542,1514,1514,1514,1514,998,998,18,0,0,4
44726393,44726393,41,0,0,0,1498,1438,1179,1419,1933,1933,1065,1153,1065,1057,1542,1542,1514,1514,1514,1514,998,998,18,0,0,4
45223373,45223373,41,0,0,0,1507,1477,1203,1412,1933,1933,1065,1153,1065,1057,1542,1542,1514,1514,1514,1514,998,998,18,0,0,4
45722037,45722037,41,0,0,0,1495,1460,1197,1410,1933,1933,1065,1153,1065,1057,1542,1542,1514,1514,1514,1514,998,998,18,0,0,4
46208378,46208378,41,0,0,0,1496,1497,1183,1416,1933,1933,1065,1153,1065,1057,1542,1542,1514,1514,1514,1514,998,998,18,0,0,4
46726679,46726679,41,0,0,0,1496,1497,1202,1412,1933,1933,1065,1153,1065,1057,1542,1542,1514,1514,1514,1514,998,998,18,0,0,4
47221351,47221351,41,0,0,0,1466,1495,1193,1423,1933,1933,1065,1153,1065,1057,1542,1542,1514,1514,1514,1514,998,998,18,0,0,4
47725040,47725040,41,0,0,0,1497,1492,1184,1425,1933,1933,1065,1153,1065,1057,1542,1542,1514,1514,1514,1514,998,998,18,0,0,4
48215824,48215824,41,0,0,0,1469,1497,1195,1425,1933,1933,1065,1153,1065,1057,1542,1542,1514,1514,1514,1514,998,998,18,0,0,4
48711815,48711815,41,0,0,0,1475,1489,1203,1426,1933,1933,1065,1153,1065,1057,1542,1542,1514,1514,1514,1514,998,998,18,0,0,4
49716883,49716883,41,0,0,0,1451,1495,1187,1433,1933,1933,1065,1153,1065,1057,1542,1542,1514,1514,1514,1514,998,998,18,0,0,4
50217563,50217563,41,0,0,0,1496,1450,1194,1435,1933,1933,1065,1153,1065,1057,1542,1542,1514,1514,1514,1514,998,998,18,0,0,4
50714460,50714460,41,0,0,0,1498,1461,1203,1449,1933,1933,1065,1153,1065,1057,1542,1542,1514,1514,1514,1514,998,998,18,0,0,4
51223149,51223149,41,0,0,0,1448,1478,1203,1463,1933,1933,1065,1153,1065,1057,1542,1542,1514,1514,1514,1514,998,998,18,0,0,4
51721682,51721682,41,0,0,0,1489,1435,1181,1477,1933,1933,1065,1153,1065,1057,1542,1542,1514,1514,1514,1514,998,998,18,0,0,4
52208147,52208147,41,0,0,0,1495,1435,1184,1482,1933,1933,1065,1153,1065,1057,1542,1542,1514,1514,1514,1514,998,998,18,0,0,4
52723532,52723532,41,0,0,0,1495,1425,1203,1483,1933,1933,1065,1153,1065,1057,1542,1542,1514,1514,1514,1514,998,998,18,0,0,4
53225966,53225966,41,0,0,0,1496,1440,1204,1483,1933,1933,1065,1153,1065,1057,1542,1542,1514,1514,1514,1514,998,998,18,0,0,4
53724674,53724674,41,0,0,0,1496,1454,1184,1496,1933,1933,1065,1153,1065,1057,1542,1542,1514,1514,1514,1514,998,998,18,0,0,4
54223910,54223910,41,0,0,0,1418,1480,1192,1496,1933,1933,1065,1153,1065,1057,1542,1542,1514,1514,1514,1514,998,998,18,0,0,4
54718663,54718663,41,0,0,0,1477,1440,1208,1493,1933,1933,1065,1153,1065,1057,1542,1542,1514,1514,1514,1514,998,998,18,0,0,4
55221376,55221376,41,0,0,0,1471,1434,1206,1496,1933,1933,1065,1153,1065,1057,1542,1542,1514,1514,1514,1514,998,998,18,0,0,4
55713751,55713751,41,0,0,0,1465,1437,1192,1497,1933,1933,1065,1153,1065,1057,1542,1542,1514,1514,1514,1514,998,998,18,0,0,4
56211242,56211242,41,0,0,0,1498,1425,1186,1497,1933,1933,1065,1153,1065,1057,1542,1542,1514,1514,1514,1514,998,998,18,0,0,4
56712159,56712159,41,0,0,0,1499,1418,1182,1495,1933,1933,1065,1153,1065,1057,1542,1542,1514,1514,1514,1514,998,998,18,0,0,4
57228812,57228812,41,0,0,0,1545,1398,1205,1496,1933,1933,1065,1153,1065,1057,1542,1542,1514,1514,1514,1514,998,998,18,0,0,4
57713792,57713792,41,0,0,0,1567,1495,1193,1510,1933,1933,1065,1153,1065,1057,1542,1542,1514,1514,1514,1514,998,998,18,0,0,4
58210516,58210516,41,0,0,0,1511,1497,1195,1548,1933,1933,1065,1153,1065,1057,1542,1542,1514,1514,1514,1514,998,998,18,0,0,4
58719580,58719580,41,0,0,0,1496,1498,1182,1591,1933,1933,1065,1153,1065,1057,1542,1542,1514,1514,1514,1514,998,998,18,0,0,4
59220645,59220645,41,0,0,0,1495,1482,1232,1579,1933,1933,1065,1153,1065,1057,1542,1542,1514,1514,1514,1514,998,998,18,0,0,4
59714015,59714015,41,0,0,0,1495,1433,1174,1562,1933,1933,1065,1153,1065,1057,1542,1542,1514,1514,1514,1514,998,998,18,0,0,4
60217498,60217498,41,0,0,0,1520,1427,1191,1530,1933,1933,1065,1153,1065,1057,1542,1542,1514,1514,1514,1514,998,998,18,0,0,4
60717250,60717250,41,0,0,0,1526,1444,1182,1511,1933,1933,1065,1153,1065,1057,1542,1542,1514,1514,1514,1514,998,998,18,0,0,4
61218716,61218716,41,0,0,0,1541,1452,1212,1522,1933,1933,1065,1153,1065,1057,1542,1542,1514,1514,1514,1514,998,998,18,0,0,4
61719130,61719130,41,0,0,0,1497,1439,1205,1574,1933,1933,1065,1153,1065,1057,1542,1542,1514,1514,1514,1514,998,998,18,0,0,4
62226364,62226364,41,0,0,0,1528,1444,1190,1553,1933,1933,1065,1153,1065,1057,1542,1542,1514,1514,1514,1514,998,998,18,0,0,4
62714778,62714778,41,0,0,0,1495,1428,1215,1548,1933,1933,1065,1153,1065,1057,1542,1542,1514,1514,1514,1514,998,998,18,0,0,4
63208714,63208714,41,0,0,0,1468,1427,1203,1548,1933,1933,1065,1153,1065,1057,1542,1542,1514,1514,1514,1514,998,998,18,0,0,4
63723697,63723697,41,0,0,0,1437,1458,1200,1552,1933,1933,1065,1153,1065,1057,1542,1542,1514,1514,1514,1514,998,998,18,0,0,4
64221620,64221620,41,0,0,0,1430,1465,1182,1549,1933,1933,1065,1153,1065,1057,1542,1542,1514,1514,1514,1514,998,998,18,0,0,4
64728122,64728122,41,0,0,0,1380,1496,1204,1552,1933,1933,1065,1153,1065,1057,1542,1542,1514,1514,1514,1514,998,998,18,0,0,4
65210054,65210054,41,0,0,0,1497,1463,1184,1560,1933,1933,1065,1153,1065,1057,1542,1542,1514,1514,1514,1514,998,998,18,0,0,4
65711079,65711079,41,0,0,0,1465,1496,1189,1589,1933,1933,1065,1153,1065,1057,1542,1542,1514,1514,1514,1514,998,998,18,0,0,4
66216980,66216980,41,0,0,0,1458,1497,1196,1612,1933,1933,1065,1153,1065,1057,1542,1542,1514,1514,1514,1514,998,998,18,0,0,4
66714223,66714223,41,0,0,0,1481,1496,1204,1614,1933,1933,1065,1153,1065,1057,1542,1542,1514,1514,1514,1514,998,998,18,0,0,4
67215359,67215359,41,0,0,0,1494,1495,1185,1624,1933,1933,1065,1153,1065,1057,1542,1542,1514,1514,1514,1514,998,998,18,0,0,4
67708324,67708324,41,0,0,0,1545,1497,1203,1620,1933,1933,1065,1153,1065,1057,1542,1542,1514,1514,1514,1514,998,998,18,0,0,4
68225253,68225253,41,0,0,0,1557,1503,1203,1624,1933,1933,1065,1153,1065,1057,1542,1542,1514,1514,1514,1514,998,998,18,0,0,4
68708022,68708022,41,0,0,0,1568,1518,1204,1621,1933,1933,1065,1153,1065,1057,1542,1542,1514,1514,1514,1514,998,998,18,0,0,4
69711736,69711736,41,0,0,0,1521,1497,1198,1571,1933,1933,1065,1153,1065,1057,1542,1542,1514,1514,1514,1514,998,998,18,0,0,4
70223412,70223412,41,0,0,0,1605,1494,1183,1558,1933,1933,1065,1153,1065,1057,1542,1542,1514,1514,1514,1514,998,998,18,0,0,4
70721336,70721336,41,0,0,0,1603,1447,1189,1566,1933,1933,1065,1153,1065,1057,1542,1542,1514,1514,1514,1514,998,998,18,0,0,4
71221288,71221288,41,0,0,0,1608,1440,1218,1563,1933,1933,1065,1153,1065,1057,1542,1542,1514,1514,1514,1514,998,998,18,0,0,4
71713415,71713415,41,0,0,0,1495,1410,1225,1500,1933,1933,1065,1153,1065,1057,1542,1542,1514,1514,1514,1514,998,998,18,0,0,4
72209401,72209401,41,0,0,0,1495,1373,1188,1498,1933,1933,1065,1153,1065,1057,1542,1542,1514,1514,1514,1514,998,998,18,0,0,4
72727022,72727022,41,0,0,0,1533,1378,1178,1498,1933,1933,1065,1153,1065,1057,1542,1542,1514,1514,1514,1514,998,998,18,0,0,4
73224669,73224669,41,0,0,0,1574,1342,1195,1498,1933,1933,1065,1153,1065,1057,1542,1542,1514,1514,1514,1514,998,998,18,0,0,4
73721964,73721964,41,0,0,0,1584,1336,1212,1500,1933,1933,1065,1153,1065,1057,1542,1542,1514,1514,1514,1514,998,998,18,0,0,4
74209665,74209665,41,0,0,0,1532,1358,1182,1498,1933,1933,1065,1153,1065,1057,1542,1542,1514,1514,1514,1514,998,998,18,0,0,4
74713560,74713560,41,0,0,0,1458,1412,1178,1498,1933,1933,1065,1153,1065,1057,1542,1542,1514,1514,1514,1514,998,998,18,0,0,4
75228056,75228056,41,0,0,0,1551,1378,1203,1498,1933,1933,1065,1153,1065,1057,1542,1542,1514,1514,1514,1514,998,998,18,0,0,4
75730147,75730147,41,0,0,0,1494,1400,1200,1498,1933,1933,1065,1153,1065,1057,1542,1542,1514,1514,1514,1514,998,998,18,0,0,4
76208174,76208174,41,0,0,0,1450,1476,1178,1498,1933,1933,1065,1153,1065,1057,1542,1542,1514,1514,1514,1514,998,998,18,0,0,4
76723729,76723729,41,0,0,0,1499,1438,1232,1498,1933,1933,1065,1153,1065,1057,1542,1542,1514,1514,1514,1514,998,998,18,0,0,4
77216427,77216427,41,0,0,0,1503,1432,1202,1497,1933,1933,1065,1153,1065,1057,1542,1542,1514,1514,1514,1514,998,998,18,0,0,4
77717544,77717544,41,0,0,0,1496,1463,1187,1497,1933,1933,1065,1153,1065,1057,1542,1542,1514,1514,1514,1514,998,998,18,0,0,4
78219800,78219800,41,0,0,0,1517,1448,1206,1497,1933,1933,1065,1153,1065,1057,1542,1542,1514,1514,1514,1514,998,998,18,0,0,4
78723850,78723850,41,0,0,0,1519,1451,1206,1497,1933,1933,1065,1153,1065,1057,1542,1542,1514,1514,1514,1514,998,998,18,0,0,4
79709130,79709130,41,0,0,0,1537,1425,1204,1498,1933,1933,1065,1153,1065,1057,1542,1542,1514,1514,1514,1514,998,998,18,0,0,4
80222683,80222683,41,0,0,0,1497,1425,1203,1498,1933,1933,1065,1153,1065,1057,1542,1542,1514,1514,1514,1514,998,998,18,0,0,4
80727850,80727850,41,0,0,0,1508,1433,1193,1498,1933,1933,1065,1153,1065,1057,1542,1542,1514,1514,1514,1514,998,998,18,0,0,4
81223340,81223340,41,0,0,0,1501,1426,1217,1498,1933,1933,1065,1153,1065,1057,1542,1542,1514,1514,1514,1514,998,998,18,0,0,4
81725280,81725280,41,0,0,0,1480,1437,1178,1498,1933,1933,1065,1153,1065,1057,1542,1542,1514,1514,1514,1514,998,998,18,0,0,4
82220092,82220092,41,0,0,0,1487,1423,1196,1473,1933,1933,1065,1153,1065,1057,1542,1542,1514,1514,1514,1514,998,998,18,0,0,4
82714414,82714414,41,0,0,0,1441,1435,1211,1470,1933,1933,1065,1153,1065,1057,1542,1542,1514,1514,1514,1514,998,998,18,0,0,4
83214033,83214033,41,0,0,0,1440,1428,1207,1463,1933,1933,1065,1153,1065,1057,1542,1542,1514,1514,1514,1514,998,998,18,0,0,4
83713282,83713282,41,0,0,0,1457,1445,1202,1465,1933,1933,1065,1153,1065,1057,1542,1542,1514,1514,1514,1514,998,998,18,0,0,4
84212329,84212329,41,0,0,0,1496,1428,1198,1472,1933,1933,1065,1153,1065,1057,1542,1542,1514,1514,1514,1514,998,998,18,0,0,4
84711071,84711071,41,0,0,0,1480,1425,1204,1477,1933,1933,1065,1153,1065,1057,1542,1542,1514,1514,1514,1514,998,998,18,0,0,4
85210567,85210567,41,0,0,0,1498,1447,1192,1472,1933,1933,1065,1153,1065,1057,1542,1542,1514,1514,1514,1514,998,998,18,0,0,4
85712806,85712806,41,0,0,0,1510,1438,1194,1476,1933,1933,1065,1153,1065,1057,1542,1542,1514,1514,1514,1514,998,998,18,0,0,4
86215785,86215785,41,0,0,0,1497,1428,1197,1482,1933,1933,1065,1153,1065,1057,1542,1542,1514,1514,1514,1514,998,998,18,0,0,4
86712510,86712510,41,0,0,0,1502,1429,1203,1484,1933,1933,1065,1153,1065,1057,1542,1542,1514,1514,1514,1514,998,998,18,0,0,4
87709903,87709903,41,0,0,0,1446,1447,1203,1468,1933,1933,1065,1153,1065,1057,1542,1542,1514,1514,1514,1514,998,998,18,0,0,4
88211972,88211972,41,0,0,0,1496,1437,1193,1471,1933,1933,1065,1153,1065,1057,1542,1542,1514,1514,1514,1514,998,998,18,0,0,4
88721545,88721545,41,0,0,0,1495,1438,1194,1474,1933,1933,1065,1153,1065,1057,1542,1542,1514,1514,1514,1514,998,998,18,0,0,4
89217828,89217828,41,0,0,0,1482,1433,1215,1478,1933,1933,1065,1153,1065,1057,1542,1542,1514,1514,1514,1514,998,998,18,0,0,4
89730080,89730080,41,0,0,0,1494,1435,1198,1470,1933,1933,1065,1153,1065,1057,1542,1542,1514,1514,1514,1514,998,998,18,0,0,4
90222946,90222946,41,0,0,0,1484,1462,1188,1465,1933,1933,1065,1153,1065,1057,1542,1542,1514,1514,1514,1514,998,998,18,0,0,4
90716217,90716217,41,0,0,0,1462,1483,1189,1459,1933,1933,1065,1153,1065,1057,1542,1542,1514,1514,1514,1514,998,998,18,0,0,4
91221119,91221119,41,0,0,0,1434,1480,1203,1452,1933,1933,1065,1153,1065,1057,1542,1542,1514,1514,1514,1514,998,998,18,0,0,4
91711970,91711970,41,0,0,0,1462,1482,1205,1448,1933,1933,1065,1153,1065,1057,1542,1542,1514,1514,1514,1514,998,998,18,0,0,4
92209834,92209834,41,0,0,0,1452,1474,1210,1443,1933,1933,1065,1153,1065,1057,1542,1542,1514,1514,1514,1514,998,998,18,0,0,4
92710338,92710338,41,0,0,0,1477,1483,1204,1434,1933,1933,1065,1153,1065,1057,1542,1542,1514,1514,1514,1514,998,998,18,0,0,4
93208014,93208014,41,0,0,0,1487,1475,1206,1429,1933,1933,1065,1153,1065,1057,1542,1542,1514,1514,1514,1514,998,998,18,0,0,4
93725211,93725211,41,0,0,0,1495,1450,1206,1426,1933,1933,1065,1153,1065,1057,1542,1542,1514,1514,1514,1514,998,998,18,0,0,4
94213238,94213238,41,0,0,0,1460,1446,1203,1429,1933,1933,1065,1153,1065,1057,1542,1542,1514,1514,1514,1514,998,998,18,0,0,4
94709017,94709017,41,0,0,0,1447,1482,1194,1416,1933,1933,1065,1153,1065,1057,1542,1542,1514,1514,1514,1514,998,998,18,0,0,4
95219943,95219943,41,0,0,0,1497,1424,1197,1415,1933,1933,1065,1153,1065,1057,1542,1542,1514,1514,1514,1514,998,998,18,0,0,4
95721267,95721267,41,0,0,0,1496,1451,1239,1472,1933,1933,1065,1153,1065,1057,1542,1542,1514,1514,1514,1514,998,998,18,0,0,4
96221345,96221345,41,0,0,0,1572,1458,1201,1497,1933,1933,1065,1153,1065,1057,1542,1542,1514,1514,1514,1514,998,998,18,0,0,4
96712108,96712108,41,0,0,0,1537,1468,1212,1492,1933,1933,1065,1153,1065,1057,1542,1542,1514,1514,1514,1514,998,998,18,0,0,4
97214782,97214782,41,0,0,0,1508,1430,1178,1462,1933,1933,1065,1153,1065,1057,1542,1542,1514,1514,1514,1514,998,998,18,0,0,4
97721500,97721500,41,0,0,0,1598,1462,1203,1460,1933,1933,1065,1153,1065,1057,1542,1542,1514,1514,1514,1514,998,998,18,0,0,4
98221131,98221131,41,0,0,0,1623,1382,1205,1483,1933,1933,1065,1153,1065,1057,1542,1542,1514,1514,1514,1514,998,998,18,0,0,4
98719274,98719274,41,0,0,0,1617,1416,1181,1487,1933,1933,1065,1153,1065,1057,1542,1542,1514,1514,1514,1514,998,998,18,0,0,4
99218039,99218039,41,0,0,0,1582,1396,1214,1482,1933,1933,1065,1153,1065,1057,1542,1542,1514,1514,1514,1514,998,998,18,0,0,4
99712898,99712898,41,0,0,0,1597,1381,1215,1489,1933,1933,1065,1153,1065,1057,1542,1542,1514,1514,1514,1514,998,998,18,0,0,4
100227903,100227903,41,0,0,0,1533,1407,1203,1491,1933,1933,1065,1153,1065,1057,1542,1542,1514,1514,1514,1514,998,998,18,0,0,4
100726652,100726652,41,0,0,0,1564,1444,1200,1489,1933,1933,1065,1153,1065,1057,1542,1542,1514,1514,1514,1514,998,998,18,0,0,4
101223694,101223694,41,0,0,0,1541,1430,1192,1494,1933,1933,1065,1153,1065,1057,1542,1542,1514,1514,1514,1514,998,998,18,0,0,4
101726315,101726315,41,0,0,0,1505,1432,1213,1495,1933,1933,1065,1153,1065,1057,1542,1542,1514,1514,1514,1514,998,998,18,0,0,4
102224544,102224544,41,0,0,0,1557,1427,1200,1497,1933,1933,1065,1153,1065,1057,1542,1542,1514,1514,1514,1514,998,998,18,0,0,4
102713559,102713559,41,0,0,0,1550,1422,1203,1497,1933,1933,1065,1153,1065,1057,1542,1542,1514,1514,1514,1514,998,998,18,0,0,4
103214185,103214185,41,0,0,0,1549,1423,1206,1496,1933,1933,1065,1153,1065,1057,1542,1542,1514,1514,1514,1514,998,998,18,0,0,4
103716537,103716537,41,0,0,0,1545,1426,1204,1497,1933,1933,1065,1153,1065,1057,1542,1542,1514,1514,1514,1514,998,998,18,0,0,4
104215688,104215688,41,0,0,0,1550,1438,1216,1497,1933,1933,1065,1153,1065,1057,1542,1542,1514,1514,1514,1514,998,998,18,0,0,4
104716703,104716703,41,0,0,0,1539,1455,1215,1497,1933,1933,1065,1153,1065,1057,1542,1542,1514,1514,1514,1514,998,998,18,0,0,4
105219777,105219777,41,0,0,0,1495,1510,1202,1496,1933,1933,1065,1153,1065,1057,1542,1542,1514,1514,1514,1514,998,998,18,0,0,4
105710151,105710151,41,0,0,0,1518,1498,1190,1497,1933,1933,1065,1153,1065,1057,1542,1542,1514,1514,1514,1514,998,998,18,0,0,4
106207726,106207726,41,0,0,0,1496,1477,1206,1497,1933,1933,1065,1153,1065,1057,1542,1542,1514,1514,1514,1514,998,998,18,0,0,4
106725673,106725673,41,0,0,0,1498,1418,1220,1498,1933,1933,1065,1153,1065,1057,1542,1542,1514,1514,1514,1514,998,998,18,0,0,4
107224360,107224360,41,0,0,0,1515,1415,1188,1498,1933,1933,1065,1153,1065,1057,1542,1542,1514,1514,1514,1514,998,998,18,0,0,4
107725869,107725869,41,0,0,0,1528,1397,1188,1498,1933,1933,1065,1153,1065,1057,1542,1542,1514,1514,1514,1514,998,998,18,0,0,4
108223382,108223382,41,0,0,0,1524,1408,1207,1497,1933,1933,1065,1153,1065,1057,1542,1542,1514,1514,1514,1514,998,998,18,0,0,4
108724339,108724339,41,0,0,0,1535,1417,1209,1497,1933,1933,1065,1153,1065,1057,1542,1542,1514,1514,1514,1514,998,998,18,0,0,4
109224061,109224061,41,0,0,0,1545,1429,1195,1497,1933,1933,1065,1153,1065,1057,1542,1542,1514,1514,1514,1514,998,998,18,0,0,4
109719658,109719658,41,0,0,0,1552,1425,1208,1497,1933,1933,1065,1153,1065,1057,1542,1542,1514,1514,1514,1514,998,998,18,0,0,4
110218205,110218205,41,0,0,0,1555,1426,1183,1498,1933,1933,1065,1153,1065,1057,1542,1542,1514,1514,1514,1514,998,998,18,0,0,4
110715981,110715981,41,0,0,0,1532,1450,1178,1498,1933,1933,1065,1153,1065,1057,1542,1542,1514,1514,1514,1514,998,998,18,0,0,4
111214455,111214455,41,0,0,0,1534,1471,1065,1497,1933,1933,1065,1153,1065,1057,1542,1542,1514,1514,1514,1514,998,998,18,0,0,4
111709111,111709111,41,0,0,0,1517,1493,1065,1065,1933,1933,1065,1153,1065,1057,1542,1542,1514,1514,1514,1514,998,998,18,0,0,4
112211738,112211738,41,0,0,0,1496,1496,1065,1065,1933,1933,1065,1153,1065,1057,1542,1542,1514,1514,1514,1514,998,998,18,0,0,4
112712015,112712015,41,0,0,0,1496,1496,1065,1065,1933,1933,1065,1153,1065,1057,1542,1542,1514,1514,1514,1514,998,998,18,0,0,4
113228846,113228846,41,0,0,0,1495,1497,1065,1065,1933,1933,1065,1153,1065,1057,1542,1542,1514,1514,1514,1514,998,998,18,0,0,4
113708163,113708163,41,0,0,0,1495,1496,1065,1497,1933,1933,1065,1153,1065,1057,1542,1542,1514,1514,1514,1514,998,998,18,0,0,4
