timestamp,timestamp_sample,gyro_device_id,gyro_bias[0],gyro_bias[1],gyro_bias[2],gyro_bias_limit,gyro_bias_variance[0],gyro_bias_variance[1],gyro_bias_variance[2],accel_device_id,accel_bias[0],accel_bias[1],accel_bias[2],accel_bias_limit,accel_bias_variance[0],accel_bias_variance[1],accel_bias_variance[2],mag_device_id,mag_bias[0],mag_bias[1],mag_bias[2],mag_bias_limit,mag_bias_variance[0],mag_bias_variance[1],mag_bias_variance[2],gyro_bias_valid,accel_bias_valid,mag_bias_valid
22078655,22077984,4325386,0.0011869314,0.000935653,0.000103473605,0.34906584,5.0398576e-08,5.04148e-08,1.08960386e-07,4259850,0.0,0.0,0.055363253,0.4,0.0004019075,0.0004019075,2.0127696e-05,396825,0.0,0.0,0.0,0.5,0.0,0.0,0.0,1,1,0
23223382,23222777,4325386,0.001216025,0.0011018446,-0.0003066432,0.34906584,2.9302203e-08,2.930976e-08,9.412655e-08,4259850,-4.999768e-07,-7.4835526e-08,0.056405175,0.4,0.0004015232,0.0004015232,1.355381e-05,396825,0.0,0.0,0.0,0.5,0.0,0.0,0.0,1,1,0
23858591,23858108,4325386,0.001218781,0.0011050436,-0.0013393572,0.34906584,2.9243255e-08,2.9250984e-08,8.626998e-08,4259850,-3.3096854e-05,-7.603887e-07,0.05578838,0.4,0.00040070375,0.00040070378,1.0999859e-05,396825,0.0,0.0,0.0,0.5,0.0,0.0,0.0,1,1,0
24246767,24245636,4325386,0.0012134075,0.0011039282,-0.0020465704,0.34906584,2.8984557e-08,2.8992272e-08,8.1310155e-08,4259850,-0.00016375129,-1.7013288e-05,0.054758947,0.4,0.00039774828,0.00039774852,9.740443e-06,396825,0.0,0.0,0.0,0.5,0.0,0.0,0.0,1,1,0
24764487,24763974,4325386,0.0012193451,0.0011180126,-0.0030591574,0.34906584,2.8943822e-08,2.8951542e-08,7.572472e-08,4259850,-0.00055503764,-0.00011652069,0.054804936,0.4,0.00039817195,0.00039817244,8.354345e-06,396825,0.0,0.0,0.0,0.5,0.0,0.0,0.0,1,1,0
25031416,25029840,4325386,0.0012222882,0.0011359777,-0.0036347893,0.34906584,2.881392e-08,2.8821539e-08,7.3299674e-08,4259850,-0.0013965775,-0.00035700915,0.054221537,0.4,0.00039830702,0.0003983076,7.776143e-06,396825,0.0,0.0,0.0,0.5,0.0,0.0,0.0,1,1,0
25391120,25390457,4325386,0.0012157512,0.001160711,-0.0042367717,0.34906584,2.8471273e-08,2.847851e-08,6.9653446e-08,4259850,-0.0031148386,-0.0009511807,0.054242995,0.4,0.00039587932,0.0003958802,7.128454e-06,396825,0.0,0.0,0.0,0.5,0.0,0.0,0.0,1,1,0
25594145,25593180,4325386,0.0012152147,0.001180629,-0.0045341016,0.34906584,2.833659e-08,2.8343615e-08,6.800784e-08,4259850,-0.004409578,-0.0014217233,0.054166656,0.4,0.00039525944,0.0003952606,6.760044e-06,396825,0.0,0.0,0.0,0.5,0.0,0.0,0.0,1,1,0
25796560,25796026,4325386,0.0012099313,0.0012009832,-0.004837653,0.34906584,2.8097405e-08,2.810415e-08,6.6239664e-08,4259850,-0.006046955,-0.0020459087,0.05431356,0.4,0.0003932285,0.00039322992,6.404059e-06,396825,0.0,0.0,0.0,0.5,0.0,0.0,0.0,1,1,0
26009490,26007741,4325386,0.0011977243,0.0012186379,-0.0052264333,0.34906584,2.7675402e-08,2.7681793e-08,6.3813715e-08,4259850,-0.008077353,-0.0028372272,0.053978693,0.4,0.00038855858,0.00038855989,6.0451734e-06,396825,0.0,0.0,0.0,0.5,0.0,0.0,0.0,1,1,0
26215806,26215047,4325386,0.0011877113,0.0012429956,-0.005641176,0.34906584,2.7289062e-08,2.7295073e-08,6.183175e-08,4259850,-0.010576525,-0.003821336,0.053724155,0.4,0.00038429184,0.00038429294,5.728393e-06,396825,0.0,0.0,0.0,0.5,0.0,0.0,0.0,1,1,0
26423299,26422497,4325386,0.0011913335,0.0012874301,-0.006094024,0.34906584,2.7213616e-08,2.721924e-08,6.0879636e-08,4259850,-0.013699605,-0.0050381315,0.05399679,0.4,0.00038423977,0.00038424035,5.506214e-06,396825,0.0,0.0,0.0,0.5,0.0,0.0,0.0,1,1,0
26626001,26625154,4325386,0.0011706341,0.0013103773,-0.0065298323,0.34906584,2.6569893e-08,2.6574966e-08,5.8603028e-08,4259850,-0.017037272,-0.00635424,0.053206287,0.4,0.00037595094,0.00037595053,5.1965585e-06,396825,0.0,0.0,0.0,0.5,0.0,0.0,0.0,1,1,0
26828565,26828071,4325386,0.0011598078,0.0013477199,-0.006978476,0.34906584,2.6152364e-08,2.6156986e-08,5.7132542e-08,4259850,-0.02092605,-0.007852922,0.052763227,0.4,0.00037057715,0.0003705752,5.0174144e-06,396825,0.0,0.0,0.0,0.5,0.0,0.0,0.0,1,1,0
27040430,27039769,4325386,0.0011442129,0.0013840037,-0.00738282,0.34906584,2.5633693e-08,2.5637757e-08,5.5383968e-08,4259850,-0.025209222,-0.009494572,0.05251775,0.4,0.0003634264,0.0003634221,4.9966834e-06,396825,0.0,0.0,0.0,0.5,0.0,0.0,0.0,1,1,0
27446883,27445368,4325386,0.0011121314,0.0014647536,-0.008051171,0.34906584,2.4612705e-08,2.4615515e-08,5.23518e-08,4259850,-0.034682386,-0.012926076,0.051801458,0.4,0.00034835038,0.00034833947,4.9963683e-06,396825,0.0,0.0,0.0,0.5,0.0,0.0,0.0,1,1,0
27648852,27648169,4325386,0.0010986623,0.0015104528,-0.00836953,0.34906584,2.4163306e-08,2.4165507e-08,5.0985932e-08,4259850,-0.039908115,-0.014732438,0.051758744,0.4,0.00034112477,0.00034111014,5.0114822e-06,396825,0.0,0.0,0.0,0.5,0.0,0.0,0.0,1,1,0
27851622,27850970,4325386,0.0010790402,0.001547832,-0.0086669605,0.34906584,2.3587411e-08,2.3589081e-08,4.953902e-08,4259850,-0.04499347,-0.016386118,0.0512292,0.4,0.00033180913,0.0003317913,4.9997166e-06,396825,0.0,0.0,0.0,0.5,0.0,0.0,0.0,1,1,0
28054388,28053771,4325386,0.001069083,0.0015998718,-0.00902619,0.34906584,2.3241752e-08,2.3242768e-08,4.8450552e-08,4259850,-0.05053752,-0.018087983,0.051252548,0.4,0.00032541165,0.00032539034,5.035274e-06,396825,0.0,0.0,0.0,0.5,0.0,0.0,0.0,1,1,0
28257213,28256570,4325386,0.0010476607,0.0016343216,-0.009281464,0.34906584,2.2667033e-08,2.2667368e-08,4.7030433e-08,4259850,-0.055462226,-0.019412477,0.050657533,0.4,0.00031558803,0.00031556436,5.0178423e-06,396825,0.0,0.0,0.0,0.5,0.0,0.0,0.0,1,1,0
28464927,28464130,4325386,0.0010241615,0.0016617498,-0.009445887,0.34906584,2.2051289e-08,2.2050944e-08,4.5387463e-08,4259850,-0.0600743,-0.020455867,0.05000881,0.4,0.00030500692,0.0003049822,4.9855344e-06,396825,0.0,0.0,0.0,0.5,0.0,0.0,0.0,1,1,0
28672131,28671286,4325386,0.001010097,0.0016998778,-0.009729341,0.34906584,2.1640622e-08,2.16396e-08,4.4158554e-08,4259850,-0.06492852,-0.02139712,0.049559645,0.4,0.00029717697,0.00029715255,4.993136e-06,396825,0.0,0.0,0.0,0.5,0.0,0.0,0.0,1,1,0
28884130,28883045,4325386,0.0009956838,0.0017308404,-0.009966436,0.34906584,2.1199117e-08,2.1197396e-08,4.29797e-08,4259850,-0.06938617,-0.02207357,0.04929511,0.4,0.00028884044,0.00028881824,4.9872447e-06,396825,0.0,0.0,0.0,0.5,0.0,0.0,0.0,1,1,0
29086468,29085844,4325386,0.0009826011,0.0017578234,-0.010263864,0.34906584,2.0779153e-08,2.0776698e-08,4.1701124e-08,4259850,-0.073581986,-0.022428721,0.048557445,0.4,0.0002808002,0.0002807824,4.9795476e-06,396825,0.0,0.0,0.0,0.5,0.0,0.0,0.0,1,1,0
29289389,29288644,4325386,0.0009784152,0.0017968914,-0.010541441,0.34906584,2.055437e-08,2.0551342e-08,4.091054e-08,4259850,-0.07803299,-0.022629468,0.04826004,0.4,0.00027546898,0.00027545675,5.011993e-06,396825,0.0,0.0,0.0,0.5,0.0,0.0,0.0,1,1,0
29496727,29495906,4325386,0.0009652801,0.0018124866,-0.010714757,0.34906584,2.0090816e-08,2.0086869e-08,3.939277e-08,4259850,-0.08103843,-0.022429803,0.047522232,0.4,0.00026701955,0.00026701667,4.979297e-06,396825,0.0,0.0,0.0,0.5,0.0,0.0,0.0,1,1,0
29660335,29658151,4325386,0.00097641454,0.0018331793,-0.010910818,0.34906584,2.0334458e-08,2.0329718e-08,3.9172072e-08,4259850,-0.08197158,-0.022710243,0.047806922,0.4,0.00027003605,0.00027004012,5.035706e-06,396825,0.0,0.0,0.0,0.5,0.0,0.0,0.0,1,1,0
29705471,29703360,4325386,0.00097069464,0.0018564989,-0.010910196,0.34906584,2.0012417e-08,2.0007413e-08,3.917712e-08,4259850,-0.08533818,-0.022311388,0.04768093,0.4,0.00026381257,0.00026382206,5.0358376e-06,396825,0.0,0.0,0.0,0.5,0.0,0.0,0.0,1,1,0
29915695,29915027,4325386,0.00095919904,0.0018639538,-0.010828515,0.34906584,1.9588338e-08,1.9582291e-08,3.890648e-08,4259850,-0.08780895,-0.021512136,0.04708322,0.4,0.00025615777,0.00025618274,4.9989644e-06,396825,0.0,0.0,0.0,0.5,0.0,0.0,0.0,1,1,0
30118326,30117828,4325386,0.00095748133,0.0018863282,-0.010845598,0.34906584,1.9372685e-08,1.9365435e-08,3.899142e-08,4259850,-0.090816,-0.020744521,0.04685016,0.4,0.00025135354,0.000251397,5.007968e-06,396825,0.0,0.0,0.0,0.5,0.0,0.0,0.0,1,1,0
30323196,30320628,4325386,0.00095242256,0.0018995358,-0.0108176805,0.34906584,1.9101808e-08,1.909362e-08,3.8912507e-08,4259850,-0.09312642,-0.019764332,0.046547133,0.4,0.00024591497,0.00024597425,4.995784e-06,396825,0.0,0.0,0.0,0.5,0.0,0.0,0.0,1,1,0
30530609,30528242,4325386,0.00094509346,0.0019053426,-0.010757254,0.34906584,1.8800966e-08,1.879113e-08,3.8716973e-08,4259850,-0.09495458,-0.018599212,0.046031155,0.4,0.00024012756,0.0002402139,4.9688747e-06,396825,0.0,0.0,0.0,0.5,0.0,0.0,0.0,1,1,0
30738360,30735403,4325386,0.0009460039,0.0019261718,-0.010786991,0.34906584,1.8678145e-08,1.8667192e-08,3.884451e-08,4259850,-0.09727307,-0.017489655,0.04604669,0.4,0.00023666119,0.00023676647,4.9830855e-06,396825,0.0,0.0,0.0,0.5,0.0,0.0,0.0,1,1,0
30949334,30947058,4325386,0.0009467763,0.0019447305,-0.0108117545,0.34906584,1.8566766e-08,1.8554243e-08,3.8954603e-08,4259850,-0.099406734,-0.0162805,0.045949914,0.4,0.00023337251,0.00023350406,4.9953387e-06,396825,0.0,0.0,0.0,0.5,0.0,0.0,0.0,1,1,0
31073369,31068784,4325386,0.0009376108,0.0019250012,-0.010705652,0.34906584,1.8400371e-08,1.8386777e-08,3.8587526e-08,4259850,-0.09857023,-0.016111901,0.04528502,0.4,0.0002310995,0.0002312496,4.9471105e-06,396825,0.0,0.0,0.0,0.5,0.0,0.0,0.0,1,1,0
31155366,31154368,4325386,0.00094479515,0.001956292,-0.010803475,0.34906584,1.8418433e-08,1.8404311e-08,3.8950237e-08,4259850,-0.1011251,-0.014911803,0.04563021,0.4,0.00022959117,0.00022974994,4.9926243e-06,396825,0.0,0.0,0.0,0.5,0.0,0.0,0.0,1,1,0
31255927,31253514,4325386,0.0009539139,0.0019745084,-0.010906682,0.34906584,1.8606466e-08,1.859136e-08,3.933415e-08,4259850,-0.102191605,-0.015048921,0.04591744,0.4,0.00023179506,0.00023196968,5.040879e-06,396825,0.0,0.0,0.0,0.5,0.0,0.0,0.0,1,1,0
31364078,31361936,4325386,0.0009492978,0.0019799974,-0.010868899,0.34906584,1.8411228e-08,1.8395326e-08,3.921402e-08,4259850,-0.10345737,-0.013566155,0.045505784,0.4,0.0002275814,0.00022777004,5.02436e-06,396825,0.0,0.0,0.0,0.5,0.0,0.0,0.0,1,1,0
31570157,31569033,4325386,0.0009444103,0.0019845346,-0.01082933,0.34906584,1.8236102e-08,1.8218522e-08,3.909207e-08,4259850,-0.104481794,-0.012040024,0.045162953,0.4,0.00022352445,0.0002237421,5.0067442e-06,396825,0.0,0.0,0.0,0.5,0.0,0.0,0.0,1,1,0
31781593,31780797,4325386,0.0009449157,0.0020001607,-0.010853718,0.34906584,1.8181177e-08,1.8161774e-08,3.920186e-08,4259850,-0.10596621,-0.010528841,0.045097876,0.4,0.00022093355,0.00022118226,5.0186254e-06,396825,0.0,0.0,0.0,0.5,0.0,0.0,0.0,1,1,0
31989784,31988348,4325386,0.0009370396,0.0019980655,-0.010784865,0.34906584,1.7979987e-08,1.7958934e-08,3.897486e-08,4259850,-0.10639591,-0.008876219,0.044652767,0.4,0.00021657438,0.0002168521,4.987336e-06,396825,0.0,0.0,0.0,0.5,0.0,0.0,0.0,1,1,0
32197794,32195504,4325386,0.0009326866,0.0020034167,-0.010759846,0.34906584,1.7860208e-08,1.783743e-08,3.8905632e-08,4259850,-0.10713047,-0.007240528,0.04437807,0.4,0.00021323843,0.0002135463,4.976318e-06,396825,0.0,0.0,0.0,0.5,0.0,0.0,0.0,1,1,0
32412001,32407246,4325386,0.00093446183,0.0020218561,-0.010809459,0.34906584,1.7873136e-08,1.7848485e-08,3.9111086e-08,4259850,-0.10858621,-0.0055880905,0.044286378,0.4,0.0002114427,0.00021178297,5.0001086e-06,396825,0.0,0.0,0.0,0.5,0.0,0.0,0.0,1,1,0
32610541,32610026,4325386,0.0009325381,0.0020342385,-0.010823482,0.34906584,1.782821e-08,1.7802256e-08,3.9181757e-08,4259850,-0.109399624,-0.0038786528,0.044282977,0.4,0.0002089978,0.0002093605,5.0067856e-06,396825,0.0,0.0,0.0,0.5,0.0,0.0,0.0,1,1,0
32815105,32812828,4325386,0.0009316311,0.0020490505,-0.010853989,0.34906584,1.7815829e-08,1.7788079e-08,3.9314685e-08,4259850,-0.11035056,-0.0021215607,0.044244066,0.4,0.00020690518,0.0002073001,5.0212952e-06,396825,0.0,0.0,0.0,0.5,0.0,0.0,0.0,1,1,0
33020806,33020139,4325386,0.000928009,0.0020579742,-0.010857266,0.34906584,1.776142e-08,1.7731983e-08,3.9349526e-08,4259850,-0.111000806,-0.00032834598,0.043992236,0.4,0.00020434456,0.00020477091,5.0233416e-06,396825,0.0,0.0,0.0,0.5,0.0,0.0,0.0,1,1,0
33057662,33056189,4325386,0.000919345,0.0020376323,-0.010740459,0.34906584,1.7592505e-08,1.7562874e-08,3.893911e-08,4259850,-0.109963804,-0.00029275886,0.043485634,0.4,0.00020234569,0.0002027777,4.9744517e-06,396825,0.0,0.0,0.0,0.5,0.0,0.0,0.0,1,1,0
33183051,33182692,4325386,0.0009278857,0.0020553684,-0.010812593,0.34906584,1.7759273e-08,1.772839e-08,3.9246224e-08,4259850,-0.110938855,-0.00022101103,0.043801915,0.4,0.00020409377,0.00020454948,5.0179374e-06,396825,0.0,0.0,0.0,0.5,0.0,0.0,0.0,1,1,0
33228186,33227572,4325386,0.00092717865,0.0020732125,-0.010846773,0.34906584,1.77556e-08,1.7724442e-08,3.9398095e-08,4259850,-0.11167757,0.0016694816,0.043978315,0.4,0.0002023257,0.0002027843,5.0383933e-06,396825,0.0,0.0,0.0,0.5,0.0,0.0,0.0,1,1,0
33332017,33331150,4325386,0.0009190329,0.0020553565,-0.010741567,0.34906584,1.7607396e-08,1.7575534e-08,3.9034347e-08,4259850,-0.1105967,0.0016888294,0.043683875,0.4,0.00020050298,0.00020097775,4.9935134e-06,396825,0.0,0.0,0.0,0.5,0.0,0.0,0.0,1,1,0
33439978,33439265,4325386,0.0009113834,0.0020582508,-0.010703929,0.34906584,1.7490782e-08,1.7458454e-08,3.8919186e-08,4259850,-0.11055888,0.0035943373,0.043456245,0.4,0.00019737612,0.00019785963,4.979504e-06,396825,0.0,0.0,0.0,0.5,0.0,0.0,0.0,1,1,0
33642806,33642060,4325386,0.0009080476,0.0020719974,-0.010724096,0.34906584,1.7478571e-08,1.7444762e-08,3.9014527e-08,4259850,-0.1110351,0.005535664,0.04347455,0.4,0.00019532577,0.00019584011,4.9923788e-06,396825,0.0,0.0,0.0,0.5,0.0,0.0,0.0,1,1,0
33845950,33844861,4325386,0.0009006316,0.0020769574,-0.010699411,0.34906584,1.739714e-08,1.7362561e-08,3.8958756e-08,4259850,-0.11102766,0.0074738967,0.043298762,0.4,0.00019250503,0.0001930373,4.985256e-06,396825,0.0,0.0,0.0,0.5,0.0,0.0,0.0,1,1,0
34032800,34029636,4325386,0.0009087405,0.0020942856,-0.010783656,0.34906584,1.7563954e-08,1.7527277e-08,3.929371e-08,4259850,-0.112037614,0.0075374693,0.04357937,0.4,0.00019411024,0.00019468865,5.0279027e-06,396825,0.0,0.0,0.0,0.5,0.0,0.0,0.0,1,1,0
34048339,34047663,4325386,0.00089899614,0.0020966744,-0.010753217,0.34906584,1.7440476e-08,1.7404492e-08,3.9186666e-08,4259850,-0.111756206,0.009480639,0.04345309,0.4,0.00019107954,0.00019164325,5.0142135e-06,396825,0.0,0.0,0.0,0.5,0.0,0.0,0.0,1,1,0
34251157,34250464,4325386,0.0008893842,0.002099307,-0.010725729,0.34906584,1.7344865e-08,1.7307864e-08,3.9102712e-08,4259850,-0.11155961,0.011425315,0.043257754,0.4,0.00018814823,0.00018873815,5.0033377e-06,396825,0.0,0.0,0.0,0.5,0.0,0.0,0.0,1,1,0
34458459,34457773,4325386,0.0008751903,0.0020933875,-0.010654226,0.34906584,1.7177367e-08,1.713962e-08,3.885317e-08,4259850,-0.11075535,0.013339544,0.043035347,0.4,0.00018445544,0.00018506772,4.9716e-06,396825,0.0,0.0,0.0,0.5,0.0,0.0,0.0,1,1,0
34584883,34584156,4325386,0.00088268716,0.0021111835,-0.010742604,0.34906584,1.7336255e-08,1.7297372e-08,3.918162e-08,4259850,-0.111693285,0.01345332,0.043402743,0.4,0.00018600184,0.00018663977,5.0138447e-06,396825,0.0,0.0,0.0,0.5,0.0,0.0,0.0,1,1,0
34665970,34665218,4325386,0.00087675516,0.0021251217,-0.010778629,0.34906584,1.73267e-08,1.728759e-08,3.9320916e-08,4259850,-0.11206184,0.015507811,0.043487683,0.4,0.00018417103,0.0001848163,5.0319704e-06,396825,0.0,0.0,0.0,0.5,0.0,0.0,0.0,1,1,0
34872918,34872434,4325386,0.000868282,0.0021337927,-0.010776107,0.34906584,1.7286563e-08,1.7246983e-08,3.9362483e-08,4259850,-0.11205414,0.017553393,0.043567523,0.4,0.00018187922,0.00018253975,5.0378344e-06,396825,0.0,0.0,0.0,0.5,0.0,0.0,0.0,1,1,0
35071408,35070809,4325386,0.0008600011,0.0021140964,-0.010673163,0.34906584,1.7142286e-08,1.7101565e-08,3.897855e-08,4259850,-0.11092696,0.017394708,0.043253608,0.4,0.00018012256,0.0001808171,4.9902974e-06,396825,0.0,0.0,0.0,0.5,0.0,0.0,0.0,1,1,0
35080222,35079743,4325386,0.0008507027,0.0021218515,-0.010685233,0.34906584,1.7081845e-08,1.7041838e-08,3.902377e-08,4259850,-0.11093539,0.019424686,0.04328884,0.4,0.00017790668,0.00017858563,4.9959635e-06,396825,0.0,0.0,0.0,0.5,0.0,0.0,0.0,1,1,0
35283636,35282544,4325386,0.0008380307,0.0021217568,-0.01066709,0.34906584,1.6982753e-08,1.6942128e-08,3.8924966e-08,4259850,-0.11056488,0.021383647,0.043172464,0.4,0.00017509251,0.00017579322,4.984805e-06,396825,0.0,0.0,0.0,0.5,0.0,0.0,0.0,1,1,0
35490575,35489807,4325386,0.00082218164,0.0021138906,-0.010614832,0.34906584,1.682771e-08,1.6786618e-08,3.8685254e-08,4259850,-0.109799616,0.023266057,0.042936016,0.4,0.00017173494,0.00017245479,4.95694e-06,396825,0.0,0.0,0.0,0.5,0.0,0.0,0.0,1,1,0
35616498,35616155,4325386,0.00082930294,0.0021327059,-0.010711856,0.34906584,1.6989066e-08,1.6946878e-08,3.9017685e-08,4259850,-0.110731356,0.023474483,0.043382857,0.4,0.00017322929,0.00017397557,5.0006743e-06,396825,0.0,0.0,0.0,0.5,0.0,0.0,0.0,1,1,0
35698794,35697274,4325386,0.0008210225,0.0021445118,-0.010758477,0.34906584,1.6979124e-08,1.693681e-08,3.9153907e-08,4259850,-0.11092244,0.025560033,0.043621786,0.4,0.00017152757,0.00017227944,5.019494e-06,396825,0.0,0.0,0.0,0.5,0.0,0.0,0.0,1,1,0
35900585,35899918,4325386,0.00080353377,0.002132488,-0.010674036,0.34906584,1.6793813e-08,1.6751153e-08,3.8836173e-08,4259850,-0.10977278,0.027336406,0.043478932,0.4,0.00016796975,0.00016873829,4.982588e-06,396825,0.0,0.0,0.0,0.5,0.0,0.0,0.0,1,1,0
36103479,36102864,4325386,0.0007942507,0.0021405064,-0.010698567,0.34906584,1.6776472e-08,1.6733075e-08,3.8903007e-08,4259850,-0.109752886,0.029304631,0.043672577,0.4,0.00016613399,0.00016692566,4.9949012e-06,396825,0.0,0.0,0.0,0.5,0.0,0.0,0.0,1,1,0
36310595,36310033,4325386,0.0007851463,0.002147772,-0.010720172,0.34906584,1.6758687e-08,1.67149e-08,3.8955953e-08,4259850,-0.10970369,0.03120008,0.043833375,0.4,0.00016434367,0.00016514798,5.0067897e-06,396825,0.0,0.0,0.0,0.5,0.0,0.0,0.0,1,1,0
36522657,36521890,4325386,0.00077989243,0.0021635487,-0.010791854,0.34906584,1.681033e-08,1.6765522e-08,3.9159417e-08,4259850,-0.110049024,0.03309758,0.04416346,0.4,0.00016326204,0.00016409252,5.039024e-06,396825,0.0,0.0,0.0,0.5,0.0,0.0,0.0,1,1,0
36662201,36661552,4325386,0.0007727377,0.0021431667,-0.010684322,0.34906584,1.6666775e-08,1.6621367e-08,3.8754987e-08,4259850,-0.10904414,0.032784533,0.043693952,0.4,0.00016170408,0.00016255525,4.991813e-06,396825,0.0,0.0,0.0,0.5,0.0,0.0,0.0,1,1,0
36729998,36729345,4325386,0.0007649492,0.00215004,-0.010710879,0.34906584,1.6641403e-08,1.6596088e-08,3.8837207e-08,4259850,-0.10894813,0.034448452,0.043808945,0.4,0.00016009441,0.00016094028,5.0044405e-06,396825,0.0,0.0,0.0,0.5,0.0,0.0,0.0,1,1,0
36937178,36936576,4325386,0.0007567631,0.0021536883,-0.010706477,0.34906584,1.6605116e-08,1.655892e-08,3.8818822e-08,4259850,-0.1085749,0.035923876,0.043942347,0.4,0.00015828825,0.00015915517,5.008986e-06,396825,0.0,0.0,0.0,0.5,0.0,0.0,0.0,1,1,0
37072300,37071663,4325386,0.00074931973,0.00213235,-0.010600432,0.34906584,1.6454228e-08,1.6407524e-08,3.8388407e-08,4259850,-0.10751992,0.035570048,0.043484036,0.4,0.00015670093,0.00015758551,4.9595847e-06,396825,0.0,0.0,0.0,0.5,0.0,0.0,0.0,1,1,0
37148927,37148276,4325386,0.00074108003,0.0021331792,-0.010601176,0.34906584,1.6395878e-08,1.6349265e-08,3.837313e-08,4259850,-0.107165195,0.036889553,0.04342092,0.4,0.00015489578,0.000155773,4.960014e-06,396825,0.0,0.0,0.0,0.5,0.0,0.0,0.0,1,1,0
37356499,37355824,4325386,0.000739092,0.0021506005,-0.010671505,0.34906584,1.6475997e-08,1.6428018e-08,3.8589178e-08,4259850,-0.107472695,0.038355842,0.04385367,0.4,0.0001543,0.000155203,4.9975233e-06,396825,0.0,0.0,0.0,0.5,0.0,0.0,0.0,1,1,0
37563658,37562986,4325386,0.000730602,0.0021476645,-0.010644905,0.34906584,1.6401982e-08,1.6353095e-08,3.8428347e-08,4259850,-0.10667788,0.03933135,0.04399957,0.4,0.00015231548,0.00015323434,4.987255e-06,396825,0.0,0.0,0.0,0.5,0.0,0.0,0.0,1,1,0
37644770,37644106,4325386,0.00073671894,0.0021652235,-0.01072551,0.34906584,1.6544465e-08,1.6494864e-08,3.871921e-08,4259850,-0.10755361,0.039648328,0.04436679,0.4,0.00015355594,0.00015449036,5.028154e-06,396825,0.0,0.0,0.0,0.5,0.0,0.0,0.0,1,1,0
37775529,37774710,4325386,0.0007264826,0.0021528346,-0.010649884,0.34906584,1.640564e-08,1.6355589e-08,3.8432567e-08,4259850,-0.106558956,0.04037057,0.044095185,0.4,0.00015111407,0.00015205193,4.9994605e-06,396825,0.0,0.0,0.0,0.5,0.0,0.0,0.0,1,1,0
37987001,37986571,4325386,0.00071966485,0.0021486676,-0.010601537,0.34906584,1.6338058e-08,1.6286995e-08,3.8263455e-08,4259850,-0.10583937,0.041104864,0.044209655,0.4,0.00014932333,0.0001502754,4.988679e-06,396825,0.0,0.0,0.0,0.5,0.0,0.0,0.0,1,1,0
38230456,38229888,4325386,0.0007132815,0.0021436128,-0.0105132,0.34906584,1.6267892e-08,1.6215793e-08,3.80313e-08,4259850,-0.10504219,0.041716643,0.044239,0.4,0.0001475526,0.00014851785,4.9748814e-06,396825,0.0,0.0,0.0,0.5,0.0,0.0,0.0,1,1,0
38514345,38513934,4325386,0.0007158215,0.0021596986,-0.010526096,0.34906584,1.6365826e-08,1.631163e-08,3.814821e-08,4259850,-0.10526098,0.042524777,0.044826146,0.4,0.00014730301,0.00014830311,5.0098542e-06,396825,0.0,0.0,0.0,0.5,0.0,0.0,0.0,1,1,0
38597147,38595058,4325386,0.0007295253,0.0021789067,-0.010524914,0.34906584,1.6304869e-08,1.629355e-08,3.8187498e-08,4259850,-0.10424539,0.041790232,0.044969536,0.4,0.0001463145,0.00014700892,5.0245e-06,396825,0.0,0.0,0.0,0.5,0.0,0.0,0.0,1,1,0
38620304,38617549,4325386,0.0007239214,0.0021822168,-0.010485443,0.34906584,1.6234296e-08,1.622619e-08,3.8053454e-08,4259850,-0.10309733,0.041899685,0.04483842,0.4,0.00014571953,0.00014639534,5.010447e-06,396825,0.0,0.0,0.0,0.5,0.0,0.0,0.0,1,1,0
38655678,38653710,4325386,0.0007391204,0.0021826345,-0.010479656,0.34906584,1.6210048e-08,1.6190583e-08,3.8001378e-08,4259850,-0.10311434,0.040542334,0.044858165,0.4,0.00014540454,0.00014617459,5.008963e-06,396825,0.0,0.0,0.0,0.5,0.0,0.0,0.0,1,1,0
38696461,38694080,4325386,0.0007539448,0.0021883694,-0.0104569,0.34906584,1.618548e-08,1.6153821e-08,3.7930757e-08,4259850,-0.102436304,0.039074633,0.044851296,0.4,0.00014506548,0.00014593193,5.003421e-06,396825,0.0,0.0,0.0,0.5,0.0,0.0,0.0,1,1,0
38831599,38829285,4325386,0.00074899517,0.00220871,-0.010481218,0.34906584,1.6207048e-08,1.6149873e-08,3.80239e-08,4259850,-0.10140728,0.039954275,0.04510486,0.4,0.00014423051,0.0001452866,5.02253e-06,396825,0.0,0.0,0.0,0.5,0.0,0.0,0.0,1,1,0
38870094,38865380,4325386,0.00074613217,0.0022028065,-0.010415854,0.34906584,1.611954e-08,1.6056326e-08,3.780373e-08,4259850,-0.100326024,0.039568633,0.044881877,0.4,0.00014336852,0.00014446993,4.9950827e-06,396825,0.0,0.0,0.0,0.5,0.0,0.0,0.0,1,1,0
39173936,39171792,4325386,0.00074567925,0.0022093663,-0.010385796,0.34906584,1.607923e-08,1.5987384e-08,3.7693084e-08,4259850,-0.09915733,0.0395232,0.04491435,0.4,0.00014185396,0.00014317906,4.988353e-06,396825,0.0,0.0,0.0,0.5,0.0,0.0,0.0,1,1,0
39340879,39338858,4325386,0.0007472061,0.0022026175,-0.010325552,0.34906584,1.5979213e-08,1.5877028e-08,3.7478014e-08,4259850,-0.09825488,0.039007388,0.04472813,0.4,0.00014012175,0.00014152277,4.9638043e-06,396825,0.0,0.0,0.0,0.5,0.0,0.0,0.0,1,1,0
39510048,39505289,4325386,0.00074218883,0.0022078329,-0.010370906,0.34906584,1.602167e-08,1.5910054e-08,3.7588936e-08,4259850,-0.09863813,0.039922927,0.045029618,0.4,0.00013970805,0.00014118505,4.982764e-06,396825,0.0,0.0,0.0,0.5,0.0,0.0,0.0,1,1,0
39642915,39640491,4325386,0.0007394224,0.0022413284,-0.010429711,0.34906584,1.613602e-08,1.6016946e-08,3.7875147e-08,4259850,-0.09787716,0.040709015,0.04554172,0.4,0.0001400224,0.00014156323,5.024227e-06,396825,0.0,0.0,0.0,0.5,0.0,0.0,0.0,1,1,0
39680308,39676591,4325386,0.00073860923,0.0022342866,-0.010363957,0.34906584,1.6049825e-08,1.5929402e-08,3.765841e-08,4259850,-0.096959606,0.040159598,0.045278333,0.4,0.00013922362,0.00014077502,4.9968635e-06,396825,0.0,0.0,0.0,0.5,0.0,0.0,0.0,1,1,0
39751170,39748660,4325386,0.0007387297,0.0022399244,-0.01033266,0.34906584,1.602906e-08,1.5905758e-08,3.758542e-08,4259850,-0.09601097,0.039843056,0.04537395,0.4,0.00013895694,0.00014053647,4.989297e-06,396825,0.0,0.0,0.0,0.5,0.0,0.0,0.0,1,1,0
39832304,39829773,4325386,0.0007367263,0.0022512597,-0.010291752,0.34906584,1.5988794e-08,1.5861605e-08,3.7516592e-08,4259850,-0.09464942,0.039642937,0.04531017,0.4,0.00013804896,0.00013965978,4.9830483e-06,396825,0.0,0.0,0.0,0.5,0.0,0.0,0.0,1,1,0
39908675,39906388,4325386,0.0007385327,0.0022646599,-0.01024777,0.34906584,1.5973098e-08,1.5842677e-08,3.7449638e-08,4259850,-0.09319239,0.039059576,0.045232154,0.4,0.00013781634,0.00013946278,4.977437e-06,396825,0.0,0.0,0.0,0.5,0.0,0.0,0.0,1,1,0
40066550,40064156,4325386,0.0007464831,0.002316431,-0.010309639,0.34906584,1.6138081e-08,1.6000552e-08,3.7830898e-08,4259850,-0.09205092,0.03902798,0.045736447,0.4,0.00013864627,0.00014037639,5.0341446e-06,396825,0.0,0.0,0.0,0.5,0.0,0.0,0.0,1,1,0
40138262,40136299,4325386,0.0007428369,0.0023199536,-0.010267726,0.34906584,1.6102017e-08,1.59625e-08,3.772017e-08,4259850,-0.091007076,0.038903072,0.045614917,0.4,0.00013825408,0.00014001354,5.022463e-06,396825,0.0,0.0,0.0,0.5,0.0,0.0,0.0,1,1,0
40165752,40163274,4325386,0.0007432686,0.002323748,-0.010223092,0.34906584,1.6063499e-08,1.5923387e-08,3.7617397e-08,4259850,-0.09003797,0.03844449,0.045513477,0.4,0.00013789053,0.00013966193,5.0108047e-06,396825,0.0,0.0,0.0,0.5,0.0,0.0,0.0,1,1,0
40255954,40253607,4325386,0.00073464523,0.0023392017,-0.010191467,0.34906584,1.6050963e-08,1.5907922e-08,3.760032e-08,4259850,-0.08872715,0.038796727,0.045622565,0.4,0.00013732661,0.00013914237,5.0129706e-06,396825,0.0,0.0,0.0,0.5,0.0,0.0,0.0,1,1,0
40314148,40311996,4325386,0.0007268766,0.0023413321,-0.010125776,0.34906584,1.5987661e-08,1.5844464e-08,3.7430432e-08,4259850,-0.08728089,0.03875752,0.04541711,0.4,0.00013672542,0.00013855814,4.9937416e-06,396825,0.0,0.0,0.0,0.5,0.0,0.0,0.0,1,1,0
40371156,40370581,4325386,0.00073243526,0.0023566638,-0.0101131145,0.34906584,1.6009729e-08,1.5866203e-08,3.746486e-08,4259850,-0.08642139,0.03818965,0.04551672,0.4,0.00013685919,0.00013870913,5.0005647e-06,396825,0.0,0.0,0.0,0.5,0.0,0.0,0.0,1,1,0
40404249,40402127,4325386,0.00074509665,0.0023766656,-0.010110412,0.34906584,1.6052693e-08,1.5909123e-08,3.7552596e-08,4259850,-0.08574203,0.037157174,0.04566885,0.4,0.00013720081,0.00013906801,5.0149997e-06,396825,0.0,0.0,0.0,0.5,0.0,0.0,0.0,1,1,0
40476807,40474505,4325386,0.00075683754,0.0024103299,-0.010140513,0.34906584,1.6137294e-08,1.5993415e-08,3.777151e-08,4259850,-0.08506804,0.036497034,0.046032704,0.4,0.00013756528,0.00013946356,5.048296e-06,396825,0.0,0.0,0.0,0.5,0.0,0.0,0.0,1,1,0
40512373,40510335,4325386,0.0007533523,0.0024020246,-0.010063861,0.34906584,1.6039001e-08,1.5896346e-08,3.7532267e-08,4259850,-0.08400806,0.036034945,0.045771573,0.4,0.00013670162,0.00013859487,5.017726e-06,396825,0.0,0.0,0.0,0.5,0.0,0.0,0.0,1,1,0
40557627,40555630,4325386,0.0007498533,0.0024256138,-0.010071867,0.34906584,1.6101529e-08,1.5960474e-08,3.7660328e-08,4259850,-0.08300018,0.03636432,0.04593393,0.4,0.00013720327,0.00013911449,5.0393046e-06,396825,0.0,0.0,0.0,0.5,0.0,0.0,0.0,1,1,0
40591930,40591410,4325386,0.0007425879,0.0024163045,-0.009994684,0.34906584,1.6002119e-08,1.586293e-08,3.7420737e-08,4259850,-0.08192279,0.03619711,0.045654736,0.4,0.00013633698,0.00013823781,5.008528e-06,396825,0.0,0.0,0.0,0.5,0.0,0.0,0.0,1,1,0
40623101,40618450,4325386,0.0007320874,0.0024117462,-0.0099057015,0.34906584,1.5893917e-08,1.5757259e-08,3.7155683e-08,4259850,-0.08024109,0.036165625,0.045436516,0.4,0.00013539774,0.0001372933,4.9762607e-06,396825,0.0,0.0,0.0,0.5,0.0,0.0,0.0,1,1,0
40683700,40681669,4325386,0.0007383914,0.0024344798,-0.009886243,0.34906584,1.5904531e-08,1.5769839e-08,3.7202e-08,4259850,-0.07919968,0.035436347,0.045555227,0.4,0.000135208,0.00013712156,4.987293e-06,396825,0.0,0.0,0.0,0.5,0.0,0.0,0.0,1,1,0
40722521,40717857,4325386,0.0007417607,0.0024423597,-0.009853391,0.34906584,1.5887256e-08,1.5754855e-08,3.7148407e-08,4259850,-0.0783355,0.034846183,0.045553513,0.4,0.00013503901,0.00013695544,4.98344e-06,396825,0.0,0.0,0.0,0.5,0.0,0.0,0.0,1,1,0
40773839,40771686,4325386,0.0007371425,0.0024529085,-0.009830053,0.34906584,1.5886767e-08,1.5756612e-08,3.71324e-08,4259850,-0.077318355,0.03498722,0.045548785,0.4,0.00013500488,0.00013692623,4.9846467e-06,396825,0.0,0.0,0.0,0.5,0.0,0.0,0.0,1,1,0
40814606,40812239,4325386,0.0007327983,0.002464216,-0.009798376,0.34906584,1.5881264e-08,1.5753889e-08,3.7107814e-08,4259850,-0.07616686,0.035033695,0.04554856,0.4,0.00013494185,0.00013686364,4.9847035e-06,396825,0.0,0.0,0.0,0.5,0.0,0.0,0.0,1,1,0
40862281,40861813,4325386,0.0007261114,0.0024644504,-0.009735929,0.34906584,1.5795411e-08,1.5670338e-08,3.6932136e-08,4259850,-0.07514071,0.03493332,0.045436285,0.4,0.00013399441,0.00013592084,4.964784e-06,396825,0.0,0.0,0.0,0.5,0.0,0.0,0.0,1,1,0
40927017,40925071,4325386,0.0007183073,0.00248116,-0.009718767,0.34906584,1.5813187e-08,1.5691608e-08,3.695327e-08,4259850,-0.07387778,0.035401013,0.045546968,0.4,0.00013411492,0.0001360521,4.9732657e-06,396825,0.0,0.0,0.0,0.5,0.0,0.0,0.0,1,1,0
40954410,40952007,4325386,0.0007105831,0.0024880134,-0.009680636,0.34906584,1.5784561e-08,1.566534e-08,3.687308e-08,4259850,-0.07265783,0.035658356,0.045539454,0.4,0.00013385768,0.00013580026,4.9665123e-06,396825,0.0,0.0,0.0,0.5,0.0,0.0,0.0,1,1,0
41008133,41006133,4325386,0.0007023233,0.0024998838,-0.009658138,0.34906584,1.5786423e-08,1.5669304e-08,3.6861127e-08,4259850,-0.07148433,0.036117245,0.04551433,0.4,0.00013384207,0.00013579418,4.968826e-06,396825,0.0,0.0,0.0,0.5,0.0,0.0,0.0,1,1,0
41066792,41064793,4325386,0.00071063254,0.0025202725,-0.009647374,0.34906584,1.5787348e-08,1.5672718e-08,3.6881904e-08,4259850,-0.07069657,0.035297155,0.04567262,0.4,0.00013368178,0.0001356595,4.9779396e-06,396825,0.0,0.0,0.0,0.5,0.0,0.0,0.0,1,1,0
41102809,41100670,4325386,0.0006946364,0.002511826,-0.009596085,0.34906584,1.5711606e-08,1.559906e-08,3.6688643e-08,4259850,-0.06978914,0.03610025,0.045540627,0.4,0.00013301271,0.00013499489,4.956088e-06,396825,0.0,0.0,0.0,0.5,0.0,0.0,0.0,1,1,0
41191175,41186343,4325386,0.0006882395,0.0025337269,-0.0096192835,0.34906584,1.577657e-08,1.5666245e-08,3.6804636e-08,4259850,-0.06897842,0.03684667,0.04583845,0.4,0.00013349607,0.00013551723,4.980453e-06,396825,0.0,0.0,0.0,0.5,0.0,0.0,0.0,1,1,0
41282888,41280940,4325386,0.00069193804,0.0025636537,-0.009625271,0.34906584,1.5809583e-08,1.5700918e-08,3.688863e-08,4259850,-0.06788136,0.036559187,0.046056353,0.4,0.0001336313,0.00013570106,5.0009444e-06,396825,0.0,0.0,0.0,0.5,0.0,0.0,0.0,1,1,0
41342730,41339527,4325386,0.0006804163,0.0025730773,-0.009621648,0.34906584,1.581994e-08,1.5712452e-08,3.688381e-08,4259850,-0.0670543,0.037475936,0.04605846,0.4,0.00013366962,0.00013576838,5.0074136e-06,396825,0.0,0.0,0.0,0.5,0.0,0.0,0.0,1,1,0
41432347,41429662,4325386,0.00067210966,0.002569232,-0.009564682,0.34906584,1.5740845e-08,1.5634717e-08,3.665618e-08,4259850,-0.06597074,0.03761139,0.04582218,0.4,0.0001329202,0.00013505181,4.9862842e-06,396825,0.0,0.0,0.0,0.5,0.0,0.0,0.0,1,1,0
41526443,41524347,4325386,0.00065770815,0.002577625,-0.009552465,0.34906584,1.5712406e-08,1.5606597e-08,3.6582204e-08,4259850,-0.065333866,0.03865704,0.04591952,0.4,0.00013256674,0.00013476828,4.989241e-06,396825,0.0,0.0,0.0,0.5,0.0,0.0,0.0,1,1,0
41616875,41614483,4325386,0.00064609945,0.002597309,-0.009573552,0.34906584,1.5769677e-08,1.5663101e-08,3.6666748e-08,4259850,-0.064419016,0.039847367,0.046105396,0.4,0.00013295886,0.00013522018,5.011234e-06,396825,0.0,0.0,0.0,0.5,0.0,0.0,0.0,1,1,0
41774680,41772388,4325386,0.000631445,0.002605252,-0.009563096,0.34906584,1.573722e-08,1.562819e-08,3.6550713e-08,4259850,-0.0638733,0.040958583,0.046178352,0.4,0.00013256322,0.00013493642,5.0152644e-06,396825,0.0,0.0,0.0,0.5,0.0,0.0,0.0,1,1,0
41841945,41839819,4325386,0.0006153044,0.002602754,-0.009527054,0.34906584,1.5695322e-08,1.5584614e-08,3.6408167e-08,4259850,-0.06297014,0.0419835,0.04613861,0.4,0.00013212951,0.00013454143,5.004599e-06,396825,0.0,0.0,0.0,0.5,0.0,0.0,0.0,1,1,0
41905009,41902868,4325386,0.00060057174,0.002593748,-0.009448037,0.34906584,1.5554491e-08,1.5441902e-08,3.608351e-08,4259850,-0.061931524,0.042465515,0.04585314,0.4,0.00013095797,0.00013342661,4.972236e-06,396825,0.0,0.0,0.0,0.5,0.0,0.0,0.0,1,1,0
42043069,42042622,4325386,0.00060417666,0.0026393998,-0.009557003,0.34906584,1.5762806e-08,1.5643513e-08,3.648047e-08,4259850,-0.06178142,0.043244686,0.046538237,0.4,0.00013254935,0.00013512657,5.0421945e-06,396825,0.0,0.0,0.0,0.5,0.0,0.0,0.0,1,1,0
42181272,42177987,4325386,0.00059055194,0.002646879,-0.009507647,0.34906584,1.5682522e-08,1.5555472e-08,3.6241865e-08,4259850,-0.060534783,0.043960173,0.046511963,0.4,0.00013186786,0.00013455462,5.033029e-06,396825,0.0,0.0,0.0,0.5,0.0,0.0,0.0,1,1,0
42247913,42245430,4325386,0.00058882235,0.0026509725,-0.009467611,0.34906584,1.564214e-08,1.551117e-08,3.6091507e-08,4259850,-0.059503004,0.04373017,0.04635073,0.4,0.00013144033,0.00013416297,5.022387e-06,396825,0.0,0.0,0.0,0.5,0.0,0.0,0.0,1,1,0
42297491,42294954,4325386,0.00057386875,0.0026309888,-0.009367104,0.34906584,1.5453004e-08,1.5319895e-08,3.5678063e-08,4259850,-0.05863688,0.04406392,0.04584689,0.4,0.00013000914,0.00013276414,4.9758273e-06,396825,0.0,0.0,0.0,0.5,0.0,0.0,0.0,1,1,0
42343250,42340213,4325386,0.0005703304,0.0026402674,-0.009423924,0.34906584,1.5537122e-08,1.5399968e-08,3.5831054e-08,4259850,-0.059234597,0.044953234,0.04611755,0.4,0.00013065223,0.00013345224,5.004254e-06,396825,0.0,0.0,0.0,0.5,0.0,0.0,0.0,1,1,0
42409701,42407623,4325386,0.00056015793,0.0026452318,-0.009419386,0.34906584,1.5549737e-08,1.5407302e-08,3.579929e-08,4259850,-0.058749706,0.04584322,0.046215262,0.4,0.0001306739,0.00013352119,5.0107396e-06,396825,0.0,0.0,0.0,0.5,0.0,0.0,0.0,1,1,0
42459407,42457196,4325386,0.0005534745,0.0026540468,-0.009455203,0.34906584,1.5614042e-08,1.5467107e-08,3.5903316e-08,4259850,-0.058911912,0.04683098,0.04642326,0.4,0.00013114675,0.00013403723,5.032704e-06,396825,0.0,0.0,0.0,0.5,0.0,0.0,0.0,1,1,0
42495645,42493295,4325386,0.0005498948,0.002648073,-0.0093834605,0.34906584,1.55225e-08,1.5372297e-08,3.5649474e-08,4259850,-0.057763774,0.04644585,0.046190597,0.4,0.00013031813,0.00013322341,5.0047142e-06,396825,0.0,0.0,0.0,0.5,0.0,0.0,0.0,1,1,0
42540664,42538362,4325386,0.0005585137,0.002662871,-0.009370982,0.34906584,1.54738e-08,1.5321248e-08,3.5585096e-08,4259850,-0.05717466,0.045565642,0.046191867,0.4,0.0001301461,0.0001330961,5.003762e-06,396825,0.0,0.0,0.0,0.5,0.0,0.0,0.0,1,1,0
42689162,42687155,4325386,0.00055399106,0.0026780982,-0.00935192,0.34906584,1.5482595e-08,1.5313182e-08,3.544112e-08,4259850,-0.056024093,0.045878824,0.046298612,0.4,0.00012999085,0.00013305696,5.0108843e-06,396825,0.0,0.0,0.0,0.5,0.0,0.0,0.0,1,1,0
42788335,42786235,4325386,0.0005426519,0.002678047,-0.00928616,0.34906584,1.5366664e-08,1.5186806e-08,3.5156596e-08,4259850,-0.054931905,0.046337705,0.04608797,0.4,0.00012920724,0.0001323567,4.991373e-06,396825,0.0,0.0,0.0,0.5,0.0,0.0,0.0,1,1,0
42860476,42858296,4325386,0.00054989377,0.0026996124,-0.009278436,0.34906584,1.539105e-08,1.5201966e-08,3.5133144e-08,4259850,-0.053822886,0.045634016,0.046202894,0.4,0.00012929978,0.00013250676,5.000516e-06,396825,0.0,0.0,0.0,0.5,0.0,0.0,0.0,1,1,0
42933336,42930513,4325386,0.000541722,0.0027095515,-0.009227553,0.34906584,1.5309384e-08,1.5114708e-08,3.4985128e-08,4259850,-0.052554715,0.045955833,0.04608901,0.4,0.00012891446,0.00013218039,4.992491e-06,396825,0.0,0.0,0.0,0.5,0.0,0.0,0.0,1,1,0
43049785,43047819,4325386,0.00052755437,0.0027059414,-0.0091883745,0.34906584,1.528317e-08,1.5069025e-08,3.4761054e-08,4259850,-0.051953755,0.047024637,0.046043675,0.4,0.00012847297,0.00013184875,4.9863424e-06,396825,0.0,0.0,0.0,0.5,0.0,0.0,0.0,1,1,0
43108306,43106166,4325386,0.0005262137,0.002709405,-0.009127604,0.34906584,1.522537e-08,1.5001222e-08,3.45453e-08,4259850,-0.050666466,0.04659232,0.04585239,0.4,0.00012787226,0.00013129583,4.968472e-06,396825,0.0,0.0,0.0,0.5,0.0,0.0,0.0,1,1,0
43167187,43164754,4325386,0.0005320509,0.0027380744,-0.009121508,0.34906584,1.519796e-08,1.4966266e-08,3.4533258e-08,4259850,-0.049477376,0.046028957,0.046025712,0.4,0.00012800176,0.00013150215,4.980572e-06,396825,0.0,0.0,0.0,0.5,0.0,0.0,0.0,1,1,0
43266288,43263909,4325386,0.0005319237,0.0027766393,-0.009158837,0.34906584,1.5337113e-08,1.508642e-08,3.4726806e-08,4259850,-0.048559092,0.04663679,0.046422817,0.4,0.00012898934,0.00013261022,5.0263266e-06,396825,0.0,0.0,0.0,0.5,0.0,0.0,0.0,1,1,0
43329285,43327041,4325386,0.00053404586,0.0027836848,-0.0091152135,0.34906584,1.5218706e-08,1.4960793e-08,3.4524767e-08,4259850,-0.04765754,0.046015907,0.04632744,0.4,0.00012840869,0.00013208955,5.0114604e-06,396825,0.0,0.0,0.0,0.5,0.0,0.0,0.0,1,1,0
43365489,43363050,4325386,0.00053655414,0.002797709,-0.009069938,0.34906584,1.5201586e-08,1.4934475e-08,3.442356e-08,4259850,-0.04626999,0.045397237,0.04627127,0.4,0.00012817499,0.00013189948,5.005951e-06,396825,0.0,0.0,0.0,0.5,0.0,0.0,0.0,1,1,0
43442523,43439712,4325386,0.0005361585,0.0028067227,-0.009010722,0.34906584,1.5173626e-08,1.4891863e-08,3.4263074e-08,4259850,-0.04498946,0.045012716,0.046116475,0.4,0.00012779237,0.00013158441,4.9963865e-06,396825,0.0,0.0,0.0,0.5,0.0,0.0,0.0,1,1,0
43502951,43498349,4325386,0.0005387915,0.0028236152,-0.008985138,0.34906584,1.5191006e-08,1.4893196e-08,3.420494e-08,4259850,-0.04396487,0.04464851,0.04627348,0.4,0.00012779825,0.00013166889,5.001904e-06,396825,0.0,0.0,0.0,0.5,0.0,0.0,0.0,1,1,0
43537269,43534537,4325386,0.00054124626,0.002831137,-0.008911044,0.34906584,1.5029425e-08,1.4729829e-08,3.3955335e-08,4259850,-0.042395208,0.043620918,0.045999113,0.4,0.00012694712,0.00013084219,4.975369e-06,396825,0.0,0.0,0.0,0.5,0.0,0.0,0.0,1,1,0
43602259,43597446,4325386,0.0005383918,0.0028532674,-0.008867025,0.34906584,1.5065234e-08,1.474894e-08,3.3937763e-08,4259850,-0.04087978,0.043734696,0.04607979,0.4,0.00012710699,0.00013108662,4.986679e-06,396825,0.0,0.0,0.0,0.5,0.0,0.0,0.0,1,1,0
43673664,43669508,4325386,0.00053833117,0.002873489,-0.008834633,0.34906584,1.5095543e-08,1.4762189e-08,3.3904364e-08,4259850,-0.039615404,0.0436153,0.046246253,0.4,0.00012720982,0.00013127258,4.995717e-06,396825,0.0,0.0,0.0,0.5,0.0,0.0,0.0,1,1,0
43713688,43710117,4325386,0.0005386268,0.0028953815,-0.008777237,0.34906584,1.509628e-08,1.475171e-08,3.3839253e-08,4259850,-0.03774655,0.043158296,0.046207033,0.4,0.00012711772,0.00013123361,4.9953896e-06,396825,0.0,0.0,0.0,0.5,0.0,0.0,0.0,1,1,0
43742200,43741710,4325386,0.0005388829,0.0029074547,-0.008741581,0.34906584,1.4985178e-08,1.4644355e-08,3.3756578e-08,4259850,-0.03663683,0.04274275,0.04614423,0.4,0.0001267803,0.00013090216,4.988578e-06,396825,0.0,0.0,0.0,0.5,0.0,0.0,0.0,1,1,0
43802367,43800355,4325386,0.0005350642,0.0029290207,-0.008685219,0.34906584,1.5011365e-08,1.4653015e-08,3.3714382e-08,4259850,-0.034985512,0.042861585,0.046153855,0.4,0.00012685245,0.00013106203,4.9962905e-06,396825,0.0,0.0,0.0,0.5,0.0,0.0,0.0,1,1,0
43843423,43840809,4325386,0.0005278992,0.0029263478,-0.008580779,0.34906584,1.4935528e-08,1.45675045e-08,3.347634e-08,4259850,-0.033460863,0.042744007,0.045918703,0.4,0.00012611093,0.00013035402,4.9703253e-06,396825,0.0,0.0,0.0,0.5,0.0,0.0,0.0,1,1,0
43883420,43881470,4325386,0.0005279829,0.0029523633,-0.008572363,0.34906584,1.5002586e-08,1.462121e-08,3.3558862e-08,4259850,-0.032374505,0.042858005,0.04606431,0.4,0.00012657493,0.00013089334,4.991861e-06,396825,0.0,0.0,0.0,0.5,0.0,0.0,0.0,1,1,0
43922268,43917379,4325386,0.00052227493,0.0029459565,-0.008487666,0.34906584,1.492668e-08,1.4535408e-08,3.3321662e-08,4259850,-0.031300243,0.042712566,0.045743704,0.4,0.00012583159,0.00013018558,4.96578e-06,396825,0.0,0.0,0.0,0.5,0.0,0.0,0.0,1,1,0
43965182,43962585,4325386,0.00052111316,0.002976207,-0.0084747,0.34906584,1.4896349e-08,1.4502063e-08,3.341288e-08,4259850,-0.030038772,0.04290568,0.045934804,0.4,0.0001261741,0.00013058509,4.9893965e-06,396825,0.0,0.0,0.0,0.5,0.0,0.0,0.0,1,1,0
44027915,44025585,4325386,0.00051817106,0.0029957928,-0.008430194,0.34906584,1.4936733e-08,1.452309e-08,3.340147e-08,4259850,-0.028785158,0.043105364,0.046063006,0.4,0.0001263564,0.00013087099,5.0014846e-06,396825,0.0,0.0,0.0,0.5,0.0,0.0,0.0,1,1,0
44077120,44075114,4325386,0.00051886175,0.0030243893,-0.008418478,0.34906584,1.5008242e-08,1.45801335e-08,3.349167e-08,4259850,-0.027536776,0.04312678,0.046206504,0.4,0.0001268445,0.00013144307,5.024088e-06,396825,0.0,0.0,0.0,0.5,0.0,0.0,0.0,1,1,0
44117872,44115721,4325386,0.000515258,0.0030281309,-0.008324622,0.34906584,1.4940902e-08,1.4502054e-08,3.3272972e-08,4259850,-0.025818208,0.042647935,0.04596323,0.4,0.00012616641,0.00013080788,5.000508e-06,396825,0.0,0.0,0.0,0.5,0.0,0.0,0.0,1,1,0
44158199,44156236,4325386,0.00051601866,0.0030611637,-0.008301478,0.34906584,1.4876304e-08,1.4436365e-08,3.331557e-08,4259850,-0.02408935,0.042401124,0.046085224,0.4,0.00012627203,0.00013095664,5.017249e-06,396825,0.0,0.0,0.0,0.5,0.0,0.0,0.0,1,1,0
44201656,44196797,4325386,0.00051659846,0.0030796102,-0.008261855,0.34906584,1.4875869e-08,1.4423269e-08,3.3246188e-08,4259850,-0.022592772,0.041948464,0.046035748,0.4,0.00012615859,0.00013090759,5.0159842e-06,396825,0.0,0.0,0.0,0.5,0.0,0.0,0.0,1,1,0
44291430,44287059,4325386,0.00051498046,0.00310621,-0.008171446,0.34906584,1.4881121e-08,1.44024215e-08,3.3118994e-08,4259850,-0.02017819,0.04148136,0.046075758,0.4,0.00012597167,0.00013085494,5.0150534e-06,396825,0.0,0.0,0.0,0.5,0.0,0.0,0.0,1,1,0
44325448,44322988,4325386,0.00051155465,0.00310567,-0.008073441,0.34906584,1.48038515e-08,1.4314634e-08,3.2878688e-08,4259850,-0.018632501,0.040952377,0.045874946,0.4,0.00012520661,0.00013013073,4.98782e-06,396825,0.0,0.0,0.0,0.5,0.0,0.0,0.0,1,1,0
44384030,44381578,4325386,0.0005083379,0.003120834,-0.008010245,0.34906584,1.4699103e-08,1.4205339e-08,3.2828385e-08,4259850,-0.017486062,0.041082513,0.045895692,0.4,0.00012495957,0.00012993951,4.995144e-06,396825,0.0,0.0,0.0,0.5,0.0,0.0,0.0,1,1,0
44433762,44431200,4325386,0.00051006034,0.00315083,-0.00800395,0.34906584,1.4782099e-08,1.4272503e-08,3.2943458e-08,4259850,-0.016363587,0.041084394,0.046065386,0.4,0.00012554436,0.00013061977,5.021746e-06,396825,0.0,0.0,0.0,0.5,0.0,0.0,0.0,1,1,0
44451267,44449311,4325386,0.0005114825,0.0031695152,-0.0079999855,0.34906584,1.4807831e-08,1.4290737e-08,3.2966383e-08,4259850,-0.01537439,0.0408105,0.046117358,0.4,0.00012570627,0.00013082506,5.029832e-06,396825,0.0,0.0,0.0,0.5,0.0,0.0,0.0,1,1,0
44502328,44498797,4325386,0.000511019,0.0031833753,-0.007948923,0.34906584,1.4811283e-08,1.4280841e-08,3.2903362e-08,4259850,-0.014102016,0.040513493,0.04613975,0.4,0.00012561407,0.00013080236,5.0293784e-06,396825,0.0,0.0,0.0,0.5,0.0,0.0,0.0,1,1,0
44510751,44507953,4325386,0.00050941115,0.003184918,-0.007892949,0.34906584,1.4762962e-08,1.4227649e-08,3.276291e-08,4259850,-0.013037054,0.040092435,0.045999788,0.4,0.00012515695,0.00013036234,5.012684e-06,396825,0.0,0.0,0.0,0.5,0.0,0.0,0.0,1,1,0
44604881,44602407,4325386,0.00050857844,0.0032070163,-0.007836551,0.34906584,1.4680472e-08,1.4134942e-08,3.275556e-08,4259850,-0.011895303,0.040177178,0.046156388,0.4,0.00012506824,0.00013036362,5.031399e-06,396825,0.0,0.0,0.0,0.5,0.0,0.0,0.0,1,1,0
44654397,44651978,4325386,0.00050589145,0.003205772,-0.007752003,0.34906584,1.4621463e-08,1.4065007e-08,3.2553004e-08,4259850,-0.010680552,0.03973755,0.045928355,0.4,0.00012444414,0.0001297879,5.0095096e-06,396825,0.0,0.0,0.0,0.5,0.0,0.0,0.0,1,1,0
44694952,44692664,4325386,0.0005071716,0.003232256,-0.007711318,0.34906584,1.4682977e-08,1.4110949e-08,3.2620257e-08,4259850,-0.009346532,0.039605867,0.046075393,0.4,0.00012485424,0.00013029148,5.029254e-06,396825,0.0,0.0,0.0,0.5,0.0,0.0,0.0,1,1,0
44732382,44728850,4325386,0.00050374295,0.0032242902,-0.0076049156,0.34906584,1.4607012e-08,1.4024772e-08,3.2382243e-08,4259850,-0.008283343,0.039202616,0.045797717,0.4,0.00012409524,0.00012957583,5.00191e-06,396825,0.0,0.0,0.0,0.5,0.0,0.0,0.0,1,1,0
44800677,44796234,4325386,0.00050157186,0.0032375148,-0.007527559,0.34906584,1.447016e-08,1.3888978e-08,3.2323086e-08,4259850,-0.007182171,0.039208066,0.045800425,0.4,0.0001236406,0.00012914576,5.008392e-06,396825,0.0,0.0,0.0,0.5,0.0,0.0,0.0,1,1,0
44848983,44845769,4325386,0.0005024959,0.0032672617,-0.0074966964,0.34906584,1.4536347e-08,1.393963e-08,3.2399836e-08,4259850,-0.0057258075,0.03908269,0.045934398,0.4,0.00012408457,0.00012968744,5.0296157e-06,396825,0.0,0.0,0.0,0.5,0.0,0.0,0.0,1,1,0
44895869,44895341,4325386,0.00049760763,0.0032480333,-0.0073866774,0.34906584,1.4418586e-08,1.3813946e-08,3.2066914e-08,4259850,-0.0048679407,0.03860524,0.04555856,0.4,0.00012295884,0.00012858876,4.9872056e-06,396825,0.0,0.0,0.0,0.5,0.0,0.0,0.0,1,1,0
44971803,44967449,4325386,0.0004954272,0.0032696235,-0.007270488,0.34906584,1.4288089e-08,1.3680159e-08,3.2017997e-08,4259850,-0.003250625,0.038598895,0.04564038,0.4,0.00012252494,0.0001282069,5.0003714e-06,396825,0.0,0.0,0.0,0.5,0.0,0.0,0.0,1,1,0
45011715,45008010,4325386,0.0004933598,0.0032881477,-0.0072185365,0.34906584,1.4289899e-08,1.3669421e-08,3.1953068e-08,4259850,-0.0016632511,0.03831343,0.04556642,0.4,0.00012242912,0.0001281856,4.999693e-06,396825,0.0,0.0,0.0,0.5,0.0,0.0,0.0,1,1,0
45060088,45057588,4325386,0.00048923306,0.0032875307,-0.0071369815,0.34906584,1.422527e-08,1.3595189e-08,3.173821e-08,4259850,-0.00035767647,0.03790862,0.04527851,0.4,0.000121755635,0.0001275603,4.9754417e-06,396825,0.0,0.0,0.0,0.5,0.0,0.0,0.0,1,1,0
45136554,45134440,4325386,0.0004896081,0.003296459,-0.0069904784,0.34906584,1.4228203e-08,1.3573063e-08,3.1607506e-08,4259850,0.00093470706,0.037573393,0.045326486,0.4,0.000121557205,0.00012751586,4.973915e-06,396825,0.0,0.0,0.0,0.5,0.0,0.0,0.0,1,1,0
45181558,45179366,4325386,0.00048773846,0.0033248786,-0.006940716,0.34906584,1.4103866e-08,1.3460659e-08,3.1669995e-08,4259850,0.0023786428,0.037631772,0.04553698,0.4,0.000121288795,0.00012721222,4.995253e-06,396825,0.0,0.0,0.0,0.5,0.0,0.0,0.0,1,1,0
45253757,45251374,4325386,0.00048957265,0.003341448,-0.006839083,0.34906584,1.4137386e-08,1.347448e-08,3.1640663e-08,4259850,0.0035307156,0.037345123,0.045625303,0.4,0.00012140127,0.0001274559,5.004929e-06,396825,0.0,0.0,0.0,0.5,0.0,0.0,0.0,1,1,0
45291130,45287475,4325386,0.00048721003,0.0033421612,-0.0066997777,0.34906584,1.4077212e-08,1.3405076e-08,3.1437445e-08,4259850,0.005105144,0.03676433,0.045388546,0.4,0.00012077353,0.00012688167,4.982451e-06,396825,0.0,0.0,0.0,0.5,0.0,0.0,0.0,1,1,0
45312505,45310007,4325386,0.00048699437,0.003359775,-0.006662405,0.34906584,1.4103074e-08,1.3423667e-08,3.146099e-08,4259850,0.006177243,0.03660685,0.04545282,0.4,0.00012093963,0.00012709927,4.991018e-06,396825,0.0,0.0,0.0,0.5,0.0,0.0,0.0,1,1,0
45350727,45346016,4325386,0.00048542648,0.0033764634,-0.006555714,0.34906584,1.4093454e-08,1.34025795e-08,3.1371254e-08,4259850,0.008006286,0.03614406,0.045420926,0.4,0.00012074654,0.00012698224,4.9864866e-06,396825,0.0,0.0,0.0,0.5,0.0,0.0,0.0,1,1,0
45424705,45422727,4325386,0.00048096923,0.003382484,-0.006428893,0.34906584,1.3874627e-08,1.3197687e-08,3.122134e-08,4259850,0.009262374,0.03602431,0.045338225,0.4,0.0001196139,0.00012579336,4.9793994e-06,396825,0.0,0.0,0.0,0.5,0.0,0.0,0.0,1,1,0
45460956,45458924,4325386,0.00048071257,0.0034129194,-0.006363346,0.34906584,1.3935021e-08,1.3243928e-08,3.1288092e-08,4259850,0.010860177,0.035936,0.045465123,0.4,0.00012002672,0.0001263131,5.000013e-06,396825,0.0,0.0,0.0,0.5,0.0,0.0,0.0,1,1,0
45483980,45481389,4325386,0.00047645994,0.0034184374,-0.0062976195,0.34906584,1.3900805e-08,1.3205902e-08,3.117675e-08,4259850,0.012103469,0.035735402,0.04534515,0.4,0.000119678596,0.00012598958,4.9872324e-06,396825,0.0,0.0,0.0,0.5,0.0,0.0,0.0,1,1,0
45519498,45517274,4325386,0.00047281387,0.0034108136,-0.006165036,0.34906584,1.38311345e-08,1.3128807e-08,3.0951846e-08,4259850,0.013138323,0.035390344,0.045110665,0.4,0.000118972064,0.0001253326,4.9612386e-06,396825,0.0,0.0,0.0,0.5,0.0,0.0,0.0,1,1,0
45578781,45575861,4325386,0.00047214946,0.003428442,-0.006009305,0.34906584,1.3859492e-08,1.3139685e-08,3.0912584e-08,4259850,0.014616873,0.0353062,0.04520325,0.4,0.000119056574,0.00012555381,4.9700284e-06,396825,0.0,0.0,0.0,0.5,0.0,0.0,0.0,1,1,0
45623481,45621155,4325386,0.00046741948,0.0034518817,-0.005935027,0.34906584,1.3718705e-08,1.3018401e-08,3.1005865e-08,4259850,0.015549181,0.03593815,0.045452856,0.4,0.000118651675,0.00012506575,4.9975333e-06,396825,0.0,0.0,0.0,0.5,0.0,0.0,0.0,1,1,0
45679372,45675008,4325386,0.00046190093,0.0034874303,-0.005852411,0.34906584,1.3783724e-08,1.3070111e-08,3.108202e-08,4259850,0.017601833,0.03626897,0.045664612,0.4,0.000119100805,0.00012562817,5.0200456e-06,396825,0.0,0.0,0.0,0.5,0.0,0.0,0.0,1,1,0
45740303,45738150,4325386,0.00045723777,0.0035013168,-0.005719823,0.34906584,1.3799116e-08,1.30699105e-08,3.101255e-08,4259850,0.018984161,0.036521375,0.04568908,0.4,0.00011907709,0.00012573945,5.0245653e-06,396825,0.0,0.0,0.0,0.5,0.0,0.0,0.0,1,1,0
45800549,45796691,4325386,0.00044150374,0.0035036637,-0.005557814,0.34906584,1.3526343e-08,1.2821434e-08,3.0811414e-08,4259850,0.02062815,0.037298113,0.045511242,0.4,0.00011747975,0.00012401695,5.010363e-06,396825,0.0,0.0,0.0,0.5,0.0,0.0,0.0,1,1,0
45868924,45864502,4325386,0.00043354096,0.0035073506,-0.0053818948,0.34906584,1.349556e-08,1.277862e-08,3.063602e-08,4259850,0.022203634,0.03754342,0.045377597,0.4,0.000117051626,0.0001237009,4.997721e-06,396825,0.0,0.0,0.0,0.5,0.0,0.0,0.0,1,1,0
45961454,45958934,4325386,0.0004315342,0.0035151192,-0.0051700454,0.34906584,1.3515251e-08,1.2774805e-08,3.0508737e-08,4259850,0.023288703,0.037834957,0.04534406,0.4,0.00011696868,0.00012384489,5.0037856e-06,396825,0.0,0.0,0.0,0.5,0.0,0.0,0.0,1,1,0
46051510,46049213,4325386,0.00042540862,0.0035291908,-0.0050110086,0.34906584,1.3325157e-08,1.2603908e-08,3.04889e-08,4259850,0.02414552,0.038667444,0.045524377,0.4,0.00011600832,0.00012281383,5.025087e-06,396825,0.0,0.0,0.0,0.5,0.0,0.0,0.0,1,1,0
46146785,46143756,4325386,0.00042146016,0.0035351734,-0.0048391367,0.34906584,1.3321718e-08,1.2584558e-08,3.0340484e-08,4259850,0.0253076,0.038845405,0.04539257,0.4,0.0001157757,0.00012275002,5.022764e-06,396825,0.0,0.0,0.0,0.5,0.0,0.0,0.0,1,1,0
46253997,46251872,4325386,0.00040920413,0.0035245817,-0.004594731,0.34906584,1.302063e-08,1.2308734e-08,3.0058885e-08,4259850,0.026196452,0.039660383,0.045139484,0.4,0.00011377473,0.00012063053,5.00724e-06,396825,0.0,0.0,0.0,0.5,0.0,0.0,0.0,1,1,0
46272421,46270107,4325386,0.00040453539,0.003542584,-0.00456362,0.34906584,1.3052272e-08,1.2335221e-08,3.0096945e-08,4259850,0.027237233,0.039986767,0.045242105,0.4,0.0001140062,0.0001209197,5.0193453e-06,396825,0.0,0.0,0.0,0.5,0.0,0.0,0.0,1,1,0
46294567,46292570,4325386,0.00039919236,0.003558038,-0.0045340396,0.34906584,1.3073561e-08,1.2351986e-08,3.0110993e-08,4259850,0.028262218,0.0403016,0.04527402,0.4,0.00011414751,0.0001211133,5.0274925e-06,396825,0.0,0.0,0.0,0.5,0.0,0.0,0.0,1,1,0
46353337,46351223,4325386,0.0003926365,0.003554483,-0.0043821568,0.34906584,1.3032898e-08,1.2303903e-08,2.991284e-08,4259850,0.029306773,0.040517807,0.04511023,0.4,0.000113660775,0.00012072743,5.0118388e-06,396825,0.0,0.0,0.0,0.5,0.0,0.0,0.0,1,1,0
46399463,46396158,4325386,0.0003826298,0.0035645876,-0.0042655664,0.34906584,1.3018261e-08,1.2283919e-08,2.9810032e-08,4259850,0.030938206,0.040960696,0.045026176,0.4,0.000113446644,0.00012058733,5.0062936e-06,396825,0.0,0.0,0.0,0.5,0.0,0.0,0.0,1,1,0
46446313,46445663,4325386,0.0003730124,0.0035577104,-0.004176074,0.34906584,1.2752158e-08,1.205469e-08,2.972839e-08,4259850,0.030771017,0.0419663,0.045026045,0.4,0.00011184105,0.00011872514,5.007386e-06,396825,0.0,0.0,0.0,0.5,0.0,0.0,0.0,1,1,0
46502374,46499746,4325386,0.00036596818,0.0035513914,-0.0040161777,0.34906584,1.2705632e-08,1.2002622e-08,2.9517393e-08,4259850,0.031740326,0.042255986,0.04484413,0.4,0.00011131956,0.000118296426,4.989773e-06,396825,0.0,0.0,0.0,0.5,0.0,0.0,0.0,1,1,0
46569339,46567345,4325386,0.00036233498,0.0035613717,-0.0038760577,0.34906584,1.2729516e-08,1.2017707e-08,2.9467937e-08,4259850,0.03261985,0.042753592,0.044942144,0.4,0.00011140007,0.00011850739,4.9991977e-06,396825,0.0,0.0,0.0,0.5,0.0,0.0,0.0,1,1,0
46610333,46607907,4325386,0.0003513067,0.0035536645,-0.0037506688,0.34906584,1.266299e-08,1.1950165e-08,2.924535e-08,4259850,0.033808615,0.04308881,0.044713426,0.4,0.00011073946,0.000117888056,4.9734517e-06,396825,0.0,0.0,0.0,0.5,0.0,0.0,0.0,1,1,0
46617594,46617053,4325386,0.00034919125,0.003540271,-0.003750145,0.34906584,1.2405989e-08,1.1735357e-08,2.9263477e-08,4259850,0.03245826,0.043768708,0.044808812,0.4,0.000109226065,0.00011602108,4.979729e-06,396825,0.0,0.0,0.0,0.5,0.0,0.0,0.0,1,1,0
46668676,46666498,4325386,0.00034152385,0.0035486664,-0.0035969433,0.34906584,1.2408039e-08,1.1730855e-08,2.9165982e-08,4259850,0.033645,0.04438209,0.044795144,0.4,0.00010914016,0.00011604908,4.9815158e-06,396825,0.0,0.0,0.0,0.5,0.0,0.0,0.0,1,1,0
46770809,46770188,4325386,0.00033901582,0.0035554238,-0.0033885941,0.34906584,1.2425789e-08,1.1739759e-08,2.9066422e-08,4259850,0.034530032,0.04486171,0.044908274,0.4,0.00010913042,0.000116199604,4.988805e-06,396825,0.0,0.0,0.0,0.5,0.0,0.0,0.0,1,1,0
46817599,46815484,4325386,0.00033277128,0.0035673792,-0.0032158664,0.34906584,1.243461e-08,1.17424666e-08,2.8984635e-08,4259850,0.035927214,0.045339417,0.044978205,0.4,0.00010910743,0.0001162958,4.9935925e-06,396825,0.0,0.0,0.0,0.5,0.0,0.0,0.0,1,1,0
46829669,46828736,4325386,0.00033083212,0.003548512,-0.0032111648,0.34906584,1.2158853e-08,1.1510189e-08,2.8976613e-08,4259850,0.034298062,0.046021204,0.0450412,0.4,0.00010736046,0.00011415801,4.9956147e-06,396825,0.0,0.0,0.0,0.5,0.0,0.0,0.0,1,1,0
46871404,46869298,4325386,0.00032001155,0.0035597633,-0.0031050087,0.34906584,1.2153513e-08,1.1501982e-08,2.8893645e-08,4259850,0.0357637,0.046593778,0.04504619,0.4,0.0001072449,0.00011411008,4.993972e-06,396825,0.0,0.0,0.0,0.5,0.0,0.0,0.0,1,1,0
46937146,46932437,4325386,0.00031140872,0.0035764852,-0.0029375993,0.34906584,1.217027e-08,1.1513569e-08,2.8827747e-08,4259850,0.037423402,0.047222592,0.045059983,0.4,0.00010729268,0.00011427226,5.001809e-06,396825,0.0,0.0,0.0,0.5,0.0,0.0,0.0,1,1,0
46993132,46990980,4325386,0.000304689,0.0035734018,-0.0027652308,0.34906584,1.213586e-08,1.1477366e-08,2.8641043e-08,4259850,0.038423374,0.04755007,0.04497769,0.4,0.00010689318,0.000113955626,4.988757e-06,396825,0.0,0.0,0.0,0.5,0.0,0.0,0.0,1,1,0
47032045,47031540,4325386,0.000303607,0.003546678,-0.0027000543,0.34906584,1.1841965e-08,1.1226128e-08,2.855648e-08,4259850,0.036599383,0.048213,0.045003522,0.4,0.00010486051,0.00011153741,4.9839236e-06,396825,0.0,0.0,0.0,0.5,0.0,0.0,0.0,1,1,0
47076922,47072101,4325386,0.000292835,0.0035391627,-0.002519877,0.34906584,1.1778084e-08,1.1162818e-08,2.8299558e-08,4259850,0.037945397,0.048569225,0.044849925,0.4,0.00010422414,0.00011096035,4.958995e-06,396825,0.0,0.0,0.0,0.5,0.0,0.0,0.0,1,1,0
47137483,47135241,4325386,0.00028439416,0.0035595822,-0.0023701095,0.34906584,1.1811748e-08,1.1192689e-08,2.8272794e-08,4259850,0.039520912,0.049331807,0.044967774,0.4,0.0001044279,0.00011127641,4.974048e-06,396825,0.0,0.0,0.0,0.5,0.0,0.0,0.0,1,1,0
47227487,47225375,4325386,0.00027948004,0.0035826543,-0.002160683,0.34906584,1.1864223e-08,1.1240667e-08,2.8255235e-08,4259850,0.04104309,0.050128642,0.04520157,0.4,0.00010477483,0.000111775495,4.997712e-06,396825,0.0,0.0,0.0,0.5,0.0,0.0,0.0,1,1,0
47304561,47302189,4325386,0.00027098984,0.0035583014,-0.0019530756,0.34906584,1.15568115e-08,1.0976153e-08,2.8040292e-08,4259850,0.04005219,0.051428344,0.04510941,0.4,0.00010248384,0.00010915023,4.9909136e-06,396825,0.0,0.0,0.0,0.5,0.0,0.0,0.0,1,1,0
47342626,47338044,4325386,0.00025961353,0.0035793022,-0.0019159477,0.34906584,1.1590333e-08,1.1008129e-08,2.8084466e-08,4259850,0.041407473,0.052266486,0.045240093,0.4,0.0001027491,0.00010946092,5.005518e-06,396825,0.0,0.0,0.0,0.5,0.0,0.0,0.0,1,1,0
47401195,47396587,4325386,0.00025432522,0.0035884813,-0.0017839823,0.34906584,1.1602479e-08,1.1020234e-08,2.8007022e-08,4259850,0.042373534,0.052844174,0.04528662,0.4,0.00010278894,0.00010958711,5.012538e-06,396825,0.0,0.0,0.0,0.5,0.0,0.0,0.0,1,1,0
47437712,47437148,4325386,0.00025420706,0.0035605475,-0.0017358334,0.34906584,1.131203e-08,1.0771022e-08,2.7934611e-08,4259850,0.040160976,0.053546134,0.045253705,0.4,0.00010060948,0.00010698714,5.0102435e-06,396825,0.0,0.0,0.0,0.5,0.0,0.0,0.0,1,1,0
47531961,47527283,4325386,0.0002433385,0.003549665,-0.0015314027,0.34906584,1.12456595e-08,1.07099805e-08,2.7593549e-08,4259850,0.04144399,0.054032814,0.044941165,0.4,9.99253e-05,0.00010638729,4.9842447e-06,396825,0.0,0.0,0.0,0.5,0.0,0.0,0.0,1,1,0
47559409,47558831,4325386,0.0002380112,0.003568537,-0.0014930922,0.34906584,1.12881215e-08,1.0751062e-08,2.7660585e-08,4259850,0.042322706,0.05460871,0.045116827,0.4,0.000100274076,0.00010678387,5.0032572e-06,396825,0.0,0.0,0.0,0.5,0.0,0.0,0.0,1,1,0
47612497,47608452,4325386,0.00022901602,0.0035599736,-0.0013572029,0.34906584,1.1234747e-08,1.070211e-08,2.7424589e-08,4259850,0.04327512,0.054944605,0.04496433,0.4,9.9750505e-05,0.00010630255,4.9819705e-06,396825,0.0,0.0,0.0,0.5,0.0,0.0,0.0,1,1,0
47640672,47639952,4325386,0.00022612898,0.0035461793,-0.0013121765,0.34906584,1.0987914e-08,1.0492639e-08,2.7449154e-08,4259850,0.04130414,0.056064155,0.045074098,0.4,9.786811e-05,0.00010401715,4.997467e-06,396825,0.0,0.0,0.0,0.5,0.0,0.0,0.0,1,1,0
47723555,47721120,4325386,0.000215407,0.0035477038,-0.0011552913,0.34906584,1.0961457e-08,1.0470712e-08,2.7238801e-08,4259850,0.042584736,0.056652438,0.044949226,0.4,9.756128e-05,0.00010378504,4.9879645e-06,396825,0.0,0.0,0.0,0.5,0.0,0.0,0.0,1,1,0
47764060,47761634,4325386,0.00020593146,0.0035553628,-0.0010786988,0.34906584,1.0955598e-08,1.0467027e-08,2.7152089e-08,4259850,0.04375813,0.057144746,0.04485651,0.4,9.747486e-05,0.000103739876,4.9866376e-06,396825,0.0,0.0,0.0,0.5,0.0,0.0,0.0,1,1,0
47804645,47802195,4325386,0.00019733844,0.0035629424,-0.0010071794,0.34906584,1.095283e-08,1.0466485e-08,2.70731e-08,4259850,0.04480015,0.057623167,0.044764042,0.4,9.7417156e-05,0.00010372456,4.986761e-06,396825,0.0,0.0,0.0,0.5,0.0,0.0,0.0,1,1,0
47843492,47842759,4325386,0.00020321299,0.0035267912,-0.00095388124,0.34906584,1.0668163e-08,1.0219079e-08,2.6988834e-08,4259850,0.041713286,0.058030896,0.0447278,0.4,9.5090625e-05,0.0001009681,4.9823875e-06,396825,0.0,0.0,0.0,0.5,0.0,0.0,0.0,1,1,0
47894803,47892483,4325386,0.0001960718,0.003535259,-0.00084792974,0.34906584,1.0668997e-08,1.0223444e-08,2.6882864e-08,4259850,0.04277425,0.05849518,0.044727627,0.4,9.506214e-05,0.000100999954,4.9852306e-06,396825,0.0,0.0,0.0,0.5,0.0,0.0,0.0,1,1,0
47932082,47928387,4325386,0.00018276142,0.003529476,-0.0007814468,0.34906584,1.0618277e-08,1.0177539e-08,2.6682333e-08,4259850,0.04390823,0.0588846,0.044526022,0.4,9.458287e-05,0.000100530066,4.9629025e-06,396825,0.0,0.0,0.0,0.5,0.0,0.0,0.0,1,1,0
47966581,47964438,4325386,0.00017884179,0.0035484596,-0.00070623495,0.34906584,1.0659008e-08,1.0219383e-08,2.671162e-08,4259850,0.044820994,0.059396185,0.044587173,0.4,9.491834e-05,0.00010092658,4.983364e-06,396825,0.0,0.0,0.0,0.5,0.0,0.0,0.0,1,1,0
48034614,48032259,4325386,0.0001744777,0.0035610064,-0.00060441124,0.34906584,1.0678636e-08,1.0242857e-08,2.6649472e-08,4259850,0.045765355,0.059807904,0.04461016,0.4,9.5046074e-05,0.00010112024,4.9942923e-06,396825,0.0,0.0,0.0,0.5,0.0,0.0,0.0,1,1,0
48046363,48045560,4325386,0.00017877415,0.0035321892,-0.000595195,0.34906584,1.0420163e-08,1.0016986e-08,2.6660153e-08,4259850,0.042573757,0.060435608,0.04462439,0.4,9.287293e-05,9.850794e-05,5.0003478e-06,396825,0.0,0.0,0.0,0.5,0.0,0.0,0.0,1,1,0
48088911,48086120,4325386,0.00017104403,0.003552508,-0.0005312309,0.34906584,1.0459124e-08,1.0057742e-08,2.6685194e-08,4259850,0.043639023,0.061152197,0.044815633,0.4,9.319751e-05,9.8886165e-05,5.020444e-06,396825,0.0,0.0,0.0,0.5,0.0,0.0,0.0,1,1,0
48131287,48126727,4325386,0.00016150545,0.0035586162,-0.0004606495,0.34906584,1.0453068e-08,1.0055294e-08,2.6595007e-08,4259850,0.044666808,0.06164538,0.044731364,0.4,9.31207e-05,9.883933e-05,5.0189815e-06,396825,0.0,0.0,0.0,0.5,0.0,0.0,0.0,1,1,0
48171390,48167243,4325386,0.00014978132,0.0035623217,-0.00038747274,0.34906584,1.0436658e-08,1.0043074e-08,2.6478492e-08,4259850,0.04578963,0.06218976,0.044611745,0.4,9.295299e-05,9.8695076e-05,5.0125923e-06,396825,0.0,0.0,0.0,0.5,0.0,0.0,0.0,1,1,0
