timestamp,timestamp_sample,xyz[0],xyz[1],xyz[2]
22226872,22226659,0.003555505,-0.0006611836,-0.0017605079
22250583,22250363,-0.00012733787,0.00067575136,-0.0028850473
22268048,22267831,-9.324122e-05,-0.00050325505,-0.0015301805
22288004,22287798,0.0028814105,0.0058165817,-0.003083903
22309225,22309013,-9.31737e-05,-0.006805853,-0.001226715
22330447,22330228,-0.0017006584,-0.004516054,-0.00051115337
22347907,22347699,0.0032284139,0.0020325724,-0.0009649042
22369125,22368914,0.0028680866,-0.0007340759,3.0266587e-05
22390352,22390136,-0.00045540184,-0.0025184269,4.2491592e-07
22407811,22407600,-0.0007121749,-0.003801232,-0.003273158
22429034,22428816,0.0004720171,-0.0012318746,-0.0011651514
22448996,22448782,0.0035508408,0.00218044,-0.0007406343
22470224,22470012,-0.0054931957,-0.0019612105,-0.0014632025
22487679,22487468,0.0063172523,0.00076074107,-0.0019531988
22508895,22508684,-0.0021796767,0.0013866005,-0.0012294888
22530116,22529901,-0.0021730615,-0.0003812774,-0.001028253
22547577,22547369,0.003352506,-0.0031775523,-0.0015593538
22568791,22568584,-0.004075581,-0.0019005367,-0.0031368488
22590047,22589826,0.0051750727,0.002167027,0.0010351911
22610068,22609851,-0.0020213537,0.0022391612,0.0010781372
22627458,22627238,-0.0010992894,-0.003566878,-0.0027415734
22648666,22648452,0.004776311,-0.002698203,-0.0010583776
22669890,22669670,0.0005246578,0.0023403037,-0.0010600144
22687362,22687138,0.0035199025,0.0028290842,0.00047083758
22708578,22708370,-0.0002457113,-0.005444787,-0.0041820514
22729785,22729568,0.00037927087,-0.0029217603,-0.0013467486
22751012,22750784,0.001987094,0.0016939803,0.00054335664
22768471,22768260,-0.0012071319,-0.0013967927,-0.0023575407
22788432,22788221,0.0036901203,-0.001788011,0.0017540897
22809661,22809440,-0.0008933684,0.003642682,0.004563478
22827123,22826914,0.0006068316,-0.003663271,0.00041909446
22849599,22849380,-0.0022482537,-0.005215969,6.86408e-06
22869561,22869342,0.002710524,0.0059114965,0.00640107
22890764,22890552,-0.0006101886,0.0018535545,0.0016493085
22908233,22908023,0.0022988333,-0.002919572,-0.00031998614
22929454,22929239,-0.0030064713,-0.0023873744,0.00035681948
22950675,22950453,0.005411545,0.004576717,-0.00021098182
22966887,22966676,-0.003233865,-0.0062050875,-0.0047274805
22994345,22994130,0.00045750057,-0.0025742725,-0.0023395268
23009314,23009105,-0.0021392275,-0.0026049563,-0.004923309
23030529,23030320,-0.0015041642,-0.00024783774,-0.005975284
23047997,23047791,0.0025458187,-0.003400535,-0.0035217255
23069226,23069009,-0.014771294,-0.0026523722,0.003782517
23090441,23090220,0.015946865,0.036252726,-0.0016323408
23107898,23107692,0.021705672,0.06769592,-0.009610187
23127864,23127659,0.04067143,0.110710196,-0.0087344125
23149085,23148875,-0.02057833,0.1361308,-0.00930308
23170306,23170102,0.026202478,0.090908475,0.0022210872
23187772,23187560,0.028785326,0.0738298,0.0022317271
23208986,23208775,0.032859072,0.062097486,0.0031698358
23230194,23229989,0.034286566,0.05947237,0.004695208
23247674,23247461,0.038195603,0.01344927,0.0019154393
23268887,23268677,-0.010616325,-0.003707237,0.0021260616
23288858,23288644,-0.0671043,0.028655125,0.007098427
23307566,23307361,-0.0902437,0.08467663,0.018158933
23327540,23327329,-0.090805136,0.033602916,0.025305174
23348755,23348545,-0.07478942,-0.01623568,0.021644402
23369964,23369759,-0.07132724,-0.004122905,0.018372267
23387446,23387230,-0.067924134,-0.02951349,0.016262852
23408660,23408446,-0.0521906,0.029064754,0.020982035
23429873,23429660,-0.07634537,0.056862727,0.022532744
23448599,23448381,-0.111549646,0.06021585,0.01806901
23468568,23468348,-0.093137614,-0.04249399,0.01089337
23488531,23488313,-0.08369817,-0.18648182,0.004152355
23509743,23509528,-0.08640919,-0.27388304,0.001148971
23527205,23526999,-0.07338751,-0.26674363,-0.0077177715
23548427,23548215,-0.05182603,-0.1980759,-0.008910796
23569644,23569429,-0.017153317,-0.10643538,-0.0056622038
23587105,23586900,-0.0015591606,-0.026815744,-0.003018368
23608327,23608117,0.06688228,-0.073931225,0.0008117135
23629546,23629331,0.113339245,-0.22226864,0.012203864
23647021,23646803,0.13923845,-0.321962,0.019264642
23666974,23666769,0.154245,-0.38579178,0.023228351
23688200,23687985,0.15702026,-0.38554877,0.0315514
23709409,23709198,0.14523424,-0.34009552,0.03553828
23728135,23727921,0.10804917,-0.27560678,0.04254252
23748094,23747885,0.06413746,-0.112885475,0.051926903
23769305,23769100,0.039257426,0.04251539,0.060547665
23786780,23786572,0.014990691,0.14523816,0.070642814
23807995,23807786,-0.017412418,0.24380735,0.074704014
23827961,23827753,-0.07384544,0.3282429,0.066792324
23849172,23848968,-0.09341661,0.31163108,0.06099076
23866655,23866445,-0.09558935,0.32304218,0.055723347
23887863,23887658,-0.08278635,0.31350502,0.05466915
23909082,23908873,-0.031864826,0.22473149,0.05395393
23930290,23930083,0.00073487824,0.11641787,0.05005259
23947770,23947560,0.04084549,0.110868536,0.051629253
23968980,23968769,0.076190025,0.15234695,0.04467727
23988946,23988737,0.09065983,0.19510654,0.039480194
24007680,24007466,0.08402318,0.20756552,0.03456176
24027671,24027458,0.079819664,0.24244529,0.02873023
24048856,24048638,0.069273494,0.2201949,0.026272785
24070062,24069853,0.043718297,0.1355821,0.022559533
24087534,24087324,0.02695647,0.055700988,0.020728916
24108749,24108539,0.0046750903,-0.02989492,0.018192815
24129968,24129755,-0.010561483,-0.08898231,0.015544598
24149927,24149721,-0.01816079,-0.11336514,0.010009619
24167404,24167192,-0.016404117,-0.09270715,0.0043711686
24188622,24188407,0.0022809603,-0.042172227,-0.001792781
24209854,24209640,0.016426567,-0.003707614,-0.005761954
24227306,24227094,0.015559003,-0.023032077,-0.010842244
24248518,24248308,-0.0060507925,-0.06528803,-0.020662501
24269732,24269523,-0.019850144,-0.110088326,-0.027108606
24290965,24290759,-0.024631852,-0.13323383,-0.029819705
24308416,24308209,-0.018718764,-0.1563375,-0.032327574
24328384,24328176,-0.012496633,-0.14794104,-0.038552366
24349605,24349392,0.00097275013,-0.08676386,-0.049732096
24367071,24366863,-0.0052249655,-0.05024019,-0.05653217
24388288,24388077,-0.002020388,-0.02147469,-0.06288842
24409500,24409293,-0.0112861525,-0.04050702,-0.068011135
24430718,24430508,-0.032446086,-0.072660744,-0.07432135
24448190,24447979,-0.048088394,-0.12523244,-0.07669878
24469403,24469194,-0.049893737,-0.09577787,-0.08023928
24490624,24490416,-0.023702445,0.005581189,-0.08218146
24508086,24507880,0.015587109,0.097738795,-0.07881371
24528054,24527846,0.029102262,0.16925776,-0.07877287
24549273,24549062,0.044630684,0.18140003,-0.08424697
24570491,24570279,0.049875073,0.11969376,-0.08606242
24587952,24587748,0.05796942,0.06851357,-0.08513529
24609168,24608963,0.047366187,-0.02360785,-0.08381294
24630385,24630178,0.038442925,-0.07611932,-0.07887697
24647882,24647672,0.027972525,-0.053370856,-0.07248293
24669077,24668865,0.0042314623,-0.014453739,-0.06740573
24689060,24688846,-0.018587505,0.019610308,-0.065744855
24710253,24710047,-0.03554058,0.024296774,-0.068105236
24727726,24727517,-0.032281794,0.015487345,-0.07018894
24748949,24748737,-0.025344051,-0.021553015,-0.06947021
24770179,24769972,-0.027083855,-0.068482086,-0.072804846
24787627,24787419,-0.020633813,-0.07580412,-0.074246496
24808844,24808634,-0.020998605,-0.063122615,-0.07374946
24830059,24829848,-0.01209682,-0.048741437,-0.075326845
24847534,24847320,-0.015538348,-0.038664907,-0.077011846
24867495,24867287,-0.024864119,-0.0021865924,-0.07815625
24888708,24888502,-0.016931284,0.033748716,-0.075066015
24909924,24909719,-0.022105206,0.031610448,-0.07058059
24927401,24927189,-0.027308162,0.0047390866,-0.06914484
24948610,24948405,-0.016783698,-0.01565499,-0.06883071
24969821,24969618,-0.009955013,-0.04156905,-0.06782711
24991047,24990833,-0.011653449,-0.06311995,-0.06265081
25008524,25008304,0.002121393,-0.04865996,-0.05317574
25028483,25028271,0.00027608825,-0.017233301,-0.040382877
25049694,25049486,-0.0053671375,0.014128597,-0.024388438
25067169,25066959,-0.0060066534,0.035782453,-0.0120807
25088384,25088173,-0.006188987,0.039650775,0.0068974453
25110853,25110637,0.0016147187,0.0058305175,0.024116654
25130812,25130603,0.012470081,-0.036294177,0.03375768
25148284,25148074,0.019486543,-0.063059025,0.041665323
25169493,25169288,0.018049877,-0.08785707,0.05641604
25189468,25189262,0.011261171,-0.09117052,0.072744325
25206937,25206728,0.010922044,-0.073015995,0.0815011
25228147,25227942,0.010980229,-0.048966657,0.09366598
25249376,25249171,0.011505937,-0.036424343,0.10713307
25270579,25270372,0.014104458,-0.022809831,0.12074143
25288054,25287844,0.01399642,-0.01244317,0.13311526
25310520,25310309,0.0058687287,-0.010152117,0.14929973
25330484,25330273,0.010356506,-0.006591161,0.1617085
25347953,25347745,0.009949711,-0.0031184626,0.17314287
25367920,25367712,0.007735735,0.0042655407,0.18519047
25389131,25388926,0.0051769586,0.010709794,0.1966427
25410348,25410142,0.0028347098,0.025872502,0.20745926
25427832,25427621,-0.0023318785,0.017363273,0.21744736
25450303,25450080,-0.006590922,0.009676125,0.2308483
25470249,25470043,-0.01269622,0.0049640355,0.24136814
25487735,25487515,-0.016026208,0.0013070172,0.24876754
25508946,25508729,-0.019794852,-0.0046011903,0.2597433
25528901,25528696,-0.017954877,0.010123618,0.2666363
25550120,25549911,-0.0051734955,0.021478789,0.27393988
25567601,25567383,0.004729105,0.029160459,0.27926844
25588810,25588597,0.012165689,0.036003876,0.284321
25610019,25609812,0.023047894,0.038421564,0.2905764
25627492,25627284,0.02862011,0.023583634,0.3011689
25648711,25648499,0.027197108,0.01476077,0.30982402
25669928,25669715,0.018991077,0.0064938725,0.31683773
25689891,25689682,0.013084881,0.0006687823,0.3253486
25707363,25707152,0.0045767454,0.00050335564,0.33255395
25729837,25729618,0.0022423286,0.009186773,0.34287593
25749804,25749583,0.00057788054,0.018036846,0.3509105
25767260,25767053,0.004562552,0.032038905,0.35743952
25788483,25788269,0.012203194,0.04342433,0.3673164
25809716,25809508,0.01715922,0.04206684,0.37467435
25827159,25826954,0.015977565,0.025342965,0.38192368
25848377,25848170,0.010188373,0.0033626868,0.38618037
25869596,25869385,0.002736942,-0.018699385,0.3930915
25889558,25889352,-0.00723342,-0.032608114,0.39860526
25907030,25906823,-0.013345696,-0.037290283,0.40316573
25928247,25928039,-0.02105556,-0.03275794,0.40771437
25949461,25949253,-0.022909455,-0.006293026,0.41257173
25966930,25966724,-0.023252627,0.02211868,0.4149052
25988149,25987940,-0.012117522,0.04959899,0.41974106
26009366,26009156,0.0019912021,0.06396378,0.4254972
26030608,26030391,0.019768532,0.051397726,0.43061116
26049306,26049091,0.025043875,0.016418288,0.43454188
26068020,26067808,0.020895083,-0.01778718,0.438589
26089233,26089023,0.0071953223,-0.053987563,0.44124603
26110460,26110242,-0.014070729,-0.07682428,0.44615522
26127921,26127710,-0.024735065,-0.07873239,0.44989234
26149135,26148925,-0.031793717,-0.07292967,0.45246547
26170353,26170141,-0.035459876,-0.076596566,0.45523903
26189069,26188861,-0.030564284,-0.08319501,0.45818594
26209057,26208844,-0.020200966,-0.09201891,0.46098858
26229045,26228838,-0.009489369,-0.09888881,0.46360114
26250216,26250007,0.00064330176,-0.10708277,0.46464565
26267687,26267479,0.01396041,-0.10986251,0.46622404
26288922,26288717,0.022817297,-0.10467599,0.46638042
26310126,26309912,0.031816557,-0.09873898,0.46621737
26327592,26327386,0.030617421,-0.09522024,0.46382725
26348805,26348595,0.034029458,-0.09280244,0.46174243
26370047,26369834,0.02885629,-0.092764415,0.4633274
26387490,26387281,0.023321554,-0.095375754,0.46322787
26407467,26407248,0.016360866,-0.09528916,0.46164757
26428674,26428464,0.009484488,-0.10052577,0.4613809
26449894,26449680,0.0022890484,-0.11526705,0.4579709
26467357,26467150,-0.00422678,-0.12648886,0.45259768
26488576,26488365,-0.003366047,-0.12737474,0.44822222
26509796,26509590,-0.0029692692,-0.102357775,0.4437129
26527267,26527051,-0.00024816627,-0.07587717,0.43931487
26548481,26548267,0.0023739277,-0.048737414,0.43314993
26568441,26568233,0.009680035,-0.032167964,0.42803544
26589664,26589449,0.0059192684,-0.0185706,0.42285666
26608384,26608171,0.010575027,0.001992688,0.41795868
26628352,26628141,0.014514341,0.026015922,0.41218
26649557,26649350,0.0135293435,0.045350682,0.4063313
26667028,26666821,0.009757609,0.05108268,0.4020124
26688248,26688037,0.005572738,0.058623854,0.39612687
26709468,26709258,0.0013326299,0.073643215,0.39011252
26726933,26726727,-0.0020649335,0.08908078,0.38561845
26746897,26746689,0.0005954602,0.10140689,0.38051176
26768124,26767918,-0.009090576,0.11000531,0.37290683
26789328,26789119,-0.014840316,0.110323444,0.3647306
26810545,26810335,-0.01437716,0.10116071,0.35529965
26828012,26827806,-0.01506201,0.100277446,0.34848338
26849244,26849040,-0.00915834,0.105301715,0.33837208
26870450,26870236,0.018505154,0.1194721,0.32808262
26887963,26887752,0.03811959,0.13607746,0.3214819
26907886,26907680,0.057987273,0.15279144,0.31307957
26929099,26928889,0.07126633,0.15663058,0.30614263
26950312,26950105,0.06953734,0.14350124,0.2977374
26967786,26967576,0.06650321,0.119393095,0.29166
26989003,26988791,0.0455835,0.09204147,0.28499693
27007728,27007511,0.030537974,0.06734835,0.2791423
27027708,27027480,0.016224895,0.046601966,0.27211604
27048909,27048693,0.00084009115,0.026302405,0.2644671
27068866,27068659,-0.017923564,0.005307179,0.25634724
27087591,27087379,-0.023439106,-0.014628718,0.24970715
27107562,27107350,-0.022889707,-0.04201939,0.24466325
27128765,27128560,-0.026593607,-0.074929826,0.23743047
27149985,27149776,-0.02556995,-0.10100369,0.23208961
27167468,27167253,-0.026951976,-0.11568554,0.22887664
27188673,27188462,-0.023906648,-0.12634717,0.22218893
27209890,27209678,-0.012937262,-0.1222493,0.219733
27231098,27230892,-0.010677178,-0.11278961,0.21701488
27248574,27248364,-0.0036569396,-0.1026766,0.21508056
27268537,27268331,-0.0014756904,-0.08908245,0.21279067
27289757,27289547,0.0017155758,-0.078805685,0.21158119
27307229,27307019,-0.006289288,-0.07738188,0.20924748
27328450,27328232,-0.006650803,-0.072758526,0.20862924
27349663,27349448,-0.011716001,-0.068116456,0.20639731
27370873,27370666,-0.01208326,-0.061991125,0.20574926
27388351,27388134,-0.015081232,-0.054143284,0.20345238
27409579,27409373,-0.004485613,-0.04604841,0.19973956
27429522,27429316,0.0016021174,-0.039128207,0.19740333
27447002,27446790,0.010253261,-0.035645023,0.1968227
27468213,27468003,0.009002809,-0.03698948,0.19454864
27489424,27489217,0.012315365,-0.034208495,0.19544832
27510662,27510452,0.014067311,-0.030586995,0.19420686
27528110,27527904,0.015146505,-0.0195656,0.19437575
27549331,27549119,0.017643405,-0.0068976097,0.19339506
27570547,27570334,0.02087531,0.0049349703,0.19341744
27588018,27587805,0.024397058,0.009723401,0.19466528
27607987,27607774,0.019483678,0.011135645,0.1942515
27629191,27628987,0.023441795,0.0061941296,0.19443025
27650415,27650202,0.031825688,0.0031321333,0.1939529
27667888,27667674,0.030303186,0.004405448,0.19511433
27689102,27688889,0.031266678,0.006791157,0.19690238
27710310,27710104,0.024354158,0.010039443,0.19695225
27727785,27727575,0.025841137,0.014399951,0.19980942
27748998,27748790,0.023399668,0.023082329,0.20026357
27770229,27770016,0.025724847,0.029412333,0.20268685
27790181,27789973,0.033373334,0.025080033,0.20578663
27807670,27807461,0.04277045,0.019092524,0.20881033
27828874,27828661,0.040595878,0.013789358,0.21129334
27851338,27851124,0.036425818,0.00715721,0.21385764
27867550,27867345,0.034690864,0.004744964,0.21517588
27888789,27888578,0.029502373,0.0069749183,0.21590747
27909983,27909777,0.03285844,0.007996861,0.21772265
27927451,27927247,0.036771372,0.00880021,0.21836531
27947419,27947213,0.04175994,0.005212434,0.22095078
27968637,27968430,0.041595954,-0.0051568537,0.22156185
27991108,27990894,0.045950275,-0.019390175,0.22429527
28007322,28007115,0.043466814,-0.028431915,0.22587492
28028535,28028330,0.04598718,-0.035898224,0.22781245
28049755,28049547,0.043315988,-0.037234545,0.22952329
28070975,28070762,0.03705793,-0.036476534,0.22862166
28088439,28088232,0.030886209,-0.033602778,0.22962369
28108409,28108199,0.027653668,-0.03534132,0.22854625
28129620,28129415,0.025304563,-0.038316462,0.22834717
28147089,28146885,0.021079464,-0.043983392,0.2292427
28168305,28168101,0.022176974,-0.050002936,0.22791322
28189523,28189316,0.021590034,-0.056679666,0.22917907
28210743,28210535,0.013703003,-0.055342615,0.22827575
28228207,28228002,0.017229795,-0.04749663,0.22753276
28249424,28249217,0.008226009,-0.030089432,0.22838633
28270652,28270433,0.004630831,-0.012783911,0.22687133
28286879,28286673,0.0066903303,-0.0053362316,0.22771356
28308079,28307871,0.007782165,0.00034409342,0.2288299
28330542,28330334,0.0071241385,-0.0025548982,0.22759672
28350521,28350302,0.008980823,-0.013826236,0.2278715
28367991,28367786,0.013716455,-0.02585552,0.22702765
28389195,28388987,0.016366415,-0.04259117,0.22656626
28410424,28410204,0.013097122,-0.049727168,0.22737259
28427889,28427684,0.008533455,-0.05251353,0.22718143
28447853,28447641,0.0002683564,-0.053297296,0.22904393
28469063,28468857,-0.012287037,-0.053146433,0.2311231
28490279,28490072,-0.030346103,-0.04718267,0.23336701
28507804,28507598,-0.037692316,-0.03963227,0.23476389
28528966,28528757,-0.04921793,-0.02780125,0.2357099
28550187,28549977,-0.05066017,-0.018272283,0.23643056
28567656,28567444,-0.049118057,-0.013900977,0.2380553
28588865,28588659,-0.043514244,-0.009961955,0.23950796
28610091,28609876,-0.03224185,-0.005452748,0.241968
28627563,28627346,-0.026782531,0.0007750434,0.24137299
28647516,28647312,-0.024506181,0.0060836175,0.24404848
28668732,28668528,-0.023056902,0.011990422,0.24434377
28689962,28689747,-0.020324968,0.018226491,0.24395263
28707427,28707214,-0.024930853,0.025661824,0.2438333
28728634,28728430,-0.01716509,0.030207362,0.24421622
28749857,28749645,-0.012138855,0.027713124,0.24315935
28771071,28770862,0.0027938876,0.021667073,0.24133536
28789798,28789583,0.004517056,0.011593904,0.24268056
28808506,28808299,0.009026647,0.007590489,0.24310029
28829723,28829514,0.020920232,0.010205576,0.24508369
28847208,28847002,0.021237936,0.021616602,0.2453114
28868406,28868199,0.03362433,0.046872783,0.24493577
28889622,28889415,0.028166724,0.08011991,0.24526374
28910884,28910676,0.03778629,0.10045166,0.2451487
28929565,28929350,0.041842833,0.102777645,0.24497177
28949533,28949317,0.047627997,0.09197117,0.2433258
28969497,28969285,0.055910654,0.073343895,0.24381238
28986962,28986755,0.067657836,0.05200339,0.24432492
29008175,29007970,0.07390152,0.033547398,0.24360946
29029396,29029189,0.07722126,0.02522403,0.24380423
29050616,29050402,0.07983011,0.033346727,0.24354285
29068084,29067872,0.074128866,0.04007929,0.24313806
29089305,29089091,0.07264888,0.05075261,0.24332008
29110522,29110303,0.06491476,0.051210616,0.24288636
29127979,29127773,0.065596975,0.048946664,0.24530679
29149208,29148989,0.060478404,0.035949677,0.24453916
29169166,29168956,0.06073261,0.019089354,0.2448435
29190384,29190171,0.06398894,0.0023370143,0.24849959
29207879,29207667,0.06425315,-0.0035618166,0.2475722
29229069,29228858,0.06609227,-0.0011771466,0.25191525
29250277,29250073,0.06500361,0.006535239,0.25403413
29267754,29267543,0.060406618,0.015086474,0.2558847
29288982,29288759,0.053722188,0.029063318,0.2575582
29308938,29308728,0.046012066,0.035659734,0.26011994
29330153,29329941,0.034092348,0.03207589,0.26075432
29347630,29347415,0.026941162,0.027440947,0.26400658
29368841,29368628,0.011247203,0.023735464,0.26450473
29390049,29389843,-0.0003457549,0.02495049,0.26750427
29407543,29407329,-0.010805614,0.022783294,0.267901
29428746,29428532,-0.017086009,0.026140159,0.26862368
29449949,29449744,-0.020881528,0.028475942,0.26947707
29467423,29467216,-0.027138993,0.0230165,0.2714868
29487400,29487187,-0.031105582,0.016009895,0.27268875
29508612,29508402,-0.034312893,0.0061229924,0.27533937
29529817,29529613,-0.040491465,0.002032375,0.27775285
29547289,29547084,-0.050510284,0.0014041574,0.27995607
29568513,29568302,-0.056083035,0.015535934,0.28110832
29589720,29589515,-0.05653617,0.026476305,0.28462034
29607189,29606986,-0.06271227,0.031529926,0.28426787
29628409,29628201,-0.06727819,0.03563138,0.28645587
29648378,29648168,-0.06887376,0.042559072,0.28857
29669589,29669383,-0.068736,0.045571722,0.29066482
29687060,29686855,-0.07016659,0.050282054,0.29088056
29708278,29708071,-0.07014218,0.056961395,0.29253325
29728249,29728039,-0.06732425,0.0649713,0.2942206
29746967,29746757,-0.0650385,0.07104965,0.29634875
29768179,29767973,-0.065165125,0.081847414,0.29680791
29789395,29789187,-0.05852267,0.09334811,0.29790914
29809361,29809156,-0.04815023,0.0958416,0.2984878
29828090,29827875,-0.037500113,0.093213126,0.2981193
29848053,29847842,-0.023630539,0.081064105,0.29920268
29869266,29869056,-0.010283014,0.054424167,0.29944852
29886745,29886540,-0.004033954,0.028006626,0.2985044
29909204,29908992,0.00533727,-0.0038093054,0.29930308
29929167,29928958,0.008938115,-0.02009963,0.29875252
29947942,29947730,0.01118644,-0.026482943,0.29850557
29967874,29967668,0.01484199,-0.023861572,0.29911384
29989068,29988859,0.018876053,-0.026636431,0.29920942
30009031,30008826,0.01814486,-0.03809087,0.29988432
30030254,30030042,0.009803953,-0.053416617,0.29982883
30047720,30047513,0.011156917,-0.07013108,0.29926515
30068940,30068730,0.007680102,-0.086100064,0.29633784
30087673,30087451,0.004797564,-0.100766405,0.29518062
30108874,30108664,0.005403695,-0.11375709,0.29375422
30130096,30129881,0.0072280727,-0.11895869,0.29115707
30148808,30148597,0.010725712,-0.11625754,0.2890064
30170024,30169814,0.011095266,-0.10684556,0.2860672
30188742,30188531,0.012505669,-0.09735666,0.2845874
30211229,30211023,0.011289075,-0.08507728,0.28217062
30231174,30230965,0.012130337,-0.074308075,0.28116962
30247394,30247186,0.011760665,-0.06726621,0.28086394
30268608,30268402,0.007414014,-0.05487815,0.2780536
30291071,30290864,0.008258395,-0.046771985,0.2776916
30307312,30307087,0.011688499,-0.043297045,0.27407262
30328520,30328303,0.006832376,-0.03561118,0.2718749
30348475,30348269,0.005726189,-0.024150973,0.2707018
30370948,30370736,0.006870802,-0.007326718,0.26719007
30387162,30386956,0.014010456,0.0037717125,0.26485056
30408387,30408178,0.020139636,0.013488897,0.26243013
30428354,30428141,0.028274262,0.021575276,0.2594128
30448319,30448107,0.03657361,0.024124678,0.25875393
30468285,30468075,0.045928042,0.021634415,0.25755545
30488252,30488042,0.050564248,0.023690835,0.2556197
30508219,30508010,0.052787226,0.030910961,0.2548907
30530686,30530471,0.058715027,0.036143485,0.2519003
30548162,30547944,0.06226899,0.043803778,0.25040063
30569363,30569157,0.06729434,0.045761693,0.24737228
30590581,30590372,0.07010337,0.03922167,0.24447817
30608048,30607843,0.070764385,0.029621985,0.2428521
30629278,30629059,0.07356819,0.023263559,0.23943093
30647987,30647779,0.071037576,0.019638281,0.23554163
30667952,30667745,0.06402022,0.024669603,0.23223512
30687918,30687712,0.053550415,0.031842113,0.22902715
30709134,30708928,0.048951995,0.03609027,0.22494823
30727863,30727653,0.038152352,0.036885362,0.22243117
30747827,30747616,0.025015868,0.03749326,0.21842748
30767791,30767582,0.0100843,0.03694175,0.21512489
30787761,30787550,-0.005334225,0.031635683,0.21143521
30808972,30808764,-0.01601698,0.0257085,0.20817855
30827699,30827485,-0.03123949,0.020024925,0.20492794
30848907,30848700,-0.044448722,0.011756303,0.20188269
30868873,30868666,-0.04953263,0.00287649,0.19974855
30888851,30888636,-0.0521611,-0.00788609,0.1953537
30908804,30908600,-0.0530469,-0.014591857,0.19300073
30930023,30929816,-0.052779227,-0.010530115,0.18863745
30948791,30948582,-0.05511188,-0.0031769897,0.18524915
30968709,30968502,-0.0514949,0.0076257773,0.18372673
30989931,30989718,-0.04944056,0.015188916,0.18039574
31007409,31007203,-0.04392134,0.013120437,0.17824551
31027365,31027155,-0.031882443,0.000988116,0.17612273
31048579,31048371,-0.02794602,-0.022743126,0.17229134
31073554,31073344,-0.023941183,-0.054367617,0.17000614
31087280,31087061,-0.020609016,-0.06888132,0.16832204
31108479,31108272,-0.014181951,-0.07549807,0.1679989
31132194,31131985,-0.00843234,-0.07504595,0.16553646
31152162,31151953,-0.0029131714,-0.06310056,0.16474997
31168383,31168175,0.0009752647,-0.05191315,0.164636
31187106,31186895,0.0025673248,-0.03850312,0.16401872
31212062,31211854,0.0040208893,-0.028702782,0.16247565
31227036,31226829,0.001067365,-0.024645865,0.16238151
31248253,31248044,-0.0035694637,-0.021590177,0.1612
31269464,31269259,-0.004707035,-0.019857604,0.16024144
31290692,31290474,-0.0028162054,-0.019710517,0.15845649
31308151,31307945,-0.0069764336,-0.01364922,0.15638617
31329369,31329162,-0.0006365101,-0.008087891,0.15563518
31350584,31350376,-0.003096106,-0.0016245327,0.15365945
31368058,31367847,-0.00010622945,0.0005912655,0.15203662
31388020,31387814,0.0038830757,-0.00043535186,0.15047936
31409242,31409031,0.005822244,-0.00016804296,0.14960593
31431703,31431494,0.011828964,0.004721733,0.14977586
31447924,31447717,0.014123566,0.008482899,0.14755693
31466643,31466436,0.017659271,0.011278438,0.14611074
31491612,31491396,0.018116456,0.015973184,0.14630201
31507822,31507618,0.01823383,0.020550702,0.14447705
31531546,31531336,0.016433513,0.025610395,0.14340074
31551513,31551298,0.01574607,0.031153936,0.14337978
31570234,31570020,0.015778901,0.03788699,0.14230084
31587701,31587490,0.017941507,0.04215703,0.14135875
31608951,31608746,0.009829409,0.04180607,0.14107871
31630132,31629918,0.0056208842,0.04241007,0.1402678
31647599,31647391,-0.00010152953,0.04119946,0.14080454
31668812,31668605,0.0010498068,0.04786533,0.1400541
31690047,31689825,0.0028063417,0.05255688,0.13901633
31710003,31709791,0.004062562,0.04825499,0.14164823
31727463,31727258,0.0076042702,0.037566744,0.1423475
31752428,31752218,0.021433413,0.012237513,0.14321798
31772397,31772188,0.02746166,-0.010637994,0.14443591
31787397,31787191,0.028862793,-0.027637342,0.1456112
31812332,31812121,0.024990186,-0.043358102,0.14742221
31827307,31827094,0.023575224,-0.046501957,0.148163
31853516,31853305,0.020171057,-0.043096207,0.1505102
31873481,31873271,0.012708062,-0.03529752,0.15176924
31890945,31890741,0.011368098,-0.028336823,0.15177403
31909679,31909460,0.012538741,-0.02351468,0.15166807
31927135,31926931,0.009272131,-0.028282274,0.15234746
31948355,31948147,0.020596452,-0.0403301,0.15352294
31969571,31969362,0.022390546,-0.04967227,0.15396899
31990785,31990577,0.031493597,-0.05325866,0.154799
32008258,32008048,0.03308738,-0.05750629,0.15460151
32029479,32029269,0.03820328,-0.05110771,0.15586442
32049442,32049231,0.033609603,-0.038354117,0.15649664
32066910,32066703,0.036302496,-0.0290723,0.15633321
32090629,32090419,0.027430965,-0.029295592,0.15807165
32110597,32110382,0.010517878,-0.03453482,0.15795837
32130559,32130349,0.001662021,-0.040999036,0.1584591
32151778,32151566,-0.007136081,-0.044154428,0.15833102
32170490,32170282,-0.019659217,-0.03785524,0.15819864
32190458,32190249,-0.026102163,-0.02443338,0.15879826
32207926,32207721,-0.024369638,-0.012153508,0.15908773
32227898,32227689,-0.022871148,-0.005886955,0.15858328
32249109,32248904,-0.008827135,0.0001678965,0.1595102
32266581,32266375,-0.004170384,-0.002947587,0.15865967
32287796,32287590,-0.011893874,-0.005476279,0.15893073
32309023,32308809,-0.01212728,-0.0031239793,0.16087142
32330227,32330021,-0.024769431,0.010315135,0.16129576
32347698,32347492,-0.032007582,0.021701558,0.15956332
32370167,32369956,-0.025948877,0.034004305,0.16021252
32390134,32389923,-0.021281045,0.038265556,0.16007978
32411344,32411138,-0.0040796082,0.031396575,0.16044028
32431317,32431106,-9.7021926e-05,0.021943564,0.160244
32450040,32449826,0.008421219,0.0120263975,0.15964966
32472498,32472288,0.014092167,0.003179139,0.15994218
32489969,32489759,0.015814805,-0.00091122906,0.15955086
32508694,32508479,0.010763638,-0.0013361431,0.1589
32529905,32529694,0.0015627872,0.0051064193,0.15839942
32547375,32547165,-0.0069882246,0.012050761,0.15740055
32568592,32568380,-0.012204038,0.020472053,0.15730707
32588558,32588348,-0.019726807,0.028752811,0.15609126
32609769,32609563,-0.012367293,0.031874005,0.15411425
32628503,32628285,-0.003464369,0.038570695,0.15227686
32648471,32648258,0.009013557,0.037742004,0.1521479
32669683,32669468,0.017487578,0.032284357,0.1485686
32689654,32689437,0.026394194,0.025200285,0.14725026
32709620,32709408,0.026478171,0.022285638,0.14528076
32729586,32729377,0.022337899,0.026587479,0.14270186
32749545,32749335,0.016117195,0.03004286,0.14121863
32769531,32769324,0.011978598,0.03401052,0.13984379
32789475,32789268,0.016249763,0.04049143,0.13923173
32809460,32809236,0.02134937,0.043563947,0.13807948
32826918,32826707,0.02230737,0.041806012,0.13641225
32848131,32847922,0.036341753,0.036128324,0.13448954
32869348,32869138,0.04142511,0.03711692,0.13297121
32890564,32890353,0.048873637,0.0379629,0.13310651
32908040,32907825,0.04902294,0.036668792,0.13270563
32928003,32927793,0.047847234,0.03515037,0.13265744
32949212,32949007,0.047401465,0.029589508,0.13070083
32970435,32970222,0.042706355,0.018896043,0.1307038
32989150,32988942,0.03734674,0.005331478,0.13073803
33009123,33008913,0.026970323,-0.009324931,0.12892096
33031585,33031372,0.016172793,-0.018009854,0.12999748
33049055,33048844,0.003752765,-0.018322304,0.12977983
33069031,33068813,-0.005268297,-0.013087809,0.12946089
33088990,33088781,-0.0076371226,-0.0076326896,0.12906343
33108959,33108747,-0.0033524632,0.0013055014,0.12877168
33127682,33127465,0.005552213,0.007403498,0.12818743
33148886,33148680,0.022070853,0.013023561,0.1274519
33170101,33169895,0.030795231,0.011806708,0.12753738
33187575,33187367,0.033429112,0.005621012,0.12662527
33208789,33208582,0.028913649,-0.006379625,0.12728271
33230015,33229797,0.023012294,-0.009145457,0.128373
33249981,33249765,0.01838309,-0.008066654,0.12735365
33268709,33268491,0.009432189,-0.0019450686,0.12652236
33288665,33288452,-0.00022933958,0.005860154,0.12738009
33307377,33307172,-0.01266481,0.011181092,0.12760423
33328598,33328388,-0.024230467,0.011330748,0.12697008
33348566,33348354,-0.032952867,0.009426281,0.12702858
33368537,33368322,-0.035220183,0.0037011215,0.12568149
33388501,33388291,-0.032288544,-0.004156741,0.12627067
33408472,33408258,-0.030332511,-0.009205477,0.12473621
33428438,33428224,-0.026010772,-0.012068421,0.12328985
33449653,33449439,-0.01642213,-0.008609466,0.121587895
33467126,33466910,-0.013791114,-0.0057991846,0.12012153
33489591,33489376,-0.0055599343,-0.004384157,0.119545795
33509548,33509340,-0.0076655634,-0.001978575,0.116311714
33530770,33530556,-0.0047210036,0.0035268874,0.11920708
33548234,33548027,-0.009484954,0.008780808,0.11764615
33569452,33569242,-0.011050962,0.0070197415,0.11779241
33589421,33589209,-0.012435691,0.00011774106,0.118334584
33606895,33606681,-0.008509247,-0.0096345,0.11846173
33628099,33627896,-0.007834125,-0.01738732,0.1181462
33649318,33649111,-0.009106765,-0.018012661,0.11737139
33673034,33672825,-0.014293758,-0.0076555912,0.11541474
33688005,33687798,-0.0160443,0.0006338628,0.11554169
33709222,33709014,-0.009600768,0.009152371,0.115182295
33732938,33732727,-0.0024641561,0.01190825,0.11409801
33747906,33747700,-0.00064183073,0.005842068,0.112084314
33767878,33767668,0.0050174226,-0.0051175905,0.1123922
33789087,33788882,0.010459093,-0.008788407,0.11141571
33812802,33812594,0.008540945,-0.005272525,0.11126483
33827781,33827570,0.004013301,0.0026249685,0.109430246
33848989,33848785,0.0045059477,0.010329566,0.10864612
33870203,33870000,-0.003822254,0.014909396,0.10700933
33887678,33887471,-0.0051449155,0.0116860345,0.104770854
33908893,33908687,-0.012258485,0.0060947565,0.10363897
33928868,33928659,-0.018276062,0.0005977042,0.10319347
33947582,33947374,-0.02028606,0.0025387304,0.10356796
33967560,33967341,-0.020763736,0.008757793,0.10277281
33988770,33988556,-0.01097304,0.01701573,0.10169746
34012478,34012268,-0.0016677938,0.019899115,0.10140383
34027453,34027243,-0.00053528044,0.02219462,0.09966942
34048673,34048459,-0.0037564784,0.021534968,0.10020008
34072380,34072170,-0.008876903,0.020614393,0.098820075
34092349,34092138,-0.011106053,0.017892547,0.09896273
34108568,34108360,-0.010268029,0.015228194,0.099411994
34128537,34128330,-0.0024573384,0.010091037,0.09927966
34149746,34149543,0.0054470683,0.007640398,0.09724061
34167218,34167014,0.01573224,0.0056582736,0.097265914
34188437,34188230,0.019330718,0.0064645214,0.09701745
34210909,34210697,0.017536407,0.007780942,0.09469802
34230870,34230661,0.016599778,0.003776393,0.095341705
34248336,34248132,0.010117249,-0.0070050927,0.09408753
34268304,34268099,0.008755216,-0.020548088,0.09331709
34289528,34289314,-0.00076954113,-0.031056093,0.091779426
34306991,34306786,-0.0020115762,-0.03811486,0.092480294
34328207,34328001,-0.006843571,-0.03897681,0.0912735
34351923,34351713,-0.0075433287,-0.03164973,0.08994975
34371892,34371681,-0.00038276613,-0.022563688,0.09064865
34388110,34387904,0.004000169,-0.016386256,0.08937271
34411826,34411616,0.009585179,-0.0152045,0.08930367
34431791,34431582,0.01978317,-0.021989824,0.088737845
34448021,34447806,0.024343375,-0.0345594,0.08498067
34467982,34467773,0.024339925,-0.046443537,0.08452305
34489191,34488988,0.03129801,-0.058863886,0.083991975
34510422,34510204,0.025027296,-0.06547109,0.08187488
34527880,34527675,0.024124606,-0.061240196,0.0803874
34549099,34548890,0.016130634,-0.047733366,0.07820034
34570315,34570106,0.015058065,-0.03152837,0.07482095
34587786,34587577,0.016592864,-0.021829182,0.073774934
34608999,34608792,0.008938064,-0.017692812,0.07124962
34631466,34631256,0.009043734,-0.023724528,0.068797484
34651435,34651223,0.0004999959,-0.031549975,0.0651898
34667656,34667447,-0.0060559567,-0.03372093,0.06495074
34691369,34691158,-0.01653973,-0.03768199,0.062322468
34711334,34711126,-0.017772367,-0.032718085,0.060797673
34727561,34727351,-0.01913416,-0.025572807,0.0599445
34751269,34751061,-0.01769376,-0.020951282,0.057810172
34769996,34769783,-0.012077212,-0.012057159,0.05808965
34789956,34789747,-0.0042591635,-0.0029095067,0.056164168
34807425,34807218,0.0061903866,0.0039835777,0.054584447
34828640,34828433,0.018094726,0.009105925,0.056109473
34849864,34849653,0.024287876,0.006608505,0.055911675
34867331,34867120,0.018386584,0.00021398952,0.05661417
34888553,34888339,0.011104858,-0.00067697,0.05705943
34909764,34909553,-0.004328997,-0.0071184323,0.05673189
34930977,34930766,-0.02114911,-0.0110608665,0.05733642
34950944,34950735,-0.027092442,-0.013903019,0.05601147
34970912,34970703,-0.032084025,-0.012567864,0.05827812
34990882,34990670,-0.032358184,-0.011363462,0.05676852
35007101,35006892,-0.035488147,-0.0040902686,0.057759684
35030815,35030605,-0.05061013,0.0034591402,0.059295878
35050787,35050573,-0.062400013,0.010252852,0.059297495
35070753,35070540,-0.07311261,0.021959122,0.061840005
35089482,35089269,-0.079869926,0.027039904,0.06443737
35109437,35109225,-0.07925365,0.028102586,0.069171265
35129403,35129192,-0.07147022,0.020245971,0.074248336
35146867,35146663,-0.0605404,0.01113701,0.07722739
35168088,35167882,-0.046540897,-0.002042816,0.08263996
35189312,35189098,-0.036359016,-0.0075792,0.090711124
35210516,35210309,-0.023731245,-0.007721249,0.09531542
35228045,35227836,-0.011910908,-0.004898619,0.100699544
35250461,35250247,0.0041606016,-0.0028025017,0.106823556
35270432,35270213,0.013188802,-0.0019469745,0.113468625
35290388,35290179,0.010916006,0.0012504817,0.11813546
35310357,35310148,0.007512705,0.00060520275,0.121977165
35330324,35330115,-0.0021435726,0.0019714348,0.12724397
35350294,35350081,-0.016737238,0.014629767,0.13426355
35367764,35367555,-0.03075719,0.038253456,0.1391677
35388978,35388769,-0.05357477,0.074188575,0.14404762
35410189,35409983,-0.07489774,0.10575903,0.149775
35427671,35427455,-0.08816881,0.12206828,0.15333228
35448880,35448670,-0.098055065,0.12247803,0.15876028
35470097,35469885,-0.09849888,0.10994058,0.16336857
35487561,35487357,-0.088679925,0.09321311,0.16601539
35508789,35508574,-0.06941885,0.06833643,0.16894254
35528748,35528540,-0.053759865,0.05173307,0.17178236
35549961,35549755,-0.03911207,0.037063647,0.17324783
35567439,35567228,-0.025047127,0.032347515,0.17525554
35588658,35588443,-0.01461181,0.032650705,0.17521524
35609862,35609657,-0.0072308024,0.031938653,0.17621812
35627339,35627129,-0.0049180705,0.02919143,0.17904125
35648566,35648346,-0.0052144118,0.016599396,0.17878093
35668523,35668312,-0.0060323915,-0.0018507089,0.17947972
35689735,35689527,-0.017742824,-0.017838717,0.17735796
35707206,35706998,-0.018044379,-0.026551938,0.1750641
35728430,35728214,-0.03097728,-0.030085633,0.17115526
35767105,35766901,-0.05583998,-0.027607461,0.1623519
35788327,35788117,-0.08786884,-0.038516145,0.15840474
35809563,35809349,-0.11169352,-0.05766014,0.1513133
35827014,35826803,-0.13388187,-0.08099181,0.14412619
35846975,35846770,-0.15596437,-0.10278807,0.13654394
35868192,35867986,-0.15773302,-0.11617704,0.12946542
35889408,35889200,-0.1599448,-0.11785523,0.12028475
35906877,35906672,-0.15149793,-0.110794544,0.11228068
35928097,35927889,-0.13357833,-0.09481374,0.10503557
35949309,35949103,-0.10772404,-0.074248314,0.0972598
35966780,35966574,-0.08460262,-0.06109422,0.092345946
35988024,35987811,-0.05443565,-0.054412846,0.0849316
36008004,36007797,-0.019802215,-0.05366746,0.079334766
36029183,36028973,0.0004131617,-0.050885033,0.07250757
36050424,36050206,0.022453971,-0.049512666,0.06479656
36067875,36067663,0.04007099,-0.04500396,0.05992739
36089089,36088875,0.04786083,-0.03282076,0.05400728
36110295,36110090,0.056956477,-0.014758983,0.048608135
36127771,36127562,0.057490915,0.0025225636,0.045507852
36148985,36148777,0.054088395,0.018755272,0.041139722
36168949,36168745,0.052631162,0.026018899,0.03805356
36190164,36189960,0.041067354,0.029180333,0.033785526
36207658,36207435,0.03968723,0.029290017,0.030950584
36228857,36228651,0.04145322,0.033067167,0.029323574
36247585,36247369,0.04351008,0.037162136,0.026492309
36267546,36267335,0.05225239,0.036714226,0.023093726
36288758,36288549,0.08079532,0.033727016,0.02034057
36309971,36309765,0.110477276,0.034186326,0.01772509
36329937,36329732,0.13191475,0.03474502,0.015249359
36347417,36347205,0.14945133,0.039197616,0.011126768
36368625,36368419,0.15855119,0.04371498,0.003599409
36389844,36389634,0.16915233,0.046532433,-0.0023509972
36407321,36407112,0.16774423,0.047023553,-0.0063054394
36428532,36428321,0.15487671,0.044499625,-0.011655384
36449745,36449537,0.13559598,0.038455684,-0.019482397
36470961,36470752,0.110522576,0.03374392,-0.025354251
36488434,36488224,0.09728117,0.038425706,-0.02850373
36508397,36508191,0.08892776,0.040281132,-0.032558087
36529669,36529459,0.078458294,0.046619426,-0.03919251
36547088,36546879,0.06754763,0.05316539,-0.043101553
36568307,36568093,0.046276078,0.062448353,-0.050372787
36589523,36589313,0.038267862,0.06432195,-0.054691333
36606987,36606781,0.031637244,0.06741742,-0.059586167
36628234,36628028,0.017276118,0.066576354,-0.06349798
36649426,36649211,0.012773635,0.060186982,-0.07112695
36669388,36669179,0.0028136047,0.055195384,-0.07524137
36686859,36686655,-0.0030355505,0.050593812,-0.08067034
36708073,36707866,-0.005200502,0.044531886,-0.085256755
36729286,36729081,-0.016784964,0.038082518,-0.08989712
36750501,36750296,-0.030377725,0.02452735,-0.09431211
36767986,36767773,-0.04498582,0.008787577,-0.09800544
36789194,36788985,-0.06623812,-0.015450822,-0.103319585
36811667,36811450,-0.07395926,-0.03444524,-0.107452355
36827877,36827670,-0.07854348,-0.045637168,-0.111018784
36847858,36847637,-0.079276964,-0.050479162,-0.11447319
36869062,36868856,-0.08184188,-0.049626928,-0.119074084
36890272,36890068,-0.067564145,-0.04187064,-0.12058369
36907745,36907540,-0.05507104,-0.035928447,-0.12128854
36928968,36928755,-0.0517381,-0.032868374,-0.122194335
36951438,36951221,-0.044451185,-0.040303137,-0.123389125
36967661,36967449,-0.04138046,-0.048873484,-0.12259962
36988870,36988658,-0.033101473,-0.058518097,-0.119560495
37010101,37009881,-0.022506526,-0.065939225,-0.11961743
37027559,37027344,-0.011174902,-0.067885846,-0.11967249
37047519,37047312,0.014616036,-0.066821516,-0.1183154
37068732,37068527,0.027211346,-0.07172903,-0.118441924
37091211,37090995,0.0468268,-0.08159724,-0.115597695
37107422,37107214,0.06319349,-0.08507674,-0.1136566
37128634,37128429,0.06358263,-0.086679846,-0.11390903
37149857,37149645,0.069394,-0.08506683,-0.11178084
37171078,37170871,0.05871685,-0.078132406,-0.111374356
37188543,37188332,0.05220048,-0.07121742,-0.10900615
37208504,37208299,0.044104844,-0.06055122,-0.10481626
37230978,37230765,0.034739055,-0.0492531,-0.10037233
37247192,37246986,0.029284373,-0.040712886,-0.09552068
37268418,37268202,0.02055121,-0.030102968,-0.090725124
37289625,37289417,0.017031437,-0.025154585,-0.08535902
37310847,37310632,0.021819502,-0.012546485,-0.079417326
37328308,37328104,0.029883452,-0.001039369,-0.07700703
37349531,37349319,0.04819332,0.0113787055,-0.07272352
37369501,37369287,0.06747025,0.01696749,-0.06880318
37386967,37386759,0.080693975,0.015674148,-0.06471125
37408177,37407973,0.09282202,0.009176595,-0.060531892
37429403,37429193,0.09174526,-0.001869489,-0.05739732
37450676,37450459,0.08833589,-0.012572268,-0.053151663
37468081,37467876,0.079774216,-0.016808549,-0.0504137
37489310,37489091,0.07511018,-0.015591007,-0.04486121
37510537,37510319,0.06762942,-0.0074321777,-0.040379338
37527984,37527778,0.060802747,0.0030019782,-0.038971055
37547951,37547746,0.06036761,0.0134243015,-0.035898976
37569217,37569010,0.061107732,0.018712021,-0.03334378
37590385,37590178,0.05931,0.020392282,-0.03170088
37607859,37607653,0.05432641,0.017484857,-0.029020455
37629128,37628922,0.039879154,0.01648267,-0.029411063
37650297,37650087,0.033568386,0.01768179,-0.025994528
37667762,37667552,0.02237528,0.021171678,-0.02432033
37688970,37688766,0.016417883,0.031136254,-0.023671355
37708939,37708733,0.0049748435,0.049050532,-0.022193858
37730166,37729954,-0.007992929,0.07700358,-0.019671928
37747631,37747421,-0.015653213,0.104439706,-0.017726183
37768846,37768635,-0.023861408,0.14010029,-0.016759682
37790064,37789857,-0.030829018,0.17254816,-0.014850696
37807533,37807323,-0.033188783,0.19100894,-0.012230453
37828744,37828538,-0.034203876,0.19782805,-0.011354054
37849964,37849755,-0.036492307,0.19158897,-0.01222732
37869934,37869723,-0.03890878,0.17846626,-0.013908756
37887407,37887193,-0.047458164,0.16512214,-0.016341697
37908620,37908411,-0.046975162,0.14693633,-0.019342013
37929837,37929625,-0.05846171,0.13431735,-0.023732748
37947306,37947096,-0.0596537,0.12845744,-0.027502498
37969786,37969566,-0.06704142,0.11984063,-0.034348432
37989740,37989530,-0.07903885,0.10585318,-0.040810242
38010947,38010741,-0.09553799,0.088695414,-0.048539065
38028425,38028213,-0.10824585,0.06852683,-0.05498139
38048385,38048180,-0.12904187,0.04971473,-0.061481483
38069605,38069396,-0.14105687,0.03400398,-0.0665881
38087078,38086868,-0.14926492,0.024545288,-0.072086416
38108288,38108083,-0.14963469,0.014343889,-0.07958288
38129546,38129340,-0.159263,0.0067075444,-0.08582708
38150726,38150515,-0.1540096,-0.001601072,-0.09296571
38168195,38167986,-0.14486378,-0.003772024,-0.100238815
38189414,38189201,-0.12982666,-0.0026862253,-0.10968189
38209378,38209170,-0.11984014,0.001888366,-0.12182765
38228098,38227888,-0.09965209,0.0019876119,-0.13074857
38249319,38249106,-0.0778591,-0.00184529,-0.1432413
38269287,38269071,-0.057786915,-0.010533701,-0.1544547
38290497,38290286,-0.041313358,-0.020096455,-0.16159
38307967,38307758,-0.03441563,-0.022864047,-0.17196983
38329180,38328974,-0.02236607,-0.022317234,-0.18099481
38350393,38350188,-0.021903727,-0.015033245,-0.19009617
38367870,38367662,-0.018459946,-0.010727251,-0.19777887
38389094,38388885,-0.010062741,0.0026605069,-0.20551285
38409057,38408852,-0.006912438,0.012773177,-0.21298327
38430262,38430059,-0.0034404742,0.016587047,-0.22015835
38447746,38447531,-0.003670494,0.018034242,-0.22697254
38469019,38468811,-0.003102689,0.017669152,-0.23209709
38490176,38489961,-0.0062697995,0.01810601,-0.23976909
38507642,38507433,-0.006888436,0.017220572,-0.24419488
38528871,38528657,-0.005188057,0.0209796,-0.25115862
38550072,38549864,-0.001264899,0.023246245,-0.2591788
38568796,38568583,0.0054214527,0.026316173,-0.26641193
38590010,38589800,0.028760446,0.028573386,-0.2738932
38609979,38609767,0.050069317,0.03148409,-0.28044316
38629938,38629733,0.07562737,0.03406795,-0.2866866
38647416,38647209,0.094338626,0.039729405,-0.29232797
38668634,38668421,0.115751885,0.046100803,-0.2981255
38689844,38689633,0.11124429,0.046953388,-0.30228025
38707313,38707107,0.09062536,0.03712701,-0.30289787
38728540,38728323,0.060875032,0.021769868,-0.30541843
38748504,38748291,0.014620768,0.002214408,-0.30821082
38769711,38769506,-0.025068816,-0.021534111,-0.30925626
38792182,38791970,-0.056158073,-0.037226282,-0.3104742
38810896,38810689,-0.06379683,-0.044213176,-0.31137767
38830865,38830657,-0.061196633,-0.04604538,-0.3136647
38850829,38850623,-0.045706585,-0.040540025,-0.31731775
38869554,38869344,-0.02423734,-0.038375217,-0.3177097
38890765,38890559,0.0036973697,-0.0437361,-0.32033262
38909488,38909280,0.025099512,-0.050209917,-0.32280695
38926959,38926750,0.045839384,-0.058816046,-0.3233741
38949425,38949214,0.056597173,-0.06550278,-0.3247061
38969397,38969183,0.05731368,-0.0650516,-0.3278324
38986871,38986661,0.060272075,-0.061616465,-0.32855776
39008082,39007868,0.054440897,-0.056025498,-0.33107373
39029348,39029136,0.03946834,-0.04597415,-0.33241218
39050562,39050343,0.01785641,-0.03632812,-0.3352263
39067979,39067771,0.0034874617,-0.025785157,-0.33400658
39087944,39087738,-0.00989388,-0.013631262,-0.33331987
39109166,39108956,-0.03355495,0.0019022049,-0.33437797
39129130,39128921,-0.04214939,0.016376989,-0.33481318
39149102,39148892,-0.05270464,0.023878036,-0.33460203
39169078,39168871,-0.059099663,0.029083094,-0.33661437
39189034,39188824,-0.052122593,0.031604204,-0.335149
39209001,39208792,-0.04596861,0.02447973,-0.3360229
39228972,39228764,-0.03269783,0.02269525,-0.3358416
39248940,39248734,-0.023876758,0.024130488,-0.33816442
39272658,39272444,-0.006267207,0.035342887,-0.3380155
39287625,39287413,0.007252207,0.044800386,-0.33797964
39308889,39308683,0.014967306,0.053179182,-0.33804244
39330064,39329848,0.016487319,0.052642286,-0.33730647
39347522,39347315,0.020290991,0.050169036,-0.3376884
39368737,39368531,0.023062993,0.041038677,-0.33541965
39389951,39389746,0.008088753,0.030760108,-0.334874
39409920,39409714,0.013839984,0.022139505,-0.33289534
39428654,39428438,0.011340128,0.01429693,-0.3332408
39448613,39448403,-0.0030221343,0.010477258,-0.33284816
39468587,39468369,-0.00499194,0.01267004,-0.33055785
39488548,39488337,-0.011238196,0.007147578,-0.33004418
39509761,39509553,-0.01999576,-0.0045730253,-0.32807747
39528480,39528272,-0.024580617,-0.023092091,-0.3252636
39548449,39548240,-0.030131925,-0.040415116,-0.3241521
39568420,39568206,-0.03130282,-0.0535719,-0.32202202
39588381,39588174,-0.025526121,-0.057387758,-0.31962195
39609608,39609391,-0.02483796,-0.050047677,-0.3167419
39627074,39626863,-0.015714142,-0.037146896,-0.3156174
39648280,39648076,-0.003048479,-0.021834277,-0.31184453
39669496,39669291,0.00872566,-0.014927922,-0.3099978
39690718,39690511,0.024344023,-0.01988781,-0.30947945
39708185,39707979,0.038724784,-0.034053065,-0.30923986
39728157,39727947,0.052989602,-0.04989735,-0.30700058
39748124,39747914,0.0634531,-0.06728958,-0.3053132
39768097,39767887,0.073161565,-0.077437915,-0.30489883
39788061,39787851,0.08442499,-0.07667824,-0.3053058
39808026,39807818,0.09244338,-0.073589236,-0.30559355
39827992,39827785,0.09926783,-0.06984947,-0.30616835
39849212,39849002,0.10163657,-0.0725182,-0.30713862
39869171,39868967,0.09918178,-0.08021657,-0.30860066
39891641,39891432,0.09711145,-0.08687118,-0.31036493
39907869,39907658,0.09403293,-0.08677516,-0.31005672
39929083,39928875,0.07699435,-0.08154938,-0.3108652
39949042,39948837,0.06978528,-0.06408995,-0.31146026
39970268,39970053,0.06070895,-0.046608128,-0.3115793
39987780,39987571,0.057070866,-0.03708159,-0.31252438
40008944,40008740,0.04335849,-0.026439246,-0.31412128
40030160,40029956,0.035207234,-0.021864947,-0.31422877
40047639,40047428,0.027114375,-0.015927583,-0.31331536
40068904,40068695,0.0052099843,-0.008714618,-0.3155479
40090063,40089858,-0.009550802,0.006372225,-0.31758752
40107550,40107330,-0.0225616,0.024747606,-0.31746057
40127529,40127318,-0.043728232,0.0493289,-0.3202819
40148725,40148514,-0.061155234,0.07803467,-0.32236156
40172436,40172225,-0.082781546,0.10721943,-0.32448605
40187412,40187200,-0.09290808,0.12330298,-0.3284683
40208622,40208415,-0.10248402,0.14486213,-0.33055073
40232339,40232129,-0.11095037,0.1663628,-0.33437532
40268532,40268318,-0.09271424,0.17771581,-0.3394965
40289740,40289532,-0.06884485,0.16787891,-0.34364134
40309708,40309501,-0.03610013,0.14511737,-0.3473552
40327176,40326972,-0.01894751,0.12691967,-0.3507191
40348402,40348188,-0.0012852573,0.10890492,-0.3542283
40369610,40369405,0.0076728947,0.10204701,-0.35701495
40390831,40390619,0.0012739678,0.10150027,-0.35980153
40408326,40408118,-0.008160766,0.10500607,-0.36374912
40432018,40431805,-0.0259937,0.10850387,-0.36693183
40454478,40454268,-0.04147206,0.09351545,-0.3716029
40466980,40466776,-0.047696963,0.08055328,-0.3740446
40488177,40487963,-0.058300007,0.058052603,-0.37741655
40511884,40511674,-0.06710622,0.032095615,-0.3811443
40531853,40531641,-0.07146936,0.013441998,-0.3852505
40548071,40547864,-0.064032294,0.0032551107,-0.38845572
40571791,40571579,-0.047698595,0.0017080051,-0.39289
40590512,40590296,-0.027049191,0.0076644365,-0.39703226
40607977,40607766,-0.008799134,0.0076452615,-0.39952466
40627953,40627737,0.016101018,0.0037266854,-0.4021309
40650427,40650200,0.037820432,-0.00687798,-0.4031029
40670379,40670168,0.04878537,-0.022924203,-0.40534395
40687847,40687636,0.06222311,-0.037029207,-0.4062356
40709071,40708856,0.0704059,-0.0539302,-0.40785486
40730277,40730067,0.08184882,-0.058868773,-0.4085936
40747744,40747539,0.08391349,-0.055680983,-0.40795034
40773958,40773748,0.09483667,-0.04188321,-0.4096782
40791482,40791271,0.09419215,-0.031600725,-0.40926838
40811402,40811190,0.09391749,-0.024448257,-0.41022345
40827617,40827409,0.088328384,-0.024831707,-0.41069472
40851337,40851123,0.084947094,-0.031981267,-0.4127335
40873795,40873585,0.08231682,-0.04292725,-0.4114826
40887518,40887312,0.07703819,-0.046731804,-0.4126315
40908734,40908527,0.062159564,-0.056776177,-0.4134248
40929960,40929745,0.05734885,-0.059896432,-0.4134585
40947428,40947215,0.045427043,-0.061748058,-0.41200158
40967396,40967190,0.036905684,-0.05454028,-0.41228393
40988609,40988400,0.023245782,-0.046358075,-0.4117626
41007329,41007118,0.012006155,-0.036538754,-0.41099542
41027322,41027116,-0.00075090583,-0.028298488,-0.41050714
41048505,41048300,-0.00807589,-0.02471194,-0.40704238
41070974,41070764,-0.020890865,-0.021811498,-0.40649918
41090947,41090734,-0.028595887,-0.023018293,-0.4049234
41110915,41110700,-0.036957305,-0.023006916,-0.40429616
41130881,41130668,-0.042354252,-0.016813532,-0.4025538
41147098,41146890,-0.038506467,-0.011111781,-0.40162084
41167061,41166858,-0.02898759,-0.007245034,-0.4010389
41190780,41190570,-0.009507452,0.002274409,-0.4010072
41210752,41210538,0.0054403925,0.02044249,-0.40161517
41230712,41230505,0.015691765,0.038056135,-0.40108865
41248204,41248000,0.025059648,0.0549318,-0.40089253
41269401,41269192,0.019787356,0.063972585,-0.4009449
41290627,41290417,0.01780751,0.06627918,-0.39919567
41306845,41306632,0.012563406,0.069023624,-0.397939
41328099,41327892,0.002729523,0.07065605,-0.3981309
41349282,41349066,-0.0027805222,0.06714702,-0.39667124
41370482,41370278,-0.011461512,0.06246158,-0.3966819
41390461,41390247,-0.012547339,0.050120138,-0.39558113
41410433,41410214,-0.0053289114,0.032993037,-0.39580673
41431634,41431428,-0.0040514106,0.015748201,-0.39632112
41451606,41451397,0.011305586,0.006797301,-0.3936983
41472828,41472613,0.01281331,0.0076492853,-0.39226228
41492795,41492580,0.018588074,0.010489669,-0.39216807
41511511,41511300,0.0191744,0.012946989,-0.39107153
41527728,41527522,0.015057704,0.013174005,-0.39149755
41548946,41548738,0.011093466,0.009673193,-0.39089784
41570161,41569954,0.003952429,-2.7910806e-05,-0.39046046
41587680,41587464,0.0018468066,-0.011677798,-0.39114115
41608851,41608641,-0.0028878693,-0.028971465,-0.3926986
41630061,41629856,0.0007348689,-0.039547414,-0.3926136
41648791,41648577,0.0009275591,-0.047370225,-0.39158928
41668790,41668580,0.0038132363,-0.053696673,-0.39102563
41689976,41689765,0.0016623163,-0.05126703,-0.3935454
41709936,41709727,-0.0041067805,-0.049751505,-0.39389047
41731151,41730943,-0.0045939265,-0.052302342,-0.39252445
41751117,41750910,-0.014862091,-0.056576073,-0.39184532
41769846,41769631,-0.018180203,-0.06472968,-0.39210156
41789810,41789598,-0.019010805,-0.0750749,-0.39251915
41809777,41809565,-0.027720768,-0.08199507,-0.39618912
41829745,41829533,-0.028819509,-0.083621055,-0.3970205
41849715,41849501,-0.03046022,-0.08384017,-0.39797577
41869688,41869468,-0.028721698,-0.08061736,-0.40115246
41887152,41886941,-0.027437266,-0.07713807,-0.40220347
41909614,41909404,-0.029544737,-0.0687294,-0.402899
41927080,41926874,-0.02652761,-0.06171484,-0.40419826
41948299,41948091,-0.031391405,-0.051685657,-0.4067937
41969519,41969305,-0.02898439,-0.042192448,-0.4092238
41986982,41986777,-0.02333754,-0.029905396,-0.41092116
42009454,42009243,-0.023277797,-0.010717051,-0.41156185
42029423,42029213,-0.019865192,1.336541e-05,-0.41309747
42049393,42049179,-0.017899405,0.00780653,-0.41698086
42069354,42069143,-0.0110191945,0.013090827,-0.41795912
42089320,42089111,-0.003827265,0.016199766,-0.4183496
42109294,42109079,0.0018081004,0.022692876,-0.42010638
42129254,42129046,0.012106445,0.032293152,-0.42089543
42147978,42147766,0.02028977,0.038364682,-0.42205498
42169207,42168984,0.022891855,0.040688,-0.42579532
42189152,42188948,0.031757925,0.040078424,-0.42831743
42210370,42210165,0.029054249,0.035309926,-0.43110454
42227853,42227636,0.027604999,0.027388653,-0.43246245
42247817,42247604,0.023577739,0.021197472,-0.43392918
42270271,42270067,0.018232597,0.0129405055,-0.43656924
42287752,42287539,0.016455045,0.008563124,-0.4372072
42308962,42308755,0.013916101,0.0040295417,-0.43911636
42328931,42328723,0.0018215333,0.00097068213,-0.44066927
42350146,42349938,-0.008568322,6.439211e-05,-0.4428165
42367622,42367411,-0.009535557,0.0043145367,-0.4437544
42387594,42387379,-0.02115566,0.010071939,-0.44496423
42410051,42409841,-0.026562346,0.010984182,-0.44706738
42427521,42427312,-0.0265685,0.008808175,-0.44891953
42448736,42448528,-0.02250478,0.00024675485,-0.45256695
42469954,42469745,-0.016219173,-0.01063576,-0.45312923
42489921,42489711,-0.00896186,-0.02573095,-0.454663
42507390,42507183,-0.015385024,-0.032773323,-0.45512652
42528611,42528399,-0.028244523,-0.034436375,-0.4562135
42549824,42549617,-0.03495361,-0.029523302,-0.4597771
42567290,42567085,-0.043392982,-0.021855872,-0.46026522
42588511,42588301,-0.04260008,-0.005003187,-0.46251443
42608481,42608271,-0.036467258,0.012228848,-0.46486005
42630942,42630733,-0.034235813,0.040812552,-0.4658007
42648411,42648203,-0.027954102,0.062194984,-0.46711746
42668379,42668172,-0.024272222,0.079458416,-0.46844926
42688348,42688140,-0.017888814,0.09585434,-0.4694705
42707065,42706860,-0.014710879,0.10207686,-0.4695011
42728286,42728077,-0.0131898075,0.1035545,-0.4705118
42748258,42748043,-0.0034805606,0.10349645,-0.47060865
42773213,42773003,0.00927264,0.09589362,-0.4741737
42788183,42787977,0.011302084,0.089580536,-0.47528106
42809402,42809193,0.016276589,0.0820166,-0.47575635
42833112,42832905,0.01782135,0.073549256,-0.47804597
42848084,42847879,0.016316598,0.06823822,-0.47939926
42868059,42867849,0.013271408,0.055641398,-0.4804708
42889274,42889063,0.023630941,0.042443212,-0.48110408
42910488,42910278,0.02199388,0.027540453,-0.48160526
42927954,42927750,0.030049497,0.020328388,-0.4813884
42949178,42948968,0.03153324,0.0055544768,-0.4825955
42970386,42970181,0.0330328,-0.010558938,-0.4824258
42987860,42987657,0.038899437,-0.023142993,-0.48231918
43009074,43008869,0.041962415,-0.037521027,-0.48179498
43034040,43033830,0.055750214,-0.051138163,-0.4817878
43052768,43052555,0.058704153,-0.061945006,-0.48155504
43067733,43067524,0.06335175,-0.07318638,-0.4814383
43092703,43092484,0.07044886,-0.08126069,-0.48163855
43107676,43107460,0.076112464,-0.08265598,-0.48244724
43127632,43127427,0.08083354,-0.0824781,-0.48385566
43148850,43148642,0.07915347,-0.083030224,-0.4861662
43170066,43169858,0.081349626,-0.08510874,-0.48737362
43187563,43187346,0.084755346,-0.08797425,-0.48729023
43207504,43207297,0.08306721,-0.089868695,-0.48958707
43228723,43228513,0.0746419,-0.10044652,-0.4886005
43249934,43249729,0.05483448,-0.122713834,-0.48905578
43267407,43267200,0.028416818,-0.14068732,-0.48456076
43288630,43288416,-0.009213587,-0.1378525,-0.48135763
43309840,43309631,-0.041191705,-0.114283904,-0.47759402
43328557,43328351,-0.07385193,-0.082838655,-0.47404963
43348537,43348319,-0.1055398,-0.04359893,-0.4725837
43368499,43368287,-0.12675323,-0.014798148,-0.46877703
43392211,43392000,-0.1399754,0.0076986947,-0.46385375
43407180,43406973,-0.14536315,0.012820048,-0.462571
43428405,43428189,-0.14109457,0.017456627,-0.45930317
43452109,43451901,-0.1348741,0.012430128,-0.45546708
43472080,43471871,-0.12739237,0.009487107,-0.45308524
43488304,43488092,-0.11525236,0.006856593,-0.4507587
43509519,43509307,-0.11201089,0.012756586,-0.4485068
43529487,43529275,-0.10216768,0.015919881,-0.44692215
43548218,43547997,-0.09533974,0.019342793,-0.44456363
43568166,43567962,-0.09459706,0.025520068,-0.44427636
43589394,43589178,-0.08444251,0.027042503,-0.44080153
43610611,43610394,-0.079891674,0.03466929,-0.43569762
43628072,43627865,-0.08251952,0.036037493,-0.43440148
43653039,43652826,-0.076089695,0.0353341,-0.4323783
43674289,43674079,-0.068870276,0.0295891,-0.43099782
43691726,43691516,-0.060749687,0.021917403,-0.42901897
43707941,43707736,-0.052388716,0.015906585,-0.4262532
43731664,43731448,-0.03748717,0.012868744,-0.4241766
43754130,43753912,-0.019316083,0.01516422,-0.4233035
43767847,43767639,-0.010934582,0.017275486,-0.42283905
43791569,43791355,0.015709026,0.014829316,-0.42027646
43810287,43810071,0.028509043,0.0072678663,-0.4189599
43827750,43827543,0.03466875,-0.001117948,-0.41720068
43850222,43850008,0.04431705,-0.0101789525,-0.4146187
43868933,43868726,0.047171276,-0.018841883,-0.41291317
43890150,43889941,0.04700361,-0.026267964,-0.41203558
43908876,43908664,0.041806668,-0.03069183,-0.41062236
43928833,43928628,0.03188068,-0.030865004,-0.40778542
43950056,43949845,0.022406273,-0.03104026,-0.40545204
43967526,43967316,0.020257916,-0.027246434,-0.40404192
43991255,43991046,0.01651838,-0.022484886,-0.40550777
44012457,44012245,0.015904075,-0.018595275,-0.40685517
44027426,44027220,0.015345266,-0.01941391,-0.4065544
44047395,44047188,0.011408102,-0.02484832,-0.406814
44071105,44070898,0.0058112545,-0.036898255,-0.40473747
44091080,44090868,0.00069518713,-0.04784156,-0.4043503
44107305,44107090,-0.010764701,-0.04997912,-0.40665892
44128517,44128311,-0.011147525,-0.04570125,-0.40612534
44149736,44149521,-0.016548727,-0.035162903,-0.40632796
44170943,44170736,-0.008425862,-0.026681324,-0.40778548
44188418,44188208,-0.002038408,-0.021980628,-0.40913126
44208379,44208175,-0.0055736667,-0.025692575,-0.41080996
44230848,44230639,-0.012046694,-0.029946286,-0.4122548
44268282,44268078,-0.028493725,-0.04204793,-0.41378212
44291999,44291790,-0.02860206,-0.044147454,-0.41508394
44310721,44310511,-0.026220681,-0.044010125,-0.41577387
44330696,44330479,-0.018682906,-0.044216387,-0.41689584
44350660,44350445,-0.0051815445,-0.04296432,-0.41794035
44370629,44370421,0.0030401303,-0.038967956,-0.4187081
44390596,44390382,0.0070718387,-0.03483783,-0.41804478
44410556,44410348,0.0063704713,-0.032376025,-0.4189014
44429279,44429069,0.0082958415,-0.024838537,-0.41968825
44450490,44450284,0.011646971,-0.011769079,-0.41795307
