timestamp,timestamp_sample,states[0],states[1],states[2],states[3],states[4],states[5],states[6],states[7],states[8],states[9],states[10],states[11],states[12],states[13],states[14],states[15],states[16],states[17],states[18],states[19],states[20],states[21],states[22],states[23],covariances[0],covariances[1],covariances[2],covariances[3],covariances[4],covariances[5],covariances[6],covariances[7],covariances[8],covariances[9],covariances[10],covariances[11],covariances[12],covariances[13],covariances[14],covariances[15],covariances[16],covariances[17],covariances[18],covariances[19],covariances[20],covariances[21],covariances[22],covariances[23],n_states
22227460,22226924,0.98868924,-0.0015883651,0.005669308,-0.14986297,-0.03629826,0.015253141,0.013041178,-0.014078046,0.010739697,0.37668392,1.1910392e-05,9.52751e-06,1.146056e-06,0.0,0.0,0.0005514285,0.3851379,8.7792795e-09,0.22200416,0.0,0.0,0.0,0.0,0.0,2.4414396e-06,3.114552e-05,3.1151107e-05,0.000108631386,0.056222223,0.05621822,0.07232617,0.0781785,0.078175925,0.4864443,4.4787216e-10,4.480098e-10,1.0621e-09,4.0000004e-06,4.0000004e-06,1.9259508e-07,0.0,0.0,0.0,0.0,0.0,0.0,0.0,0.0,24
23223426,23222777,0.9891119,-0.0015382885,0.006511848,-0.14701307,-0.1505852,0.030972106,-0.0043296735,-0.07331714,0.018989014,0.3681425,1.2114126e-05,1.0976653e-05,-3.054801e-06,-4.9808038e-09,-7.4551676e-10,0.0005619123,0.3851379,8.7792795e-09,0.22200416,0.0,0.0,0.0,0.0,0.0,2.4958201e-06,2.497729e-05,2.4980445e-05,0.000108650616,0.05810294,0.05810964,0.05818221,0.095423274,0.09542292,0.4482258,2.919106e-10,2.9198588e-10,9.376953e-10,4.0000023e-06,4.0000023e-06,1.3502401e-07,0.0,0.0,0.0,0.0,0.0,0.0,0.0,0.0,24
24227968,24227610,0.99203134,0.00045713183,0.016241344,-0.12493952,-0.35488263,-0.04300827,-0.15199219,-0.34100187,0.03489283,0.24256453,1.2196552e-05,1.1096277e-05,-2.0213698e-05,-1.6463142e-06,-1.7059958e-07,0.00055053225,0.3851379,8.7792795e-09,0.22200416,0.0,0.0,0.0,0.0,0.0,2.0922257e-06,3.3952405e-05,3.3935183e-05,0.00010795253,0.17788935,0.17794305,0.04763399,0.35064876,0.3506848,0.4148649,2.9136496e-10,2.9144248e-10,8.198026e-10,3.9986057e-06,3.998608e-06,9.792155e-08,0.0,0.0,0.0,0.0,0.0,0.0,0.0,0.0,24
29216997,29216635,0.8955107,0.011625695,-0.0069942437,0.44483325,-0.33116055,0.283595,-0.44288594,-1.5280066,-0.0011957036,-0.9097162,9.855378e-06,1.7650738e-05,-0.00010455266,-0.0007390139,-0.00022479625,0.00048336157,0.3851379,8.7792795e-09,0.22200416,0.0,0.0,0.0,0.0,0.0,1.5995955e-05,6.0154514e-05,6.0140967e-05,8.194798e-05,0.90505934,0.90517944,0.02405903,9.982904,9.985526,0.32100058,2.087745e-10,2.0874633e-10,4.1161932e-10,2.8195093e-06,2.819353e-06,5.0000093e-08,0.0,0.0,0.0,0.0,0.0,0.0,0.0,0.0,24
30230896,30226235,0.8238378,0.00478575,-0.0024602907,0.5668001,-0.34676525,0.33595133,-0.4733808,-1.1879158,0.27656662,-1.3734981,9.559414e-06,1.8828025e-05,-0.00010827261,-0.0009073451,-0.00020702131,0.00046629578,0.2919212,-0.00012112925,0.1696082,-0.009354717,-0.003965822,0.001116157,0.0,0.0,0.0008308553,6.0922215e-05,6.0950064e-05,0.0017667675,0.7213719,0.7214155,0.022297265,10.340409,10.34182,0.30767202,1.9352862e-10,1.9344996e-10,3.8937728e-10,2.5094466e-06,2.5099694e-06,5.000009e-08,0.0012461013,3.1891093e-05,0.0012749818,0.0007708442,0.0011032167,0.0012748031,0.0,0.0,24
31222473,31222097,0.751301,0.009978895,-0.0039018292,0.65987283,-0.36785695,0.3581596,-0.22569275,-0.9825518,0.44436723,-1.7261722,9.461875e-06,1.9589492e-05,-0.00010819033,-0.0010130483,-0.00014931346,0.00045645065,0.2874435,-4.2410837e-05,0.17182675,-0.00775399,-0.01039135,0.002905348,0.0,0.0,0.0011282352,6.245901e-05,6.2658626e-05,0.0014716157,0.6128824,0.61333096,0.021615298,9.837125,9.837698,0.3030352,1.8452644e-10,1.8438084e-10,3.9013537e-10,2.2992335e-06,2.3008936e-06,5.0000452e-08,0.0010688994,2.96621e-05,0.0012587972,0.0006239667,0.0009429578,0.0012584038,0.0,0.0,24
32222862,32222451,0.69813687,0.017174136,-0.0041492013,0.71574634,-0.39501944,0.35928547,-0.06993217,-0.8935229,0.55841327,-1.7123666,9.371252e-06,2.0129508e-05,-0.000108110515,-0.001076403,-7.274985e-05,0.0004458926,0.29074392,5.3366486e-05,0.17216372,-0.0117288465,-0.008620191,0.0037708941,0.0,0.0,0.0013296611,6.468144e-05,6.537706e-05,0.0012727933,0.6083861,0.6092879,0.02123086,9.139391,9.139693,0.29187334,1.7948204e-10,1.7925317e-10,3.9093784e-10,2.1425326e-06,2.145626e-06,5.000027e-08,0.0009537215,2.7639933e-05,0.0012549425,0.00043875127,0.0008716629,0.0012545971,0.0,0.0,24
33228192,33227572,0.6546152,0.013462394,0.0014255921,0.75584114,-0.46225035,0.35116142,-0.25647235,-0.8956014,0.6580282,-1.934872,9.201134e-06,2.0574143e-05,-0.00010764119,-0.0011082657,1.65676e-05,0.00043643193,0.29459354,0.00037865574,0.17170529,-0.023313861,-0.009229812,0.005504136,0.0,0.0,0.0007476799,6.757528e-05,6.777777e-05,0.00052885665,0.6668949,0.667427,0.021439875,8.683991,8.683204,0.28611532,1.76203e-10,1.758938e-10,3.9097875e-10,2.0078394e-06,2.0123905e-06,5e-08,0.0,0.0,0.0,0.0,0.0,0.0,0.0,0.0,24
35224554,35223913,0.5894158,0.014230402,-0.0071915393,0.8076725,-0.62504256,0.14632522,0.3030371,-1.1748972,0.6006902,-2.004488,8.5121455e-06,2.1236343e-05,-0.00010699765,-0.0011101138,0.00019442572,0.00043354245,0.29459354,0.00037865574,0.17170529,-0.023313861,-0.009229812,0.005504136,0.0,0.0,0.00013867443,7.520109e-05,7.514076e-05,6.554286e-05,0.8423739,0.8425502,0.022648646,9.171896,9.167984,0.28472182,1.7109557e-10,1.7068412e-10,3.9044998e-10,1.7802029e-06,1.7872976e-06,5.000003e-08,0.0,0.0,0.0,0.0,0.0,0.0,0.0,0.0,24
36229491,36228952,0.5337561,0.0019208944,-0.028447516,0.8451576,-0.35471472,0.13911542,0.15571591,-1.1700351,0.47795403,-1.7326071,7.949404e-06,2.142923e-05,-0.00010707137,-0.0010982379,0.00029345838,0.00043777135,0.29459354,0.00037865574,0.17170529,-0.023313861,-0.009229812,0.005504136,0.0,0.0,0.000107814274,7.975289e-05,7.945524e-05,3.824893e-05,0.8889679,0.88973653,0.023025442,9.329371,9.326882,0.28513154,1.6805525e-10,1.6761464e-10,3.8918965e-10,1.6628433e-06,1.6709545e-06,5e-08,0.0,0.0,0.0,0.0,0.0,0.0,0.0,0.0,24
38221286,38220876,0.5767587,-0.009570393,-7.712823e-05,0.81685865,-0.10154704,-0.03554144,0.1631281,-0.63880026,0.30471352,-1.6052152,7.168106e-06,2.1542133e-05,-0.00010574982,-0.0010559581,0.00041930395,0.00044452545,0.29459354,0.00037865574,0.17170529,-0.023313861,-0.009229812,0.005504136,0.0,0.0,6.769109e-05,8.981175e-05,8.942512e-05,3.0202717e-05,0.86902994,0.8709191,0.023426047,9.437101,9.441068,0.2893535,1.6349039e-10,1.6296683e-10,3.8234738e-10,1.4829774e-06,1.4926777e-06,5.000009e-08,0.0,0.0,0.0,0.0,0.0,0.0,0.0,0.0,24
39222214,39221535,0.6758536,-0.008653286,-0.010451674,0.736911,0.2708277,-0.3316557,0.064508736,-0.28993168,0.07926943,-1.461954,7.4439986e-06,2.2142765e-05,-0.00010410061,-0.000992119,0.0004000091,0.00045004694,0.30498812,0.00084687263,0.17236583,-0.018108722,-0.021732094,0.0056874887,0.0,0.0,5.1294723e-05,9.386401e-05,9.3654635e-05,3.8759063e-05,0.8203047,0.82132894,0.023275945,9.382868,9.385794,0.28841347,1.6088496e-10,1.5993093e-10,3.7773676e-10,1.4124146e-06,1.4259015e-06,5.000009e-08,0.000434605,2.4010133e-05,0.00065403245,0.00010966368,0.00042458155,0.0006545313,0.0,0.0,24
41227395,41227025,0.89166963,-0.00034349939,-0.00902623,0.45259684,0.4342774,-0.51447445,0.070914395,0.48024917,-0.41973868,-1.8133312,6.8983027e-06,2.5479203e-05,-9.6490876e-05,-0.0006883034,0.00037005133,0.00046012684,0.334221,0.002705428,0.17619278,-0.01413146,0.014043985,0.0076042917,0.0,0.0,2.1974185e-05,0.000104387625,0.00010514592,7.389802e-05,0.7523987,0.7493191,0.023126414,10.004832,9.993623,0.2932426,1.5837173e-10,1.5727172e-10,3.693517e-10,1.3397847e-06,1.3601402e-06,5.0000285e-08,0.0001901786,2.0957938e-05,0.00063627615,6.1672516e-05,0.0001836755,0.0006365141,0.0,0.0,24
42227956,42227354,0.9635379,-0.000118535885,-0.015998486,0.2670937,0.27122387,-0.4579379,-0.08453874,0.5238914,-0.60712206,-1.891751,5.878665e-06,2.6354799e-05,-9.434462e-05,-0.000596352,0.00043467796,0.00046151865,0.33284667,0.0034143585,0.17676832,-0.016757933,0.013320182,0.007583902,0.0,0.0,8.187246e-06,0.00010566024,0.00010707634,8.4788895e-05,0.73011184,0.72230136,0.022650562,9.704762,9.673368,0.29033342,1.5575116e-10,1.5446133e-10,3.595546e-10,1.3090349e-06,1.3360009e-06,5.0000093e-08,9.650612e-05,1.9205523e-05,0.0006341807,4.653169e-05,8.840367e-05,0.00063443644,0.0,0.0,24
43223865,43223341,0.9992827,0.0045270403,-0.007908792,0.036756866,0.13017999,-0.272352,0.15824243,0.44446358,-0.5970925,-1.9234825,5.2846453e-06,2.7516497e-05,-9.1347254e-05,-0.00049163104,0.0004662358,0.00046195477,0.325393,0.00411787,0.17675777,-0.018375358,0.0056617474,0.007138257,0.0,0.0,6.1871634e-07,0.00010248784,0.00010532448,8.8208224e-05,0.7662903,0.7495475,0.0224623,9.433985,9.373325,0.29384214,1.525789e-10,1.5017097e-10,3.4607536e-10,1.2840727e-06,1.3196467e-06,5.000009e-08,5.4369702e-05,1.766182e-05,0.00063270674,3.2164124e-05,4.6124285e-05,0.000632945,0.0,0.0,24
45231233,45228842,0.9178468,-0.00037498644,-0.024357505,-0.39618692,0.09015166,0.29734123,0.09559481,0.069851056,0.3056316,-2.173565,4.888702e-06,3.333992e-05,-6.8708214e-05,3.0873183e-05,0.00037441266,0.00045581345,0.3003749,0.0068478277,0.16897799,-0.021794701,-0.022918958,0.012377344,0.0,0.0,1.1817487e-05,8.3182356e-05,8.7117325e-05,7.269252e-05,1.0455796,0.9943597,0.021615826,9.4026375,9.251234,0.2864418,1.4121733e-10,1.3465641e-10,3.1640013e-10,1.2132275e-06,1.2733101e-06,5e-08,2.4533709e-05,1.551814e-05,0.00062450295,1.5952097e-05,1.6928649e-05,0.00062470726,0.0,0.0,24
46229309,46224831,0.80096966,-0.0021666521,-0.011273287,-0.59859484,-0.0029207172,0.65155363,-0.19075261,-0.08880212,0.87523746,-2.364165,4.1169865e-06,3.5141602e-05,-4.6333877e-05,0.00025535325,0.00039467073,0.00045190175,0.2926448,0.008808301,0.17158978,-0.024839154,-0.03516808,0.009089911,0.0,0.0,2.760282e-05,6.753815e-05,7.074454e-05,5.8032376e-05,1.1950467,1.1285331,0.021731159,9.649727,9.462099,0.28980088,1.3000613e-10,1.2293219e-10,3.0049013e-10,1.1365362e-06,1.2045853e-06,5e-08,1.8404367e-05,1.4765714e-05,0.0006213195,1.2298835e-05,1.17307345e-05,0.00062133744,0.0,0.0,24
48218307,48216966,0.4866381,-0.0006999124,-0.004459947,-0.873592,-0.16505866,1.3808284,-0.016339513,-0.6586553,2.3090103,-2.6169088,1.4080839e-06,3.5590943e-05,-3.1591223e-06,0.00046547706,0.00062528375,0.00044541224,0.2910428,0.011366679,0.17941028,-0.031363994,-0.048545074,-0.00027605315,0.0,0.0,6.1776256e-05,3.9853585e-05,3.9599876e-05,2.5284704e-05,1.3027902,1.2278321,0.021788482,11.194617,10.945542,0.28304267,1.0408265e-10,1.00195095e-10,2.6330363e-10,9.267082e-07,9.842839e-07,5e-08,1.1466267e-05,1.3623979e-05,0.00061239384,8.314292e-06,6.925747e-06,0.0006118201,0.0,0.0,24
50224776,50222474,0.15534817,-0.0032313305,0.0043549803,-0.98784494,-0.009595573,1.510577,0.017036928,-0.5358171,2.9073176,-2.7133453,1.7456878e-07,3.272389e-05,9.364252e-06,0.00025187602,0.00076455675,0.00041626923,0.29582822,0.012238173,0.17479816,-0.03670744,-0.051660527,0.003199668,0.0,0.0,8.140143e-05,2.0710164e-05,2.0150834e-05,4.2846214e-06,1.022248,0.9759129,0.022343233,10.941465,10.734988,0.2857175,8.1094e-11,8.132411e-11,2.1970542e-10,6.839395e-07,7.1038727e-07,5e-08,7.4948425e-06,1.2681929e-05,0.0006029073,6.172016e-06,5.3112867e-06,0.00060221547,0.0,0.0,24
51228162,51227353,0.03523787,-0.007705672,0.0069881394,-0.9993248,-0.018457962,1.2488123,-0.11458622,-0.36723724,2.8676717,-2.6349926,1.809933e-07,3.1192834e-05,1.5104401e-06,9.122265e-05,0.0007840206,0.00039692363,0.29780087,0.012747372,0.17043783,-0.0390869,-0.05135379,0.007429115,0.0,0.0,8.297458e-05,1.5604637e-05,1.5267837e-05,1.0349082e-06,0.85429233,0.8219545,0.022192424,10.519445,10.341495,0.28511444,7.4016966e-11,7.526651e-11,1.9745927e-10,5.8221195e-07,5.981538e-07,5.000009e-08,6.2634376e-06,1.2232671e-05,0.00059598585,5.4106104e-06,4.9684227e-06,0.00059531524,0.0,0.0,24
52228442,52227990,5.2668904e-05,-0.025094204,-0.001869136,-0.9996834,-0.08306325,1.1762632,0.15029143,-0.34179178,2.7966223,-2.669241,-1.8843318e-07,2.9961222e-05,-9.385765e-06,-3.9233943e-05,0.0008029025,0.00038368837,0.29834893,0.013348629,0.16957046,-0.04043805,-0.05050049,0.007950918,0.0,0.0,8.2009145e-05,1.2564304e-05,1.2369136e-05,5.600787e-07,0.7078763,0.68641484,0.021800613,9.970989,9.822661,0.28305152,6.944579e-11,7.1107106e-11,1.781117e-10,4.993952e-07,5.0839816e-07,5e-08,5.3942763e-06,1.1794907e-05,0.00058932597,4.8534807e-06,4.77337e-06,0.00058866246,0.0,0.0,24
54224911,54224387,-0.0062596933,-0.013122464,0.0076312884,-0.9998652,-0.35984173,0.86789626,0.33988982,-0.5646054,2.489484,-2.1760159,2.4485792e-07,2.8462517e-05,-2.0173331e-05,-0.00026124416,0.0007398389,0.00039210366,0.29847088,0.01371796,0.16994442,-0.041062895,-0.050052952,0.0073395814,0.0,0.0,7.543501e-05,1.0534084e-05,1.0745203e-05,4.6583605e-07,0.5160458,0.5066231,0.020965727,8.840317,8.7245655,0.2832738,6.564154e-11,6.716825e-11,1.4884018e-10,3.796723e-07,3.8274231e-07,5.000009e-08,0.0,0.0,0.0,0.0,0.0,0.0,0.0,0.0,24
55229972,55229428,-0.0018871604,-0.026500925,-0.0005144726,-0.9996469,-0.32071468,1.0759602,0.12917198,-0.65208787,2.6777606,-1.9352453,6.605201e-07,2.8259878e-05,-2.3502418e-05,-0.00032633243,0.0006889952,0.00040844,0.29847088,0.01371796,0.16994442,-0.041062895,-0.050052952,0.0073395814,0.0,0.0,7.182492e-05,1.1138521e-05,1.1361603e-05,4.6817215e-07,0.48642486,0.4810121,0.020462334,9.131,9.018374,0.2796106,6.555291e-11,6.70261e-11,1.374029e-10,3.4544522e-07,3.4737693e-07,5e-08,0.0,0.0,0.0,0.0,0.0,0.0,0.0,0.0,24
57226600,57225859,-0.0024048793,-0.034370057,-0.011037455,-0.99934536,-0.6137171,0.85149235,0.45128348,-0.9434854,2.6170788,-1.8954011,1.449859e-06,2.8131539e-05,-3.0732488e-05,-0.00045450567,0.00054029457,0.00045279236,0.29847088,0.01371796,0.16994442,-0.041062895,-0.050052952,0.0073395814,0.0,0.0,6.650779e-05,1.38248715e-05,1.4045098e-05,4.6404935e-07,0.4041286,0.40565023,0.01986379,8.270012,8.213646,0.27885967,6.630451e-11,6.770814e-11,1.1858738e-10,2.8272996e-07,2.825622e-07,5e-08,0.0,0.0,0.0,0.0,0.0,0.0,0.0,0.0,24
58227523,58226371,0.0053323307,-0.00068504905,-0.017787522,-0.9998273,-0.6549358,0.32102364,0.24850506,-1.2334459,2.2772746,-1.7376736,1.6549316e-06,2.8281835e-05,-3.4817007e-05,-0.00048685304,0.0004588386,0.00047433443,0.29847088,0.01371796,0.16994442,-0.041062895,-0.050052952,0.0073395814,0.0,0.0,6.4422034e-05,1.5955253e-05,1.6146188e-05,4.5080324e-07,0.38292137,0.38671654,0.019471742,7.9470305,7.9149146,0.27511975,6.714137e-11,6.852125e-11,1.1068585e-10,2.6004636e-07,2.592135e-07,5e-08,0.0,0.0,0.0,0.0,0.0,0.0,0.0,0.0,24
60228719,60227689,0.42832243,-0.021966318,-0.0055233426,-0.9033421,-0.55197877,0.1219543,0.07678412,-1.8833178,1.3595768,-1.5647918,3.1181503e-06,3.5575304e-05,-3.329934e-05,-0.00039597953,0.00022153024,0.00053889095,0.29488572,0.0133038815,0.17716227,-0.038816262,-0.051735677,0.0050171744,0.0,0.0,4.225903e-05,2.0103247e-05,2.0067682e-05,9.589529e-06,0.36013928,0.37041324,0.01912668,7.46664,7.5012956,0.2744512,6.7784084e-11,6.7935386e-11,8.909806e-11,2.2544177e-07,2.241279e-07,5.0000093e-08,4.303998e-06,9.285678e-06,0.00029783667,4.072028e-06,4.303976e-06,0.00029688037,0.0,0.0,24
61219383,61218931,0.4574613,-0.01081178,-0.015548714,-0.8890279,-0.7653319,-0.13091666,0.34635654,-2.4992557,0.89710224,-1.4534296,5.1963652e-06,4.1968437e-05,-3.0166819e-05,-0.0002809037,4.455131e-05,0.00057505677,0.29204276,0.0133395735,0.18004161,-0.037804674,-0.05420934,0.00064492656,0.0,0.0,4.038101e-05,2.184422e-05,2.213111e-05,1.070961e-05,0.350018,0.36297473,0.018858392,7.294815,7.3554177,0.27115798,6.813732e-11,6.756625e-11,8.4620096e-11,2.1246031e-07,2.1096511e-07,5e-08,4.112636e-06,8.857022e-06,0.00029427654,3.9598176e-06,4.1532726e-06,0.0002927259,0.0,0.0,24
62228775,62228411,0.5438134,-0.016445918,-0.013347787,-0.83893883,-0.78743833,-0.3098843,-0.04959773,-2.8393633,0.4396537,-1.4823254,7.993113e-06,4.64479e-05,-2.591234e-05,-0.0001881732,-0.00011566699,0.00060079736,0.29010287,0.013691041,0.18038458,-0.037429556,-0.05595331,0.0020057403,0.0,0.0,3.6560246e-05,2.3699367e-05,2.3904502e-05,1.5321342e-05,0.3478572,0.36429363,0.018898726,7.1541386,7.2387347,0.27422708,6.827253e-11,6.7126325e-11,8.142203e-11,2.0200862e-07,2.0035725e-07,5.000009e-08,3.969116e-06,8.570566e-06,0.00029235316,3.8923854e-06,4.031905e-06,0.0002906308,0.0,0.0,24
63224853,63224461,0.6785554,-0.021468189,-0.011105597,-0.7341514,-1.0726435,-0.35014826,0.0021424203,-3.7036479,0.017299775,-1.4468261,1.1775368e-05,5.2558742e-05,-2.3519508e-05,-6.049158e-05,-0.000305785,0.0006305702,0.2875474,0.013419646,0.18091233,-0.03792714,-0.058334693,0.0015722297,0.0,0.0,2.8843904e-05,2.5270829e-05,2.4922556e-05,2.4187946e-05,0.36000222,0.3810734,0.018681008,7.570308,7.6966496,0.27132452,6.817868e-11,6.666225e-11,7.865067e-11,1.9528422e-07,1.9347621e-07,5.000009e-08,3.8470375e-06,8.343724e-06,0.0002911521,3.8445055e-06,3.867451e-06,0.0002893193,0.0,0.0,24
64225521,64225074,0.755549,-0.027773276,0.016856356,-0.6542862,-1.4664361,-0.19169314,-0.14356828,-4.3993196,-0.15588799,-1.5999364,1.6106287e-05,5.6971443e-05,-2.0406753e-05,6.181535e-05,-0.00049780123,0.00066024263,0.285288,0.013200007,0.18535317,-0.039220423,-0.0600267,-0.0027461573,0.0,0.0,2.3561613e-05,2.5654035e-05,2.505915e-05,3.1085692e-05,0.3577606,0.38201806,0.018459203,7.4504237,7.605996,0.2684361,6.749994e-11,6.5962444e-11,7.6071226e-11,1.8898794e-07,1.8697277e-07,5e-08,3.738612e-06,8.148888e-06,0.00028969304,3.7891946e-06,3.69104e-06,0.0002873963,0.0,0.0,24
65227558,65225443,0.8411943,-0.02716613,0.031503167,-0.5391305,-2.2852929,0.14822687,0.011700406,-5.375499,0.071751826,-1.5305722,2.0373556e-05,5.967622e-05,-1.7698154e-05,0.00016506293,-0.00068138016,0.00068209943,0.28351673,0.012968037,0.19932926,-0.04078466,-0.060862493,-0.016633525,0.0,0.0,1.6502576e-05,2.5525173e-05,2.4335282e-05,3.962265e-05,0.35636035,0.381884,0.018529817,7.339946,7.5233884,0.2717877,6.623857e-11,6.499988e-11,7.362431e-11,1.8467411e-07,1.8235777e-07,5.000009e-08,3.6448714e-06,7.97498e-06,0.00028354418,3.7045056e-06,3.519861e-06,0.00027969715,0.0,0.0,24
66232630,66230682,0.93178743,-0.008807484,0.015022473,-0.36258644,-2.4729528,0.60689527,0.17390145,-6.3906894,0.6469767,-1.4436322,2.3963892e-05,6.0446455e-05,-1.4684023e-05,0.00023970446,-0.0008497565,0.0007054512,0.28188232,0.0127349105,0.20220076,-0.04223336,-0.060855027,-0.018950136,0.0,0.0,7.731009e-06,2.5079638e-05,2.2800972e-05,4.8968766e-05,0.35706717,0.38534135,0.018368917,7.242061,7.4490585,0.26906767,6.447834e-11,6.384673e-11,7.116759e-11,1.820312e-07,1.7931481e-07,5e-08,3.5378048e-06,7.809517e-06,0.00028141585,3.572454e-06,3.3389538e-06,0.00027768812,0.0,0.0,24
67229645,67226548,0.99928576,0.0058702542,0.0045391987,-0.037052404,-2.7384655,1.0173678,-0.07528771,-7.1623,1.4405258,-1.3502856,2.6307065e-05,5.970638e-05,-9.7287275e-06,0.00028870732,-0.0009975893,0.0007320257,0.2802301,0.012680325,0.20611224,-0.043114923,-0.059544586,-0.02230625,0.0,0.0,5.0134133e-07,2.3215396e-05,1.9982168e-05,5.641021e-05,0.36466512,0.3960356,0.018247377,7.156639,7.3874116,0.26651257,6.2494e-11,6.2529246e-11,6.849811e-11,1.8062785e-07,1.7747882e-07,5e-08,3.4072245e-06,7.653147e-06,0.00028014742,3.3308697e-06,3.1371321e-06,0.00027661995,0.0,0.0,24
68229288,68227036,0.94543135,0.031964008,0.0135107245,0.32396832,-3.1503603,1.4060163,0.0030027886,-8.044931,2.4093552,-1.2616744,2.7833028e-05,5.8304515e-05,-3.2201095e-07,0.00032536438,-0.0011523872,0.0007734424,0.27816978,0.012957457,0.21536279,-0.04236209,-0.05653013,-0.03147623,0.0,0.0,7.0184524e-06,1.9204646e-05,1.6979466e-05,4.9934402e-05,0.37181818,0.4069986,0.018422155,7.0717893,7.330913,0.26997504,6.0457236e-11,6.091586e-11,6.554178e-11,1.7985556e-07,1.7631072e-07,5e-08,3.2464388e-06,7.498916e-06,0.00027743258,2.9903752e-06,2.9043008e-06,0.00027408564,0.0,0.0,24
70224054,70223527,0.54417217,0.014092542,0.011592097,0.8387752,-4.7981057,0.91033155,-0.35034093,-11.641676,3.2694774,-1.4407692,2.8410288e-05,5.982286e-05,4.212644e-06,0.0005088469,-0.0014948867,0.00080015644,0.27313966,0.013283933,0.23996413,-0.0418666,-0.05076129,-0.058865692,0.0,0.0,4.089006e-05,1.2600967e-05,1.3779103e-05,1.6406464e-05,0.37321478,0.4134789,0.018496647,6.9596457,7.2791395,0.26596394,5.6833382e-11,5.72017e-11,6.079161e-11,1.7788359e-07,1.7380705e-07,5e-08,2.9701728e-06,7.227229e-06,0.00026957743,2.472605e-06,2.4783778e-06,0.00026549725,0.0,0.0,24
71229116,71228545,0.41184875,0.035788327,0.026368454,0.91016734,-5.236595,0.08731402,0.059612393,-13.658021,2.6903193,-1.4879621,2.6778303e-05,5.9489514e-05,3.6476706e-07,0.0005419607,-0.0015212165,0.0007820562,0.27180678,0.013425025,0.24628145,-0.042422358,-0.049387973,-0.06666754,0.0,0.0,4.856915e-05,1.1504775e-05,1.2893562e-05,9.917133e-06,0.3747712,0.4163287,0.01876046,7.424632,7.8123846,0.26994064,5.56776e-11,5.590922e-11,5.89331e-11,1.76122e-07,1.7202703e-07,5.0000093e-08,2.8719294e-06,7.098521e-06,0.00026478776,2.3291238e-06,2.3319321e-06,0.00026038173,0.0,0.0,24
72229692,72229068,0.32747927,0.043753345,-0.017707042,0.9436787,-4.9518356,-0.27504742,-0.62308025,-13.693989,1.6005636,-1.7210815,2.4583553e-05,5.5813554e-05,-4.403823e-06,0.00045178537,-0.001414131,0.00075700233,0.27121896,0.013497552,0.24382825,-0.043656614,-0.048962463,-0.064818315,0.0,0.0,5.251677e-05,1.1249871e-05,1.2223816e-05,6.4360265e-06,0.36234686,0.40129948,0.018660259,7.348657,7.735703,0.26829955,5.406196e-11,5.420684e-11,5.7150302e-11,1.7297667e-07,1.6918925e-07,5.000009e-08,2.7681926e-06,6.970722e-06,0.0002607043,2.233113e-06,2.2209965e-06,0.00025653667,0.0,0.0,24
73223145,73220798,0.3517068,0.059615597,-0.0019371813,0.934208,-4.702209,-0.11572235,-0.053196408,-13.357746,0.9990776,-2.1256425,2.2915452e-05,5.1173814e-05,-1.0078994e-05,0.00034173246,-0.0012848548,0.00073013373,0.27029818,0.013638464,0.23512588,-0.044674166,-0.048286356,-0.05654766,0.0,0.0,5.1900504e-05,1.0942081e-05,1.1629234e-05,7.8680705e-06,0.34265876,0.37572592,0.01845889,7.231889,7.5988965,0.26546156,5.2564796e-11,5.2656032e-11,5.5523953e-11,1.6883274e-07,1.6561306e-07,5e-08,2.6679197e-06,6.845543e-06,0.0002541391,2.1688404e-06,2.1338178e-06,0.00025022836,0.0,0.0,24
75226749,75226383,0.3583458,0.03247624,-0.018108908,0.9328482,-4.623305,0.23899055,0.31528604,-13.313496,0.95399404,-2.298878,1.9484125e-05,4.29406e-05,-1.7234148e-05,0.00010566797,-0.0009779828,0.0006873063,0.26993543,0.013720382,0.22759658,-0.045339476,-0.048197523,-0.048830472,0.0,0.0,4.7598474e-05,1.1554806e-05,1.2061923e-05,7.9925285e-06,0.322536,0.3406425,0.018518861,7.0921025,7.337262,0.2684043,5.049647e-11,5.064288e-11,5.0909443e-11,1.586603e-07,1.5671807e-07,5.0000093e-08,0.0,0.0,0.0,0.0,0.0,0.0,0.0,0.0,24
76223156,76222320,0.37772995,0.021267544,-0.01360663,0.92557156,-4.228379,0.35120627,-0.00037221162,-13.082692,1.051712,-2.1521037,1.759014e-05,3.9805545e-05,-1.9363306e-05,2.5773868e-05,-0.00079912844,0.00066817744,0.26993543,0.013720382,0.22759658,-0.045339476,-0.048197523,-0.048830472,0.0,0.0,4.4627992e-05,1.2145834e-05,1.2591472e-05,8.606206e-06,0.31912124,0.33323735,0.018366976,7.009803,7.2049694,0.26635617,4.9930247e-11,5.0065806e-11,4.878048e-11,1.5307725e-07,1.5160936e-07,5e-08,0.0,0.0,0.0,0.0,0.0,0.0,0.0,0.0,24
78223549,78223186,0.35399446,0.011969259,0.003950202,0.93516266,-2.7097702,0.19235413,-0.08812171,-11.826399,1.1017168,-2.1889892,1.4780895e-05,3.4935074e-05,-2.1541582e-05,-5.8055568e-05,-0.00045792307,0.00061452464,0.26993543,0.013720382,0.22759658,-0.045339476,-0.048197523,-0.048830472,0.0,0.0,4.2704185e-05,1.4102128e-05,1.4424501e-05,7.420066e-06,0.32714564,0.33784527,0.018234331,7.3570957,7.507083,0.26760477,4.968796e-11,4.9766902e-11,4.5612337e-11,1.4257822e-07,1.4176051e-07,5.0000178e-08,0.0,0.0,0.0,0.0,0.0,0.0,0.0,0.0,24
80224632,80224237,0.35674232,0.01952276,-0.012321689,0.9339176,-1.8046468,-0.095943496,-0.1762609,-8.935364,0.600457,-2.3274615,1.3172751e-05,3.0745614e-05,-2.289278e-05,-9.176384e-05,-0.00013258209,0.00055178703,0.26993543,0.013720382,0.22759658,-0.045339476,-0.048197523,-0.048830472,0.0,0.0,4.0504325e-05,1.6532851e-05,1.6638827e-05,7.217358e-06,0.32783204,0.33399838,0.01831688,7.2165813,7.3131933,0.26912525,4.9807238e-11,4.981386e-11,4.3168673e-11,1.311798e-07,1.3078726e-07,5.000018e-08,0.0,0.0,0.0,0.0,0.0,0.0,0.0,0.0,24
82230239,82229798,0.3572102,0.011469487,-0.01929902,0.93375427,-1.0316153,0.11601752,0.23843996,-6.341376,0.3573378,-2.3000653,1.2967812e-05,2.7529757e-05,-2.4773539e-05,-0.00010216612,0.000100376434,0.0004927032,0.26993543,0.013720382,0.22759658,-0.045339476,-0.048197523,-0.048830472,0.0,0.0,3.876221e-05,1.9356345e-05,1.9421032e-05,7.0315155e-06,0.3333609,0.3366979,0.018156992,7.1048603,7.161744,0.26529217,5.0113108e-11,5.004973e-11,4.1279532e-11,1.2109227e-07,1.2080994e-07,5.0000093e-08,0.0,0.0,0.0,0.0,0.0,0.0,0.0,0.0,24
83226198,83225819,0.39808345,0.0147147,-0.037290208,0.91647285,-0.60294604,0.28486916,0.11207483,-5.1182265,0.421431,-1.8765001,1.3174604e-05,2.6260257e-05,-2.573765e-05,-0.00010002141,0.00018225948,0.0004700873,0.26993543,0.013720382,0.22759658,-0.045339476,-0.048197523,-0.048830472,0.0,0.0,3.659192e-05,2.0862683e-05,2.0852978e-05,8.398852e-06,0.34094253,0.34354758,0.01830484,7.051884,7.0939374,0.26916197,5.0176432e-11,5.0082497e-11,4.048804e-11,1.16824374e-07,1.1650535e-07,5.000009e-08,0.0,0.0,0.0,0.0,0.0,0.0,0.0,0.0,24
85223599,85222370,0.50941,0.009820666,-0.029687451,0.8599556,0.123668656,0.6829418,-0.03095746,-2.7061427,1.0084586,-1.7205226,1.3567629e-05,2.438501e-05,-2.6819007e-05,-8.1473416e-05,0.00028210005,0.0004300819,0.26993543,0.013720382,0.22759658,-0.045339476,-0.048197523,-0.048830472,0.0,0.0,3.0904186e-05,2.3637716e-05,2.3655346e-05,1.2669357e-05,0.3618931,0.3638282,0.018078802,7.001321,7.024046,0.2640316,4.98536e-11,4.9706513e-11,3.9140517e-11,1.1020699e-07,1.0972505e-07,5e-08,0.0,0.0,0.0,0.0,0.0,0.0,0.0,0.0,24
86228178,86227410,0.52814645,0.018514378,-0.027042096,0.8485206,0.32796004,0.6690156,-0.06324609,-1.7999078,1.3203928,-1.7322608,1.3623233e-05,2.3870083e-05,-2.6132755e-05,-6.9926245e-05,0.0003037086,0.00042599803,0.26993543,0.013720382,0.22759658,-0.045339476,-0.048197523,-0.048830472,0.0,0.0,2.9731631e-05,2.528468e-05,2.5337753e-05,1.3312468e-05,0.39140192,0.3934606,0.018261569,7.5839696,7.60386,0.26898938,4.9714267e-11,4.9550107e-11,3.858765e-11,1.0826319e-07,1.0770182e-07,5e-08,0.0,0.0,0.0,0.0,0.0,0.0,0.0,0.0,24
88229958,88228487,0.57151675,0.015274769,-0.018791623,0.82023305,0.8911443,0.8184356,-0.023075221,-0.009198424,1.7092925,-1.7504746,1.3267772e-05,2.2958126e-05,-2.4646411e-05,-4.2110813e-05,0.00032439412,0.0004249244,0.26993543,0.013720382,0.22759658,-0.045339476,-0.048197523,-0.048830472,0.0,0.0,2.7125023e-05,2.7214102e-05,2.7332542e-05,1.487636e-05,0.408811,0.41112056,0.01806369,7.6129627,7.6256995,0.26506242,4.8152704e-11,4.796766e-11,3.7619696e-11,1.0492033e-07,1.0418178e-07,5e-08,0.0,0.0,0.0,0.0,0.0,0.0,0.0,0.0,24
89229686,89229047,0.6146156,0.013537602,-0.022831924,0.78838015,0.89935327,0.793864,0.22687094,0.74143714,1.8113188,-1.6075705,1.282185e-05,2.2714157e-05,-2.3001252e-05,-2.95889e-05,0.0003244442,0.00043453576,0.26993543,0.013720382,0.22759658,-0.045339476,-0.048197523,-0.048830472,0.0,0.0,2.485789e-05,2.7811464e-05,2.793141e-05,1.6732452e-05,0.4106768,0.41305947,0.018237136,7.6326356,7.644322,0.26990736,4.7054017e-11,4.6873252e-11,3.7217535e-11,1.0394395e-07,1.0314101e-07,5e-08,0.0,0.0,0.0,0.0,0.0,0.0,0.0,0.0,24
92220453,92217255,0.773935,-0.0071453326,-0.016716607,0.6330041,1.2407459,0.4209906,0.13884245,2.0399466,1.9026096,-1.4607165,1.1197207e-05,2.3599072e-05,-1.3011978e-05,2.667776e-05,0.00030788334,0.00051780173,0.2699669,0.014308503,0.22977637,-0.045152158,-0.048186332,-0.046963256,0.0,0.0,1.5902397e-05,2.7462449e-05,2.7487828e-05,2.4187038e-05,0.4090977,0.41356003,0.018097376,7.487851,7.5139647,0.26746207,4.2622135e-11,4.2606918e-11,3.606752e-11,1.02450265e-07,1.0145869e-07,5e-08,2.6111352e-06,6.702389e-06,0.00019391574,2.1385515e-06,2.0921896e-06,0.00019179507,0.0,0.0,24
93228790,93226630,0.86331844,-0.00041938652,-0.01566689,0.50441635,1.3921162,1.1372912,0.026819047,2.8029473,4.371068,-1.4451149,1.6209884e-05,3.0482151e-05,-3.3113993e-06,0.00023326425,0.00013608836,0.00057032355,0.2705513,0.019067107,0.23709264,-0.043574423,-0.048057336,-0.04446636,0.0,0.0,9.824566e-06,2.5340916e-05,2.4972915e-05,2.6912321e-05,0.4039315,0.41578746,0.018077353,7.8625884,7.952603,0.26653495,3.9608154e-11,3.9993158e-11,3.4706894e-11,1.0060843e-07,9.921377e-08,5e-08,2.5143815e-06,6.073829e-06,0.00013514918,2.081749e-06,2.0261887e-06,0.00013576123,0.0,0.0,24
94231796,94227166,0.9405172,0.004931804,-0.026309017,0.33868998,1.5644743,1.6215103,-0.08518937,4.031243,5.7524533,-1.5082409,2.0503076e-05,3.343093e-05,2.8832897e-06,0.00033790764,-5.092679e-05,0.0005937395,0.2716524,0.021914383,0.24249728,-0.042354643,-0.047953967,-0.045834,0.0,0.0,4.8130833e-06,2.3459957e-05,2.2320062e-05,3.0759522e-05,0.3861468,0.40457284,0.01802947,7.6653967,7.8145723,0.26454568,3.730793e-11,3.8117433e-11,3.4204903e-11,9.95293e-08,9.750786e-08,5e-08,2.446242e-06,5.7415086e-06,0.00012950586,2.0433692e-06,1.9843658e-06,0.00013074152,0.0,0.0,24
96229088,96228241,0.99964696,0.015980158,-0.020271363,0.006304622,2.1745694,2.0290196,-0.42984447,6.5074663,6.7181377,-1.5003507,2.5461313e-05,3.462894e-05,7.853446e-06,0.00040236293,-0.0003604788,0.0005862683,0.2741457,0.024176395,0.2505705,-0.040368572,-0.04741266,-0.050016798,0.0,0.0,4.4696245e-07,1.9337453e-05,1.7485869e-05,3.4865996e-05,0.36553645,0.3925879,0.018312553,7.3475595,7.5730424,0.2666869,3.4478878e-11,3.5723684e-11,3.3870667e-11,9.8160754e-08,9.482874e-08,5.0000178e-08,2.3455962e-06,5.3589574e-06,0.00012475374,1.9516797e-06,1.9332804e-06,0.00012706028,0.0,0.0,24
97225086,97224475,0.9983373,-0.0007741447,-0.026432201,0.05121835,2.0340571,2.4406588,-0.41230825,7.12877,7.0207624,-1.9131162,2.5815963e-05,3.4864668e-05,8.249411e-06,0.0004198041,-0.00044167673,0.00056716666,0.27516547,0.024478668,0.25161785,-0.039566904,-0.047195632,-0.051731285,0.0,0.0,5.9686573e-07,1.769043e-05,1.575776e-05,3.4781682e-05,0.35756007,0.3853716,0.018401757,7.2289844,7.4782104,0.2651013,3.365477e-11,3.4861846e-11,3.3813983e-11,9.7472345e-08,9.364786e-08,5.0000093e-08,2.302246e-06,5.2290698e-06,0.00012365996,1.9078811e-06,1.9161434e-06,0.00012583246,0.0,0.0,24
98220963,98220440,0.9985999,0.022312324,-0.02035523,-0.04343185,1.9003665,2.9251924,0.1389988,6.9922743,7.2734995,-1.8238906,2.4614104e-05,3.4902587e-05,8.194241e-06,0.0004481507,-0.000447604,0.00054394564,0.27570605,0.024625888,0.25227934,-0.039137006,-0.0471046,-0.053153116,0.0,0.0,4.380304e-07,1.6318425e-05,1.4657849e-05,3.503077e-05,0.3485896,0.3732972,0.018745853,7.1166263,7.3563676,0.26847133,3.32264e-11,3.418947e-11,3.3750044e-11,9.656388e-08,9.2701306e-08,5e-08,0.0,0.0,0.0,0.0,0.0,0.0,0.0,0.0,24
99225700,99225350,0.9966484,0.038709816,-0.03452968,-0.06325747,1.98531,3.3833404,0.22376402,6.486796,7.693454,-1.6720675,2.2304683e-05,3.416826e-05,7.656855e-06,0.00047613855,-0.00038613347,0.0005237822,0.27570605,0.024625888,0.25227934,-0.039137006,-0.0471046,-0.053153116,0.0,0.0,5.058463e-07,1.540439e-05,1.4029139e-05,3.4604982e-05,0.34768373,0.3680804,0.018960822,7.0861235,7.29373,0.268487,3.313834e-11,3.3810177e-11,3.3680336e-11,9.530922e-08,9.1849564e-08,5.000009e-08,0.0,0.0,0.0,0.0,0.0,0.0,0.0,0.0,24
100226488,100226067,0.9969354,0.03523813,-0.05034575,-0.048408043,2.2446375,3.6298144,9.594523e-05,6.63612,8.853006,-1.4396095,2.0560092e-05,3.346473e-05,6.756903e-06,0.00049737014,-0.000325222,0.00050467986,0.27570605,0.024625888,0.25227934,-0.039137006,-0.0471046,-0.053153116,0.0,0.0,4.9671286e-07,1.51324975e-05,1.3893738e-05,3.437288e-05,0.36166048,0.37978217,0.019010872,7.54773,7.747059,0.26737866,3.3324794e-11,3.3799578e-11,3.363077e-11,9.4008215e-08,9.092975e-08,5e-08,0.0,0.0,0.0,0.0,0.0,0.0,0.0,0.0,24
101222370,101222019,0.99826163,0.020374278,-0.025212873,-0.049223095,2.0878224,3.4884083,0.18394418,6.5065055,9.1748905,-1.4582435,1.8581459e-05,3.222508e-05,6.5469108e-06,0.0005061706,-0.00023435277,0.0004938236,0.27570605,0.024625888,0.25227934,-0.039137006,-0.0471046,-0.053153116,0.0,0.0,4.7436313e-07,1.4507559e-05,1.3771476e-05,3.4466473e-05,0.35421196,0.36771256,0.01913476,7.470765,7.632717,0.27208188,3.3418417e-11,3.3718393e-11,3.3590596e-11,9.214747e-08,8.950288e-08,5.0000093e-08,0.0,0.0,0.0,0.0,0.0,0.0,0.0,0.0,24
102223179,102222463,0.9985493,-0.0050176247,-0.018989297,-0.050136052,1.909971,3.1102629,0.1646798,6.2108955,9.149609,-1.185068,1.6884764e-05,3.084973e-05,6.4827013e-06,0.0005065179,-0.00013394862,0.0004828227,0.27570605,0.024625888,0.25227934,-0.039137006,-0.0471046,-0.053153116,0.0,0.0,4.7816144e-07,1.4346012e-05,1.3868458e-05,3.4400367e-05,0.34629086,0.35598642,0.01890373,7.382027,7.5073924,0.2703068,3.3642988e-11,3.381906e-11,3.3568343e-11,9.005271e-08,8.780716e-08,5.000001e-08,0.0,0.0,0.0,0.0,0.0,0.0,0.0,0.0,24
104224413,104223636,0.9983107,0.0074887653,-0.022584144,-0.053006615,1.5648034,2.6004589,0.23230341,5.4302845,8.430195,-0.7455295,1.4558467e-05,2.8058883e-05,6.2942013e-06,0.0004931418,7.107468e-05,0.00045496182,0.27570605,0.024625888,0.25227934,-0.039137006,-0.0471046,-0.053153116,0.0,0.0,4.987644e-07,1.4834489e-05,1.4564396e-05,3.447551e-05,0.33128393,0.3353276,0.018802704,7.192033,7.258324,0.27216431,3.4460677e-11,3.4498213e-11,3.3586033e-11,8.555118e-08,8.395331e-08,5.0000306e-08,0.0,0.0,0.0,0.0,0.0,0.0,0.0,0.0,24
105224789,105224092,0.99875134,-0.0024268364,-0.002946511,-0.04981175,1.3253329,2.363938,-0.34805453,5.0140476,7.9726305,-0.7617073,1.39410595e-05,2.6737016e-05,6.070063e-06,0.00048348456,0.00016709583,0.00043410464,0.27570605,0.024625888,0.25227934,-0.039137006,-0.0471046,-0.053153116,0.0,0.0,4.829876e-07,1.5323176e-05,1.519214e-05,3.453919e-05,0.32986033,0.3321905,0.01863984,7.095535,7.1403227,0.2699331,3.500944e-11,3.5012073e-11,3.357455e-11,8.333158e-08,8.198365e-08,5.000024e-08,0.0,0.0,0.0,0.0,0.0,0.0,0.0,0.0,24
107225857,107225244,0.9982664,-0.0018339645,-0.032030866,-0.04934607,0.65842617,1.4987712,0.06661932,3.8297718,6.9641595,-0.6182788,1.3736943e-05,2.4545556e-05,6.623241e-06,0.0004596962,0.0003123311,0.00040321713,0.27570605,0.024625888,0.25227934,-0.039137006,-0.0471046,-0.053153116,0.0,0.0,5.113376e-07,1.7120115e-05,1.6986061e-05,3.4743756e-05,0.33668247,0.33732894,0.018280469,7.4243336,7.443647,0.26539457,3.6295907e-11,3.6268634e-11,3.3598277e-11,7.974678e-08,7.873618e-08,5e-08,0.0,0.0,0.0,0.0,0.0,0.0,0.0,0.0,24
108221587,108221215,0.99792063,0.0022917707,-0.040414304,-0.050159693,0.82398474,1.1008767,0.63006765,3.2840574,5.9402146,-0.2467369,1.4003772e-05,2.3558205e-05,6.492822e-06,0.00044916949,0.00037448196,0.00038912706,0.27570605,0.024625888,0.25227934,-0.039137006,-0.0471046,-0.053153116,0.0,0.0,5.337062e-07,1.8032717e-05,1.790175e-05,3.4936653e-05,0.332099,0.33254838,0.018421924,7.335391,7.3465757,0.26894823,3.688615e-11,3.6852084e-11,3.3625307e-11,7.808754e-08,7.721298e-08,5.0000178e-08,0.0,0.0,0.0,0.0,0.0,0.0,0.0,0.0,24
