timestamp,timestamp_sample,gps_hvel[0],gps_hvel[1],gps_vvel,gps_hpos[0],gps_hpos[1],gps_vpos,ev_hvel[0],ev_hvel[1],ev_vvel,ev_hpos[0],ev_hpos[1],ev_vpos,rng_vpos,baro_vpos,aux_hvel[0],aux_hvel[1],aux_vvel,flow[0],flow[1],heading,mag_field[0],mag_field[1],mag_field[2],drag[0],drag[1],airspeed,beta,hagl
22227481,22226924,0.0,0.0,0.0,0.34089637,0.34089285,0.0,0.0,0.0,0.0,0.0,0.0,0.0,0.0,12.73941,0.0,0.0,nan,0.0,0.0,0.090446025,0.0,0.0,0.0,0.0,0.0,0.0,0.0,0.0
22727631,22726938,0.0,0.0,0.0,0.33693406,0.33693185,0.0,0.0,0.0,0.0,0.0,0.0,0.0,0.0,12.722735,0.0,0.0,nan,0.0,0.0,0.09044546,0.0,0.0,0.0,0.0,0.0,0.0,0.0,0.0
23223474,23222777,0.0,0.0,0.0,100.084564,100.084564,0.0,0.0,0.0,0.0,0.0,0.0,0.0,0.0,12.706416,0.0,0.0,nan,0.0,0.0,0.09044533,0.0,0.0,0.0,0.0,0.0,0.0,0.0,0.0
23728388,23727374,0.0,0.0,0.0,100.14601,100.14602,0.0,0.0,0.0,0.0,0.0,0.0,0.0,0.0,12.693746,0.0,0.0,nan,0.0,0.0,0.09044333,0.0,0.0,0.0,0.0,0.0,0.0,0.0,0.0
24227990,24227610,0.0,0.0,0.0,100.32174,100.32177,0.0,0.0,0.0,0.0,0.0,0.0,0.0,0.0,12.676855,0.0,0.0,nan,0.0,0.0,0.090440914,0.0,0.0,0.0,0.0,0.0,0.0,0.0,0.0
24723893,24723359,0.0,0.0,0.0,100.53361,100.53368,0.0,0.0,0.0,0.0,0.0,0.0,0.0,0.0,12.663527,0.0,0.0,nan,0.0,0.0,0.090437636,0.0,0.0,0.0,0.0,0.0,0.0,0.0,0.0
25228712,25228204,0.0,0.0,0.0,101.08744,101.087685,0.0,0.0,0.0,0.0,0.0,0.0,0.0,0.0,12.653172,0.0,0.0,nan,0.0,0.0,0.09043494,0.0,0.0,0.0,0.0,0.0,0.0,0.0,0.0
25730008,25728641,0.0,0.0,0.0,101.66421,101.66466,0.0,0.0,0.0,0.0,0.0,0.0,0.0,0.0,12.63947,0.0,0.0,nan,0.0,0.0,0.090430796,0.0,0.0,0.0,0.0,0.0,0.0,0.0,0.0
26224566,26224106,0.0,0.0,0.0,102.913635,102.91462,0.0,0.0,0.0,0.0,0.0,0.0,0.0,0.0,12.628643,0.0,0.0,nan,0.0,0.0,0.090425104,0.0,0.0,0.0,0.0,0.0,0.0,0.0,0.0
26724936,26724495,0.0,0.0,0.0,103.97882,103.98033,0.0,0.0,0.0,0.0,0.0,0.0,0.0,0.0,12.620159,0.0,0.0,nan,0.0,0.0,0.09042018,0.0,0.0,0.0,0.0,0.0,0.0,0.0,0.0
27225232,27224542,0.0,0.0,0.0,105.18477,105.18686,0.0,0.0,0.0,0.0,0.0,0.0,0.0,0.0,12.608747,0.0,0.0,nan,0.0,0.0,0.090414904,0.0,0.0,0.0,0.0,0.0,0.0,0.0,0.0
27721229,27720361,0.0,0.0,0.0,107.03147,107.03438,0.0,0.0,0.0,0.0,0.0,0.0,0.0,0.0,12.599919,0.0,0.0,nan,0.0,0.0,0.0904098,0.0,0.0,0.0,0.0,0.0,0.0,0.0,0.0
28721550,28720758,0.0,0.0,0.0,109.504585,109.50783,0.0,0.0,0.0,0.0,0.0,0.0,0.0,0.0,12.583803,0.0,0.0,nan,0.0,0.0,0.09039777,0.0,0.0,0.0,0.0,0.0,0.0,0.0,0.0
29217018,29216635,0.0,0.0,0.0,110.19531,110.198265,0.0,0.0,0.0,0.0,0.0,0.0,0.0,0.0,12.576608,0.0,0.0,nan,0.0,0.0,0.09039178,0.0,0.0,0.0,0.0,0.0,0.0,0.0,0.0
29728577,29725816,0.0,0.0,0.0,110.764015,110.766235,0.0,0.0,0.0,0.0,0.0,0.0,0.0,0.0,12.571404,0.0,0.0,nan,0.0,0.0,0.09038674,0.0035192035,0.0033277874,0.0032233272,0.0,0.0,0.0,0.0,0.0
30230917,30226235,0.0,0.0,0.0,110.85288,110.854576,0.0,0.0,0.0,0.0,0.0,0.0,0.0,0.0,12.564187,0.0,0.0,nan,0.0,0.0,0.09038674,0.002816359,0.0026232132,0.002593513,0.0,0.0,0.0,0.0,0.0
30728201,30726232,0.0,0.0,0.0,110.779144,110.78036,0.0,0.0,0.0,0.0,0.0,0.0,0.0,0.0,12.55748,0.0,0.0,nan,0.0,0.0,0.09038674,0.0027984504,0.0025704296,0.0025517389,0.0,0.0,0.0,0.0,0.0
31222494,31222097,0.0,0.0,0.0,110.55122,110.55191,0.0,0.0,0.0,0.0,0.0,0.0,0.0,0.0,12.55397,0.0,0.0,nan,0.0,0.0,0.09038674,0.0028024674,0.0025525952,0.0025358703,0.0,0.0,0.0,0.0,0.0
31722875,31722253,0.0,0.0,0.0,110.28765,110.288124,0.0,0.0,0.0,0.0,0.0,0.0,0.0,0.0,12.549957,0.0,0.0,nan,0.0,0.0,0.09038674,0.0028302134,0.0025441516,0.002527804,0.0,0.0,0.0,0.0,0.0
32223356,32222451,0.0,0.0,0.0,109.924805,109.92513,0.0,0.0,0.0,0.0,0.0,0.0,0.0,0.0,12.54512,0.0,0.0,nan,0.0,0.0,0.09038674,0.0028955133,0.0025423656,0.0025230178,0.0,0.0,0.0,0.0,0.0
32725030,32722735,0.0,0.0,0.0,109.74214,109.74259,0.0,0.0,0.0,0.0,0.0,0.0,0.0,0.0,12.543523,0.0,0.0,nan,0.0,0.0,0.09038674,0.0029768343,0.0025475717,0.002519936,0.0,0.0,0.0,0.0,0.0
33228213,33227572,0.0,0.0,0.0,109.50983,109.50888,0.0,0.0,0.0,0.0,0.0,0.0,0.0,0.0,12.542968,0.0,0.0,nan,0.0,0.0,0.09541235,0.0030002608,0.0025519717,0.002518313,0.0,0.0,0.0,0.0,0.0
33733493,33732196,0.0,0.0,0.0,109.4012,109.3989,0.0,0.0,0.0,0.0,0.0,0.0,0.0,0.0,12.539967,0.0,0.0,nan,0.0,0.0,0.09221799,0.0030002608,0.0025519717,0.002518313,0.0,0.0,0.0,0.0,0.0
34228636,34227939,0.0,0.0,0.0,109.34413,109.341095,0.0,0.0,0.0,0.0,0.0,0.0,0.0,0.0,12.538336,0.0,0.0,nan,0.0,0.0,0.09141908,0.0030002608,0.0025519717,0.002518313,0.0,0.0,0.0,0.0,0.0
34720170,34719208,0.0,0.0,0.0,109.3703,109.36633,0.0,0.0,0.0,0.0,0.0,0.0,0.0,0.0,12.539076,0.0,0.0,nan,0.0,0.0,0.09104568,0.0030002608,0.0025519717,0.002518313,0.0,0.0,0.0,0.0,0.0
35224576,35223913,0.0,0.0,0.0,109.41467,109.410545,0.0,0.0,0.0,0.0,0.0,0.0,0.0,0.0,12.538895,0.0,0.0,nan,0.0,0.0,0.090822816,0.0030002608,0.0025519717,0.002518313,0.0,0.0,0.0,0.0,0.0
35729047,35728663,0.0,0.0,0.0,109.56006,109.556244,0.0,0.0,0.0,0.0,0.0,0.0,0.0,0.0,12.539195,0.0,0.0,nan,0.0,0.0,0.09068592,0.0030002608,0.0025519717,0.002518313,0.0,0.0,0.0,0.0,0.0
36229525,36228952,0.0,0.0,0.0,109.66244,109.65942,0.0,0.0,0.0,0.0,0.0,0.0,0.0,0.0,12.5406065,0.0,0.0,nan,0.0,0.0,0.090587,0.0030002608,0.0025519717,0.002518313,0.0,0.0,0.0,0.0,0.0
36730036,36729345,0.0,0.0,0.0,109.89001,109.8889,0.0,0.0,0.0,0.0,0.0,0.0,0.0,0.0,12.541016,0.0,0.0,nan,0.0,0.0,0.09051507,0.0030002608,0.0025519717,0.002518313,0.0,0.0,0.0,0.0,0.0
37231111,37229397,0.0,0.0,0.0,109.988434,109.98891,0.0,0.0,0.0,0.0,0.0,0.0,0.0,0.0,12.5416,0.0,0.0,nan,0.0,0.0,0.09046349,0.0030002608,0.0025519717,0.002518313,0.0,0.0,0.0,0.0,0.0
37725603,37725229,0.0,0.0,0.0,110.125916,110.12807,0.0,0.0,0.0,0.0,0.0,0.0,0.0,0.0,12.543108,0.0,0.0,nan,0.0,0.0,0.09042342,0.0030002608,0.0025519717,0.002518313,0.0,0.0,0.0,0.0,0.0
38221308,38220876,0.0,0.0,0.0,110.198715,110.2032,0.0,0.0,0.0,0.0,0.0,0.0,0.0,0.0,12.543649,0.0,0.0,nan,0.0,0.0,0.09039179,0.0030002608,0.0025519717,0.002518313,0.0,0.0,0.0,0.0,0.0
38726296,38725627,0.0,0.0,0.0,110.29233,110.302055,0.0,0.0,0.0,0.0,0.0,0.0,0.0,0.0,12.543631,0.0,0.0,nan,0.0,0.0,0.09037266,0.0027057866,0.0028323655,0.0028580828,0.0,0.0,0.0,0.0,0.0
39222236,39221535,0.0,0.0,0.0,110.29955,110.30306,0.0,0.0,0.0,0.0,0.0,0.0,0.0,0.0,12.544018,0.0,0.0,nan,0.0,0.0,0.09037266,0.0025726312,0.0025835386,0.002583509,0.0,0.0,0.0,0.0,0.0
39723800,39721658,0.0,0.0,0.0,110.35387,110.35585,0.0,0.0,0.0,0.0,0.0,0.0,0.0,0.0,12.54435,0.0,0.0,nan,0.0,0.0,0.09037266,0.0025545796,0.0025480802,0.002546516,0.0,0.0,0.0,0.0,0.0
40226759,40226365,0.0,0.0,0.0,110.3376,110.337494,0.0,0.0,0.0,0.0,0.0,0.0,0.0,0.0,12.5457735,0.0,0.0,nan,0.0,0.0,0.09037266,0.0025536995,0.0025362393,0.0025329709,0.0,0.0,0.0,0.0,0.0
40722548,40717857,0.0,0.0,0.0,110.25309,110.248314,0.0,0.0,0.0,0.0,0.0,0.0,0.0,0.0,12.545153,0.0,0.0,nan,0.0,0.0,0.09037266,0.002557191,0.0025322663,0.0025256085,0.0,0.0,0.0,0.0,0.0
41227419,41227025,0.0,0.0,0.0,110.149666,110.1407,0.0,0.0,0.0,0.0,0.0,0.0,0.0,0.0,12.544997,0.0,0.0,nan,0.0,0.0,0.09037266,0.0025580993,0.0025340025,0.0025212772,0.0,0.0,0.0,0.0,0.0
41731848,41727150,0.0,0.0,0.0,110.113106,110.09323,0.0,0.0,0.0,0.0,0.0,0.0,0.0,0.0,12.545926,0.0,0.0,nan,0.0,0.0,0.09037266,0.0025531512,0.0025360684,0.0025180618,0.0,0.0,0.0,0.0,0.0
42228008,42227354,0.0,0.0,0.0,110.03145,110.002106,0.0,0.0,0.0,0.0,0.0,0.0,0.0,0.0,12.546033,0.0,0.0,nan,0.0,0.0,0.09037266,0.0025474327,0.002537491,0.0025158988,0.0,0.0,0.0,0.0,0.0
42725432,42723358,0.0,0.0,0.0,109.93029,109.88229,0.0,0.0,0.0,0.0,0.0,0.0,0.0,0.0,12.545199,0.0,0.0,nan,0.0,0.0,0.09037266,0.0025432808,0.002539065,0.0025140988,0.0,0.0,0.0,0.0,0.0
43223887,43223341,0.0,0.0,0.0,109.868,109.80597,0.0,0.0,0.0,0.0,0.0,0.0,0.0,0.0,12.544371,0.0,0.0,nan,0.0,0.0,0.09037266,0.0025398463,0.0025393253,0.0025127418,0.0,0.0,0.0,0.0,0.0
43720527,43719235,0.0,0.0,0.0,109.868935,109.78863,0.0,0.0,0.0,0.0,0.0,0.0,0.0,0.0,12.544122,0.0,0.0,nan,0.0,0.0,0.09037266,0.0025364335,0.002537979,0.0025115926,0.0,0.0,0.0,0.0,0.0
44231200,44228413,0.0,0.0,0.0,109.84955,109.73916,0.0,0.0,0.0,0.0,0.0,0.0,0.0,0.0,12.543244,0.0,0.0,nan,0.0,0.0,0.09037266,0.0025326503,0.0025348219,0.0025107295,0.0,0.0,0.0,0.0,0.0
44732410,44728850,0.0,0.0,0.0,109.90611,109.77234,0.0,0.0,0.0,0.0,0.0,0.0,0.0,0.0,12.542944,0.0,0.0,nan,0.0,0.0,0.09037266,0.0025296202,0.0025317413,0.0025100962,0.0,0.0,0.0,0.0,0.0
45231255,45228842,0.0,0.0,0.0,110.04069,109.87132,0.0,0.0,0.0,0.0,0.0,0.0,0.0,0.0,12.540703,0.0,0.0,nan,0.0,0.0,0.09037266,0.0025271324,0.002529073,0.0025096098,0.0,0.0,0.0,0.0,0.0
45725120,45724733,0.0,0.0,0.0,110.25153,110.05696,0.0,0.0,0.0,0.0,0.0,0.0,0.0,0.0,12.541174,0.0,0.0,nan,0.0,0.0,0.09037266,0.0025252488,0.0025271247,0.002509219,0.0,0.0,0.0,0.0,0.0
46229330,46224831,0.0,0.0,0.0,110.61799,110.391464,0.0,0.0,0.0,0.0,0.0,0.0,0.0,0.0,12.540308,0.0,0.0,nan,0.0,0.0,0.09037266,0.0025234006,0.0025250767,0.0025088585,0.0,0.0,0.0,0.0,0.0
46725501,46725082,0.0,0.0,0.0,110.756165,110.51863,0.0,0.0,0.0,0.0,0.0,0.0,0.0,0.0,12.540303,0.0,0.0,nan,0.0,0.0,0.09037266,0.002521944,0.002523311,0.0025085818,0.0,0.0,0.0,0.0,0.0
47227515,47225375,0.0,0.0,0.0,110.95624,110.70803,0.0,0.0,0.0,0.0,0.0,0.0,0.0,0.0,12.538465,0.0,0.0,nan,0.0,0.0,0.09037266,0.0025200886,0.0025222863,0.002508223,0.0,0.0,0.0,0.0,0.0
47730759,47730241,0.0,0.0,0.0,111.198425,110.94319,0.0,0.0,0.0,0.0,0.0,0.0,0.0,0.0,12.538778,0.0,0.0,nan,0.0,0.0,0.09037266,0.002518352,0.0025204879,0.0025078652,0.0,0.0,0.0,0.0,0.0
48218385,48216966,0.0,0.0,0.0,111.35307,111.09471,0.0,0.0,0.0,0.0,0.0,0.0,0.0,0.0,12.539737,0.0,0.0,nan,0.0,0.0,0.09037266,0.0025166713,0.0025193188,0.0025075322,0.0,0.0,0.0,0.0,0.0
48728480,48726142,0.0,0.0,0.0,111.46713,111.2142,0.0,0.0,0.0,0.0,0.0,0.0,0.0,0.0,12.539371,0.0,0.0,nan,0.0,0.0,0.09037266,0.0025150941,0.0025191563,0.002507129,0.0,0.0,0.0,0.0,0.0
49727211,49726628,0.0,0.0,0.0,111.490524,111.253296,0.0,0.0,0.0,0.0,0.0,0.0,0.0,0.0,12.538727,0.0,0.0,nan,0.0,0.0,0.09037266,0.0025126329,0.002517808,0.0025064843,0.0,0.0,0.0,0.0,0.0
50224798,50222474,0.0,0.0,0.0,111.477516,111.2484,0.0,0.0,0.0,0.0,0.0,0.0,0.0,0.0,12.539926,0.0,0.0,nan,0.0,0.0,0.09037266,0.0025117854,0.002516791,0.0025062377,0.0,0.0,0.0,0.0,0.0
50723608,50722576,0.0,0.0,0.0,111.251305,111.04113,0.0,0.0,0.0,0.0,0.0,0.0,0.0,0.0,12.538591,0.0,0.0,nan,0.0,0.0,0.09037266,0.0025120736,0.0025160986,0.002505971,0.0,0.0,0.0,0.0,0.0
51228183,51227353,0.0,0.0,0.0,111.09005,110.891174,0.0,0.0,0.0,0.0,0.0,0.0,0.0,0.0,12.540598,0.0,0.0,nan,0.0,0.0,0.09037266,0.0025106762,0.0025150697,0.0025057874,0.0,0.0,0.0,0.0,0.0
51719196,51718814,0.0,0.0,0.0,110.86262,110.67739,0.0,0.0,0.0,0.0,0.0,0.0,0.0,0.0,12.539142,0.0,0.0,nan,0.0,0.0,0.09037266,0.0025101914,0.0025141607,0.0025056247,0.0,0.0,0.0,0.0,0.0
52228463,52227990,0.0,0.0,0.0,110.64641,110.4767,0.0,0.0,0.0,0.0,0.0,0.0,0.0,0.0,12.539746,0.0,0.0,nan,0.0,0.0,0.09037266,0.0025103106,0.0025134792,0.002505464,0.0,0.0,0.0,0.0,0.0
52728694,52728094,0.0,0.0,0.0,110.47208,110.313354,0.0,0.0,0.0,0.0,0.0,0.0,0.0,0.0,12.54053,0.0,0.0,nan,0.0,0.0,0.09037266,0.002509187,0.0025128438,0.0025054053,0.0,0.0,0.0,0.0,0.0
53224615,53223908,0.0,0.0,0.0,110.15573,110.00976,0.0,0.0,0.0,0.0,0.0,0.0,0.0,0.0,12.538655,0.0,0.0,nan,0.0,0.0,0.09032118,0.0025094738,0.0025124836,0.0025053353,0.0,0.0,0.0,0.0,0.0
53729882,53728596,0.0,0.0,0.0,109.943474,109.79777,0.0,0.0,0.0,0.0,0.0,0.0,0.0,0.0,12.538458,0.0,0.0,nan,0.0,0.0,0.09031099,0.0025094738,0.0025124836,0.0025053353,0.0,0.0,0.0,0.0,0.0
54224932,54224387,0.0,0.0,0.0,109.65509,109.51698,0.0,0.0,0.0,0.0,0.0,0.0,0.0,0.0,12.53872,0.0,0.0,nan,0.0,0.0,0.09030241,0.0025094738,0.0025124836,0.0025053353,0.0,0.0,0.0,0.0,0.0
54729522,54729144,0.0,0.0,0.0,109.46034,109.33085,0.0,0.0,0.0,0.0,0.0,0.0,0.0,0.0,12.536463,0.0,0.0,nan,0.0,0.0,0.090295,0.0025094738,0.0025124836,0.0025053353,0.0,0.0,0.0,0.0,0.0
55229993,55229428,0.0,0.0,0.0,109.31032,109.19045,0.0,0.0,0.0,0.0,0.0,0.0,0.0,0.0,12.536142,0.0,0.0,nan,0.0,0.0,0.09028794,0.0025094738,0.0025124836,0.0025053353,0.0,0.0,0.0,0.0,0.0
55725940,55725099,0.0,0.0,0.0,109.03457,108.931885,0.0,0.0,0.0,0.0,0.0,0.0,0.0,0.0,12.536406,0.0,0.0,nan,0.0,0.0,0.09028184,0.0025094738,0.0025124836,0.0025053353,0.0,0.0,0.0,0.0,0.0
56217048,56216595,0.0,0.0,0.0,108.88202,108.79085,0.0,0.0,0.0,0.0,0.0,0.0,0.0,0.0,12.53536,0.0,0.0,nan,0.0,0.0,0.09027616,0.0025094738,0.0025124836,0.0025053353,0.0,0.0,0.0,0.0,0.0
56726200,56725787,0.0,0.0,0.0,108.62182,108.54812,0.0,0.0,0.0,0.0,0.0,0.0,0.0,0.0,12.533169,0.0,0.0,nan,0.0,0.0,0.090270974,0.0025094738,0.0025124836,0.0025053353,0.0,0.0,0.0,0.0,0.0
57226622,57225859,0.0,0.0,0.0,108.49594,108.43317,0.0,0.0,0.0,0.0,0.0,0.0,0.0,0.0,12.532908,0.0,0.0,nan,0.0,0.0,0.09026667,0.0025094738,0.0025124836,0.0025053353,0.0,0.0,0.0,0.0,0.0
57722502,57721700,0.0,0.0,0.0,108.34014,108.29298,0.0,0.0,0.0,0.0,0.0,0.0,0.0,0.0,12.533087,0.0,0.0,nan,0.0,0.0,0.0902628,0.0025094738,0.0025124836,0.0025053353,0.0,0.0,0.0,0.0,0.0
58227544,58226371,0.0,0.0,0.0,108.208534,108.1714,0.0,0.0,0.0,0.0,0.0,0.0,0.0,0.0,12.531441,0.0,0.0,nan,0.0,0.0,0.09025848,0.0025094738,0.0025124836,0.0025053353,0.0,0.0,0.0,0.0,0.0
58722964,58722164,0.0,0.0,0.0,108.05506,108.039734,0.0,0.0,0.0,0.0,0.0,0.0,0.0,0.0,12.531521,0.0,0.0,nan,0.0,0.0,0.09025718,0.0025114277,0.0025335152,0.0026651234,0.0,0.0,0.0,0.0,0.0
59730210,59727223,0.0,0.0,0.0,107.92951,107.94441,0.0,0.0,0.0,0.0,0.0,0.0,0.0,0.0,12.529267,0.0,0.0,nan,0.0,0.0,0.09025718,0.0025149912,0.0025167773,0.0025396966,0.0,0.0,0.0,0.0,0.0
60228741,60227689,0.0,0.0,0.0,107.85667,107.89273,0.0,0.0,0.0,0.0,0.0,0.0,0.0,0.0,12.529551,0.0,0.0,nan,0.0,0.0,0.09025718,0.0025157556,0.0025127847,0.0025291787,0.0,0.0,0.0,0.0,0.0
60728229,60727642,0.0,0.0,0.0,107.80551,107.854355,0.0,0.0,0.0,0.0,0.0,0.0,0.0,0.0,12.527494,0.0,0.0,nan,0.0,0.0,0.09025718,0.0025146503,0.0025108554,0.0025229221,0.0,0.0,0.0,0.0,0.0
61219409,61218931,0.0,0.0,0.0,107.779655,107.84778,0.0,0.0,0.0,0.0,0.0,0.0,0.0,0.0,12.527296,0.0,0.0,nan,0.0,0.0,0.09025718,0.0025129807,0.002510132,0.002519089,0.0,0.0,0.0,0.0,0.0
61734807,61732791,0.0,0.0,0.0,107.73709,107.8166,0.0,0.0,0.0,0.0,0.0,0.0,0.0,0.0,12.526431,0.0,0.0,nan,0.0,0.0,0.09025718,0.0025119344,0.0025092657,0.002516274,0.0,0.0,0.0,0.0,0.0
62228797,62228411,0.0,0.0,0.0,107.676056,107.77333,0.0,0.0,0.0,0.0,0.0,0.0,0.0,0.0,12.525809,0.0,0.0,nan,0.0,0.0,0.09025718,0.0025124245,0.002507938,0.0025143155,0.0,0.0,0.0,0.0,0.0
62720238,62719657,0.0,0.0,0.0,107.64758,107.75676,0.0,0.0,0.0,0.0,0.0,0.0,0.0,0.0,12.526275,0.0,0.0,nan,0.0,0.0,0.09025718,0.002512376,0.0025072386,0.0025128028,0.0,0.0,0.0,0.0,0.0
63224905,63224461,0.0,0.0,0.0,107.621895,107.74359,0.0,0.0,0.0,0.0,0.0,0.0,0.0,0.0,12.525144,0.0,0.0,nan,0.0,0.0,0.09025718,0.0025121418,0.0025070421,0.0025115842,0.0,0.0,0.0,0.0,0.0
63731750,63729179,0.0,0.0,0.0,107.6002,107.74193,0.0,0.0,0.0,0.0,0.0,0.0,0.0,0.0,12.524448,0.0,0.0,nan,0.0,0.0,0.09025718,0.0025113851,0.0025070016,0.0025106028,0.0,0.0,0.0,0.0,0.0
64225544,64225074,0.0,0.0,0.0,107.57887,107.73431,0.0,0.0,0.0,0.0,0.0,0.0,0.0,0.0,12.52445,0.0,0.0,nan,0.0,0.0,0.09025718,0.00251087,0.002508116,0.0025097572,0.0,0.0,0.0,0.0,0.0
64732281,64729693,0.0,0.0,0.0,107.533905,107.7085,0.0,0.0,0.0,0.0,0.0,0.0,0.0,0.0,12.523835,0.0,0.0,nan,0.0,0.0,0.09025718,0.0025105225,0.0025092575,0.002509056,0.0,0.0,0.0,0.0,0.0
65227581,65225443,0.0,0.0,0.0,107.48872,107.67478,0.0,0.0,0.0,0.0,0.0,0.0,0.0,0.0,12.523337,0.0,0.0,nan,0.0,0.0,0.09025718,0.0025100952,0.0025095004,0.0025085283,0.0,0.0,0.0,0.0,0.0
65726237,65725746,0.0,0.0,0.0,107.48052,107.685425,0.0,0.0,0.0,0.0,0.0,0.0,0.0,0.0,12.523416,0.0,0.0,nan,0.0,0.0,0.09025718,0.0025088605,0.002509461,0.0025082724,0.0,0.0,0.0,0.0,0.0
66232656,66230682,0.0,0.0,0.0,107.46553,107.68168,0.0,0.0,0.0,0.0,0.0,0.0,0.0,0.0,12.5228195,0.0,0.0,nan,0.0,0.0,0.09025718,0.0025083171,0.0025106578,0.0025077523,0.0,0.0,0.0,0.0,0.0
66722020,66717345,0.0,0.0,0.0,107.434975,107.66823,0.0,0.0,0.0,0.0,0.0,0.0,0.0,0.0,12.522301,0.0,0.0,nan,0.0,0.0,0.09025718,0.0025076035,0.002512389,0.0025074307,0.0,0.0,0.0,0.0,0.0
67229672,67226548,0.0,0.0,0.0,107.45302,107.700584,0.0,0.0,0.0,0.0,0.0,0.0,0.0,0.0,12.52244,0.0,0.0,nan,0.0,0.0,0.09025718,0.0025079213,0.0025133174,0.0025070917,0.0,0.0,0.0,0.0,0.0
67727263,67726735,0.0,0.0,0.0,107.44187,107.703156,0.0,0.0,0.0,0.0,0.0,0.0,0.0,0.0,12.521974,0.0,0.0,nan,0.0,0.0,0.09025718,0.0025093504,0.0025126052,0.0025067278,0.0,0.0,0.0,0.0,0.0
68229312,68227036,0.0,0.0,0.0,107.44205,107.726006,0.0,0.0,0.0,0.0,0.0,0.0,0.0,0.0,12.522622,0.0,0.0,nan,0.0,0.0,0.09025718,0.00251124,0.002512252,0.002506336,0.0,0.0,0.0,0.0,0.0
68723454,68722929,0.0,0.0,0.0,107.435585,107.73675,0.0,0.0,0.0,0.0,0.0,0.0,0.0,0.0,12.521838,0.0,0.0,nan,0.0,0.0,0.09025718,0.002512589,0.0025095625,0.0025060477,0.0,0.0,0.0,0.0,0.0
69227893,69227516,0.0,0.0,0.0,107.42012,107.74639,0.0,0.0,0.0,0.0,0.0,0.0,0.0,0.0,12.520398,0.0,0.0,nan,0.0,0.0,0.09025718,0.0025127358,0.002509757,0.0025057048,0.0,0.0,0.0,0.0,0.0
69732022,69727766,0.0,0.0,0.0,107.42503,107.767914,0.0,0.0,0.0,0.0,0.0,0.0,0.0,0.0,12.52131,0.0,0.0,nan,0.0,0.0,0.09025718,0.0025118538,0.002508935,0.002505476,0.0,0.0,0.0,0.0,0.0
70224076,70223527,0.0,0.0,0.0,107.45153,107.81906,0.0,0.0,0.0,0.0,0.0,0.0,0.0,0.0,12.521867,0.0,0.0,nan,0.0,0.0,0.09025718,0.0025105453,0.0025080286,0.002505295,0.0,0.0,0.0,0.0,0.0
70730665,70728503,0.0,0.0,0.0,107.459526,107.83969,0.0,0.0,0.0,0.0,0.0,0.0,0.0,0.0,12.521609,0.0,0.0,nan,0.0,0.0,0.09025718,0.0025094647,0.0025099774,0.0025050277,0.0,0.0,0.0,0.0,0.0
71229137,71228545,0.0,0.0,0.0,107.462746,107.851494,0.0,0.0,0.0,0.0,0.0,0.0,0.0,0.0,12.521423,0.0,0.0,nan,0.0,0.0,0.09025718,0.0025087388,0.0025085774,0.00250486,0.0,0.0,0.0,0.0,0.0
71727092,71724477,0.0,0.0,0.0,107.50232,107.903145,0.0,0.0,0.0,0.0,0.0,0.0,0.0,0.0,12.5209875,0.0,0.0,nan,0.0,0.0,0.09025718,0.002507751,0.0025080142,0.0025047509,0.0,0.0,0.0,0.0,0.0
72229713,72229068,0.0,0.0,0.0,107.5222,107.92819,0.0,0.0,0.0,0.0,0.0,0.0,0.0,0.0,12.52201,0.0,0.0,nan,0.0,0.0,0.09025718,0.0025085236,0.0025079602,0.0025046305,0.0,0.0,0.0,0.0,0.0
72726959,72724824,0.0,0.0,0.0,107.49589,107.89705,0.0,0.0,0.0,0.0,0.0,0.0,0.0,0.0,12.521918,0.0,0.0,nan,0.0,0.0,0.09025718,0.0025078247,0.002507475,0.0025045304,0.0,0.0,0.0,0.0,0.0
73223169,73220798,0.0,0.0,0.0,107.48224,107.87693,0.0,0.0,0.0,0.0,0.0,0.0,0.0,0.0,12.521341,0.0,0.0,nan,0.0,0.0,0.09025718,0.002508679,0.002507032,0.0025043765,0.0,0.0,0.0,0.0,0.0
73721943,73720833,0.0,0.0,0.0,107.4455,107.8219,0.0,0.0,0.0,0.0,0.0,0.0,0.0,0.0,12.522242,0.0,0.0,nan,0.0,0.0,0.09025718,0.0025100727,0.0025067758,0.0025042994,0.0,0.0,0.0,0.0,0.0
74217109,74216736,0.0,0.0,0.0,107.44176,107.78554,0.0,0.0,0.0,0.0,0.0,0.0,0.0,0.0,12.521982,0.0,0.0,nan,0.0,0.0,0.090232395,0.002510082,0.002506757,0.002504298,0.0,0.0,0.0,0.0,0.0
74726491,74725928,0.0,0.0,0.0,107.43736,107.74953,0.0,0.0,0.0,0.0,0.0,0.0,0.0,0.0,12.522526,0.0,0.0,nan,0.0,0.0,0.09022375,0.002510082,0.002506757,0.002504298,0.0,0.0,0.0,0.0,0.0
75226771,75226383,0.0,0.0,0.0,107.41035,107.6823,0.0,0.0,0.0,0.0,0.0,0.0,0.0,0.0,12.523268,0.0,0.0,nan,0.0,0.0,0.09021907,0.002510082,0.002506757,0.002504298,0.0,0.0,0.0,0.0,0.0
75727053,75726384,0.0,0.0,0.0,107.40056,107.64966,0.0,0.0,0.0,0.0,0.0,0.0,0.0,0.0,12.521879,0.0,0.0,nan,0.0,0.0,0.09021541,0.002510082,0.002506757,0.002504298,0.0,0.0,0.0,0.0,0.0
76223178,76222320,0.0,0.0,0.0,107.399734,107.6198,0.0,0.0,0.0,0.0,0.0,0.0,0.0,0.0,12.522276,0.0,0.0,nan,0.0,0.0,0.090210654,0.002510082,0.002506757,0.002504298,0.0,0.0,0.0,0.0,0.0
76723148,76722450,0.0,0.0,0.0,107.388596,107.59089,0.0,0.0,0.0,0.0,0.0,0.0,0.0,0.0,12.521829,0.0,0.0,nan,0.0,0.0,0.0902083,0.002510082,0.002506757,0.002504298,0.0,0.0,0.0,0.0,0.0
77227780,77227170,0.0,0.0,0.0,107.38857,107.57002,0.0,0.0,0.0,0.0,0.0,0.0,0.0,0.0,12.521424,0.0,0.0,nan,0.0,0.0,0.090203844,0.002510082,0.002506757,0.002504298,0.0,0.0,0.0,0.0,0.0
77723290,77722924,0.0,0.0,0.0,107.38041,107.54876,0.0,0.0,0.0,0.0,0.0,0.0,0.0,0.0,12.5206175,0.0,0.0,nan,0.0,0.0,0.09020091,0.002510082,0.002506757,0.002504298,0.0,0.0,0.0,0.0,0.0
78223570,78223186,0.0,0.0,0.0,107.373276,107.529366,0.0,0.0,0.0,0.0,0.0,0.0,0.0,0.0,12.52131,0.0,0.0,nan,0.0,0.0,0.09019863,0.002510082,0.002506757,0.002504298,0.0,0.0,0.0,0.0,0.0
78729289,78728001,0.0,0.0,0.0,107.37508,107.51455,0.0,0.0,0.0,0.0,0.0,0.0,0.0,0.0,12.520833,0.0,0.0,nan,0.0,0.0,0.09019577,0.002510082,0.002506757,0.002504298,0.0,0.0,0.0,0.0,0.0
79719946,79719513,0.0,0.0,0.0,107.3537,107.46709,0.0,0.0,0.0,0.0,0.0,0.0,0.0,0.0,12.520824,0.0,0.0,nan,0.0,0.0,0.09019134,0.002510082,0.002506757,0.002504298,0.0,0.0,0.0,0.0,0.0
80224659,80224237,0.0,0.0,0.0,107.3547,107.45852,0.0,0.0,0.0,0.0,0.0,0.0,0.0,0.0,12.520618,0.0,0.0,nan,0.0,0.0,0.09018869,0.002510082,0.002506757,0.002504298,0.0,0.0,0.0,0.0,0.0
80726201,80724500,0.0,0.0,0.0,107.39404,107.484825,0.0,0.0,0.0,0.0,0.0,0.0,0.0,0.0,12.521063,0.0,0.0,nan,0.0,0.0,0.09018671,0.002510082,0.002506757,0.002504298,0.0,0.0,0.0,0.0,0.0
81730272,81729534,0.0,0.0,0.0,107.38611,107.456406,0.0,0.0,0.0,0.0,0.0,0.0,0.0,0.0,12.520598,0.0,0.0,nan,0.0,0.0,0.09018311,0.002510082,0.002506757,0.002504298,0.0,0.0,0.0,0.0,0.0
82230260,82229798,0.0,0.0,0.0,107.39311,107.45622,0.0,0.0,0.0,0.0,0.0,0.0,0.0,0.0,12.520036,0.0,0.0,nan,0.0,0.0,0.09018129,0.002510082,0.002506757,0.002504298,0.0,0.0,0.0,0.0,0.0
82726075,82725554,0.0,0.0,0.0,107.45116,107.50813,0.0,0.0,0.0,0.0,0.0,0.0,0.0,0.0,12.5220585,0.0,0.0,nan,0.0,0.0,0.09017988,0.002510082,0.002506757,0.002504298,0.0,0.0,0.0,0.0,0.0
83226990,83225819,0.0,0.0,0.0,107.472084,107.51991,0.0,0.0,0.0,0.0,0.0,0.0,0.0,0.0,12.521788,0.0,0.0,nan,0.0,0.0,0.09017906,0.002510082,0.002506757,0.002504298,0.0,0.0,0.0,0.0,0.0
83722300,83721796,0.0,0.0,0.0,107.48384,107.52609,0.0,0.0,0.0,0.0,0.0,0.0,0.0,0.0,12.521072,0.0,0.0,nan,0.0,0.0,0.09017683,0.002510082,0.002506757,0.002504298,0.0,0.0,0.0,0.0,0.0
84222518,84221841,0.0,0.0,0.0,107.4993,107.53464,0.0,0.0,0.0,0.0,0.0,0.0,0.0,0.0,12.51963,0.0,0.0,nan,0.0,0.0,0.09017524,0.002510082,0.002506757,0.002504298,0.0,0.0,0.0,0.0,0.0
84726994,84726613,0.0,0.0,0.0,107.525085,107.55658,0.0,0.0,0.0,0.0,0.0,0.0,0.0,0.0,12.52047,0.0,0.0,nan,0.0,0.0,0.090174116,0.002510082,0.002506757,0.002504298,0.0,0.0,0.0,0.0,0.0
85223621,85222370,0.0,0.0,0.0,107.52841,107.55469,0.0,0.0,0.0,0.0,0.0,0.0,0.0,0.0,12.51985,0.0,0.0,nan,0.0,0.0,0.09017272,0.002510082,0.002506757,0.002504298,0.0,0.0,0.0,0.0,0.0
85728439,85727395,0.0,0.0,0.0,107.566345,107.58987,0.0,0.0,0.0,0.0,0.0,0.0,0.0,0.0,12.520759,0.0,0.0,nan,0.0,0.0,0.090171695,0.002510082,0.002506757,0.002504298,0.0,0.0,0.0,0.0,0.0
86228199,86227410,0.0,0.0,0.0,107.60573,107.62681,0.0,0.0,0.0,0.0,0.0,0.0,0.0,0.0,12.520483,0.0,0.0,nan,0.0,0.0,0.09017053,0.002510082,0.002506757,0.002504298,0.0,0.0,0.0,0.0,0.0
86723772,86723325,0.0,0.0,0.0,107.708664,107.726906,0.0,0.0,0.0,0.0,0.0,0.0,0.0,0.0,12.520962,0.0,0.0,nan,0.0,0.0,0.09016947,0.002510082,0.002506757,0.002504298,0.0,0.0,0.0,0.0,0.0
87728588,87728204,0.0,0.0,0.0,107.81133,107.82603,0.0,0.0,0.0,0.0,0.0,0.0,0.0,0.0,12.520497,0.0,0.0,nan,0.0,0.0,0.09016766,0.002510082,0.002506757,0.002504298,0.0,0.0,0.0,0.0,0.0
88229979,88228487,0.0,0.0,0.0,107.844925,107.85867,0.0,0.0,0.0,0.0,0.0,0.0,0.0,0.0,12.5198,0.0,0.0,nan,0.0,0.0,0.09016646,0.002510082,0.002506757,0.002504298,0.0,0.0,0.0,0.0,0.0
88724739,88724229,0.0,0.0,0.0,107.9068,107.920074,0.0,0.0,0.0,0.0,0.0,0.0,0.0,0.0,12.519545,0.0,0.0,nan,0.0,0.0,0.09016571,0.002510082,0.002506757,0.002504298,0.0,0.0,0.0,0.0,0.0
89229708,89229047,0.0,0.0,0.0,107.96257,107.97532,0.0,0.0,0.0,0.0,0.0,0.0,0.0,0.0,12.520307,0.0,0.0,nan,0.0,0.0,0.09016486,0.002510082,0.002506757,0.002504298,0.0,0.0,0.0,0.0,0.0
89725430,89724917,0.0,0.0,0.0,107.98919,108.001816,0.0,0.0,0.0,0.0,0.0,0.0,0.0,0.0,12.519542,0.0,0.0,nan,0.0,0.0,0.09016406,0.002510082,0.002506757,0.002504298,0.0,0.0,0.0,0.0,0.0
90225836,90225027,0.0,0.0,0.0,108.01924,108.03183,0.0,0.0,0.0,0.0,0.0,0.0,0.0,0.0,12.52039,0.0,0.0,nan,0.0,0.0,0.09016334,0.002510082,0.002506757,0.002504298,0.0,0.0,0.0,0.0,0.0
90721286,90720846,0.0,0.0,0.0,108.046196,108.058876,0.0,0.0,0.0,0.0,0.0,0.0,0.0,0.0,12.520072,0.0,0.0,nan,0.0,0.0,0.090162605,0.002510082,0.002506757,0.002504298,0.0,0.0,0.0,0.0,0.0
91221838,91221367,0.0,0.0,0.0,108.06622,108.0791,0.0,0.0,0.0,0.0,0.0,0.0,0.0,0.0,12.519418,0.0,0.0,nan,0.0,0.0,0.09016179,0.002510082,0.002506757,0.002504298,0.0,0.0,0.0,0.0,0.0
91721872,91721321,0.0,0.0,0.0,108.08629,108.09939,0.0,0.0,0.0,0.0,0.0,0.0,0.0,0.0,12.519195,0.0,0.0,nan,0.0,0.0,0.090161204,0.002510082,0.002506757,0.002504298,0.0,0.0,0.0,0.0,0.0
92220475,92217255,0.0,0.0,0.0,108.09391,108.124435,0.0,0.0,0.0,0.0,0.0,0.0,0.0,0.0,12.520051,0.0,0.0,nan,0.0,0.0,0.09016077,0.0025251673,0.0025114284,0.0028134827,0.0,0.0,0.0,0.0,0.0
92728831,92726461,0.0,0.0,0.0,107.97334,108.02803,0.0,0.0,0.0,0.0,0.0,0.0,0.0,0.0,12.519406,0.0,0.0,nan,0.0,0.0,0.09016077,0.0025194795,0.0025114422,0.0025758762,0.0,0.0,0.0,0.0,0.0
93228810,93226630,0.0,0.0,0.0,107.90401,107.982376,0.0,0.0,0.0,0.0,0.0,0.0,0.0,0.0,12.520209,0.0,0.0,nan,0.0,0.0,0.09016077,0.0025155407,0.0025116762,0.002544779,0.0,0.0,0.0,0.0,0.0
93727514,93726898,0.0,0.0,0.0,107.862656,107.98145,0.0,0.0,0.0,0.0,0.0,0.0,0.0,0.0,12.519907,0.0,0.0,nan,0.0,0.0,0.09016077,0.0025124117,0.0025120184,0.0025318132,0.0,0.0,0.0,0.0,0.0
94231818,94227166,0.0,0.0,0.0,107.812645,107.95678,0.0,0.0,0.0,0.0,0.0,0.0,0.0,0.0,12.519263,0.0,0.0,nan,0.0,0.0,0.09016077,0.0025101108,0.002512307,0.0025244923,0.0,0.0,0.0,0.0,0.0
94723810,94722927,0.0,0.0,0.0,107.75909,107.93852,0.0,0.0,0.0,0.0,0.0,0.0,0.0,0.0,12.519083,0.0,0.0,nan,0.0,0.0,0.09016077,0.0025084605,0.002512336,0.002520109,0.0,0.0,0.0,0.0,0.0
95219218,95218840,0.0,0.0,0.0,107.744255,107.94451,0.0,0.0,0.0,0.0,0.0,0.0,0.0,0.0,12.519977,0.0,0.0,nan,0.0,0.0,0.09016077,0.0025073371,0.0025122222,0.0025170885,0.0,0.0,0.0,0.0,0.0
95730159,95728050,0.0,0.0,0.0,107.66862,107.89252,0.0,0.0,0.0,0.0,0.0,0.0,0.0,0.0,12.520526,0.0,0.0,nan,0.0,0.0,0.09016077,0.002507038,0.0025117162,0.0025148327,0.0,0.0,0.0,0.0,0.0
96229109,96228241,0.0,0.0,0.0,107.63474,107.87483,0.0,0.0,0.0,0.0,0.0,0.0,0.0,0.0,12.520357,0.0,0.0,nan,0.0,0.0,0.09016077,0.0025065541,0.00251096,0.0025131647,0.0,0.0,0.0,0.0,0.0
96724398,96724000,0.0,0.0,0.0,107.6084,107.863716,0.0,0.0,0.0,0.0,0.0,0.0,0.0,0.0,12.520282,0.0,0.0,nan,0.0,0.0,0.09016077,0.0025061152,0.0025104056,0.0025118187,0.0,0.0,0.0,0.0,0.0
97225108,97224475,0.0,0.0,0.0,107.58843,107.8623,0.0,0.0,0.0,0.0,0.0,0.0,0.0,0.0,12.519834,0.0,0.0,nan,0.0,0.0,0.09016077,0.0025057169,0.0025096675,0.0025108107,0.0,0.0,0.0,0.0,0.0
97726759,97724585,0.0,0.0,0.0,107.56984,107.84916,0.0,0.0,0.0,0.0,0.0,0.0,0.0,0.0,12.521029,0.0,0.0,nan,0.0,0.0,0.09016077,0.0025055641,0.0025104447,0.0025100226,0.0,0.0,0.0,0.0,0.0
98220989,98220440,0.0,0.0,0.0,107.54543,107.81679,0.0,0.0,0.0,0.0,0.0,0.0,0.0,0.0,12.52105,0.0,0.0,nan,0.0,0.0,0.09013966,0.002505522,0.0025107213,0.0025098454,0.0,0.0,0.0,0.0,0.0
98721292,98720572,0.0,0.0,0.0,107.552444,107.80917,0.0,0.0,0.0,0.0,0.0,0.0,0.0,0.0,12.520863,0.0,0.0,nan,0.0,0.0,0.09013755,0.002505522,0.0025107213,0.0025098454,0.0,0.0,0.0,0.0,0.0
99225724,99225350,0.0,0.0,0.0,107.59741,107.83678,0.0,0.0,0.0,0.0,0.0,0.0,0.0,0.0,12.521067,0.0,0.0,nan,0.0,0.0,0.09013819,0.002505522,0.0025107213,0.0025098454,0.0,0.0,0.0,0.0,0.0
99717228,99716857,0.0,0.0,0.0,107.62196,107.84729,0.0,0.0,0.0,0.0,0.0,0.0,0.0,0.0,12.522342,0.0,0.0,nan,0.0,0.0,0.0901399,0.002505522,0.0025107213,0.0025098454,0.0,0.0,0.0,0.0,0.0
100226571,100226067,0.0,0.0,0.0,107.61762,107.82754,0.0,0.0,0.0,0.0,0.0,0.0,0.0,0.0,12.523345,0.0,0.0,nan,0.0,0.0,0.09013989,0.002505522,0.0025107213,0.0025098454,0.0,0.0,0.0,0.0,0.0
100731183,100730666,0.0,0.0,0.0,107.598816,107.78549,0.0,0.0,0.0,0.0,0.0,0.0,0.0,0.0,12.522375,0.0,0.0,nan,0.0,0.0,0.090138905,0.002505522,0.0025107213,0.0025098454,0.0,0.0,0.0,0.0,0.0
101222394,101222019,0.0,0.0,0.0,107.59393,107.76667,0.0,0.0,0.0,0.0,0.0,0.0,0.0,0.0,12.523586,0.0,0.0,nan,0.0,0.0,0.09013897,0.002505522,0.0025107213,0.0025098454,0.0,0.0,0.0,0.0,0.0
101727195,101726700,0.0,0.0,0.0,107.59553,107.74638,0.0,0.0,0.0,0.0,0.0,0.0,0.0,0.0,12.523071,0.0,0.0,nan,0.0,0.0,0.0901385,0.002505522,0.0025107213,0.0025098454,0.0,0.0,0.0,0.0,0.0
102223204,102222463,0.0,0.0,0.0,107.585686,107.7221,0.0,0.0,0.0,0.0,0.0,0.0,0.0,0.0,12.524078,0.0,0.0,nan,0.0,0.0,0.090138376,0.002505522,0.0025107213,0.0025098454,0.0,0.0,0.0,0.0,0.0
102719020,102718454,0.0,0.0,0.0,107.5564,107.67232,0.0,0.0,0.0,0.0,0.0,0.0,0.0,0.0,12.523844,0.0,0.0,nan,0.0,0.0,0.090138495,0.002505522,0.0025107213,0.0025098454,0.0,0.0,0.0,0.0,0.0
103228250,103227683,0.0,0.0,0.0,107.57146,107.6748,0.0,0.0,0.0,0.0,0.0,0.0,0.0,0.0,12.523173,0.0,0.0,nan,0.0,0.0,0.090138406,0.002505522,0.0025107213,0.0025098454,0.0,0.0,0.0,0.0,0.0
103728361,103727785,0.0,0.0,0.0,107.55741,107.64836,0.0,0.0,0.0,0.0,0.0,0.0,0.0,0.0,12.524085,0.0,0.0,nan,0.0,0.0,0.09013852,0.002505522,0.0025107213,0.0025098454,0.0,0.0,0.0,0.0,0.0
104224434,104223636,0.0,0.0,0.0,107.54806,107.622696,0.0,0.0,0.0,0.0,0.0,0.0,0.0,0.0,12.523695,0.0,0.0,nan,0.0,0.0,0.09013849,0.002505522,0.0025107213,0.0025098454,0.0,0.0,0.0,0.0,0.0
104729180,104728330,0.0,0.0,0.0,107.52989,107.59431,0.0,0.0,0.0,0.0,0.0,0.0,0.0,0.0,12.522903,0.0,0.0,nan,0.0,0.0,0.090138786,0.002505522,0.0025107213,0.0025098454,0.0,0.0,0.0,0.0,0.0
105224812,105224092,0.0,0.0,0.0,107.52347,107.57468,0.0,0.0,0.0,0.0,0.0,0.0,0.0,0.0,12.522553,0.0,0.0,nan,0.0,0.0,0.09013862,0.002505522,0.0025107213,0.0025098454,0.0,0.0,0.0,0.0,0.0
105720495,105720105,0.0,0.0,0.0,107.50842,107.5517,0.0,0.0,0.0,0.0,0.0,0.0,0.0,0.0,12.522223,0.0,0.0,nan,0.0,0.0,0.09013886,0.002505522,0.0025107213,0.0025098454,0.0,0.0,0.0,0.0,0.0
106229857,106229275,0.0,0.0,0.0,107.49734,107.530266,0.0,0.0,0.0,0.0,0.0,0.0,0.0,0.0,12.52364,0.0,0.0,nan,0.0,0.0,0.09013919,0.002505522,0.0025107213,0.0025098454,0.0,0.0,0.0,0.0,0.0
106730263,106729414,0.0,0.0,0.0,107.480675,107.50742,0.0,0.0,0.0,0.0,0.0,0.0,0.0,0.0,12.522078,0.0,0.0,nan,0.0,0.0,0.090139255,0.002505522,0.0025107213,0.0025098454,0.0,0.0,0.0,0.0,0.0
107225878,107225244,0.0,0.0,0.0,107.4413,107.46284,0.0,0.0,0.0,0.0,0.0,0.0,0.0,0.0,12.521272,0.0,0.0,nan,0.0,0.0,0.090139605,0.002505522,0.0025107213,0.0025098454,0.0,0.0,0.0,0.0,0.0
107730440,107730005,0.0,0.0,0.0,107.44149,107.45715,0.0,0.0,0.0,0.0,0.0,0.0,0.0,0.0,12.521985,0.0,0.0,nan,0.0,0.0,0.090139836,0.002505522,0.0025107213,0.0025098454,0.0,0.0,0.0,0.0,0.0
108221640,108221215,0.0,0.0,0.0,107.45697,107.46956,0.0,0.0,0.0,0.0,0.0,0.0,0.0,0.0,12.522693,0.0,0.0,nan,0.0,0.0,0.09014031,0.002505522,0.0025107213,0.0025098454,0.0,0.0,0.0,0.0,0.0
108722501,108721694,0.0,0.0,0.0,107.42667,107.435715,0.0,0.0,0.0,0.0,0.0,0.0,0.0,0.0,12.522337,0.0,0.0,nan,0.0,0.0,0.090140596,0.002505522,0.0025107213,0.0025098454,0.0,0.0,0.0,0.0,0.0
109222612,109221764,0.0,0.0,0.0,107.421684,107.42902,0.0,0.0,0.0,0.0,0.0,0.0,0.0,0.0,12.521634,0.0,0.0,nan,0.0,0.0,0.09014093,0.002505522,0.0025107213,0.0025098454,0.0,0.0,0.0,0.0,0.0
109726987,109726602,0.0,0.0,0.0,107.412834,107.41831,0.0,0.0,0.0,0.0,0.0,0.0,0.0,0.0,12.521466,0.0,0.0,nan,0.0,0.0,0.09014106,0.002505522,0.0025107213,0.0025098454,0.0,0.0,0.0,0.0,0.0
110727870,110727357,0.0,0.0,0.0,107.403046,107.40688,0.0,0.0,0.0,0.0,0.0,0.0,0.0,0.0,12.521789,0.0,0.0,nan,0.0,0.0,0.090141825,0.002505522,0.0025107213,0.0025098454,0.0,0.0,0.0,0.0,0.0
111228522,111227365,0.0,0.0,0.0,107.39709,107.400696,0.0,0.0,0.0,0.0,0.0,0.0,0.0,0.0,12.520239,0.0,0.0,nan,0.0,0.0,0.09014218,0.002505522,0.0025107213,0.0025098454,0.0,0.0,0.0,0.0,0.0
111723992,111723312,0.0,0.0,0.0,107.440865,107.44469,0.0,0.0,0.0,0.0,0.0,0.0,0.0,0.0,12.518602,0.0,0.0,nan,0.0,0.0,0.0901422,0.002505522,0.0025107213,0.0025098454,0.0,0.0,0.0,0.0,0.0
112224079,112223409,0.0,0.0,0.0,107.459564,107.46388,0.0,0.0,0.0,0.0,0.0,0.0,0.0,0.0,12.516156,0.0,0.0,nan,0.0,0.0,0.09014242,0.002505522,0.0025107213,0.0025098454,0.0,0.0,0.0,0.0,0.0
112728608,112728188,0.0,0.0,0.0,107.504105,107.50913,0.0,0.0,0.0,0.0,0.0,0.0,0.0,0.0,12.512027,0.0,0.0,nan,0.0,0.0,0.090142764,0.002505522,0.0025107213,0.0025098454,0.0,0.0,0.0,0.0,0.0
113224582,113223955,0.0,0.0,0.0,7.7928333,7.799,0.0,0.0,0.0,0.0,0.0,0.0,0.0,0.0,12.507675,0.0,0.0,nan,0.0,0.0,0.090142965,0.002505522,0.0025107213,0.0025098454,0.0,0.0,0.0,0.0,0.0
113724739,113724277,0.0,0.0,0.0,0.3992815,0.39931563,0.0,0.0,0.0,0.0,0.0,0.0,0.0,0.0,12.503653,0.0,0.0,nan,0.0,0.0,0.09014315,0.002505522,0.0025107213,0.0025098454,0.0,0.0,0.0,0.0,0.0
