timestamp,timestamp_sample,control[0],control[1],control[2],control[3],control[4],control[5],control[6],control[7]
21995347,0,0.0,-0.0,1.0,0.0,0.0,0.0,0.0,0.0
22296654,0,0.0,-0.0,1.0,0.0,0.0,0.0,0.0,0.0
22403708,0,0.0,-0.0,0.95539904,0.0,0.0,0.0,0.0,0.0
22426789,0,0.0,-0.0,0.8333333,0.0,0.0,0.0,0.0,0.0
22510392,0,0.0,-0.0,0.17840375,0.0,0.0,0.0,0.0,0.0
22621872,0,0.0,-0.0,0.0,0.0,0.0,0.0,0.0,0.0
22710020,0,0.0,-0.0,0.0,0.0,0.0,0.0,0.0,0.0
22818045,0,0.0,-0.0,0.0,0.0,0.0,0.0,0.0,0.0
22926382,0,0.0,-0.0,0.0,0.030373832,0.0,0.0,0.0,0.0
23015112,0,0.0,-0.0,0.0,0.08411215,0.0,0.0,0.0,0.0
23056112,0,0.0,-0.0,0.0,0.098130845,0.0,0.0,0.0,0.0
23253499,0,0.0,-0.0,0.0,0.099299066,0.0,0.0,0.0,0.0
23320788,0,0.0,-0.0,0.0,0.11799066,0.0,0.0,0.0,0.0
23428807,0,0.0,-0.0,0.0,0.12266355,0.0,0.0,0.0,0.0
23511995,0,0.0,-0.0,0.0,0.12266355,0.0,0.0,0.0,0.0
23621566,0,0.0,-0.0,0.0,0.12266355,0.0,0.0,0.0,0.0
23710044,0,0.0,-0.0,0.0,0.12383178,0.0,0.0,0.0,0.0
23774166,0,0.0,-0.0,0.0,0.12266355,0.0,0.0,0.0,0.0
23881026,0,0.0,-0.0,0.0,0.11565421,0.0,0.0,0.0,0.0
24009556,0,0.0,-0.0,0.0,0.096962616,0.0,0.0,0.0,0.0
24120670,0,0.0,-0.0,0.0,0.101635516,0.0,0.0,0.0,0.0
24207288,0,0.0,-0.0,0.0,0.11331776,0.0,0.0,0.0,0.0
24250438,0,0.0,-0.0,0.0,0.11331776,0.0,0.0,0.0,0.0
24422806,0,0.0,-0.0,0.0,0.14135514,0.0,0.0,0.0,0.0
24528678,0,0.0,-0.0,0.0,0.1495327,0.0,0.0,0.0,0.0
24594935,0,0.0,-0.0,0.0,0.1542056,0.0,0.0,0.0,0.0
24728309,0,0.0,-0.0,0.0,0.15654206,0.0,0.0,0.0,0.0
24791543,0,0.0,-0.0,0.0,0.15654206,0.0,0.0,0.0,0.0
24919782,0,0.0,-0.0,0.02112676,0.14719626,0.0,0.0,0.0,0.0
25029049,0,0.0,-0.0,0.07746479,0.1343458,0.0,0.0,0.0,0.0
25117269,0,0.0,-0.0,0.09389672,0.1343458,0.0,0.0,0.0,0.0
25226507,0,0.0,-0.0,0.09154929,0.12850468,0.0,0.0,0.0,0.0
25312371,0,0.0,-0.0,0.09859155,0.11682243,0.0,0.0,0.0,0.0
25400968,0,0.0,-0.0,0.10798122,0.11448598,0.0,0.0,0.0,0.0
25486715,0,0.0,-0.0,0.10798122,0.11799066,0.0,0.0,0.0,0.0
25616878,0,0.0,-0.0,0.11971831,0.11799066,0.0,0.0,0.0,0.0
25722926,0,0.0,0.016587678,0.12676056,0.1203271,0.0,0.0,0.0,0.0
25811542,0,0.0,0.0047393367,0.12676056,0.12850468,0.0,0.0,0.0,0.0
25921317,0,0.023640662,0.0047393367,0.12676056,0.13084112,0.0,0.0,0.0,0.0
26009979,0,0.0070921984,0.016587678,0.13849765,0.13084112,0.0,0.0,0.0,0.0
26116182,0,0.0,0.08293839,0.15023474,0.13084112,0.0,0.0,0.0,0.0
26225015,0,0.0,0.11137441,0.14084508,0.13901868,0.0,0.0,0.0,0.0
26313441,0,0.0,0.13033175,0.14084508,0.14018692,0.0,0.0,0.0,0.0
26421719,0,0.0,0.11374407,0.13380282,0.14018692,0.0,0.0,0.0,0.0
26509932,0,0.0,0.11137441,0.12676056,0.14018692,0.0,0.0,0.0,0.0
26618886,0,0.0,0.049763035,0.12676056,0.14836448,0.0,0.0,0.0,0.0
26726800,0,0.0,0.014218009,0.12441315,0.14836448,0.0,0.0,0.0,0.0
26811290,0,0.028368793,-0.0,0.11971831,0.125,0.0,0.0,0.0,0.0
26917780,0,0.0,0.021327015,0.11971831,0.13317756,0.0,0.0,0.0,0.0
27005855,0,0.0,0.056872036,0.11032864,0.1296729,0.0,0.0,0.0,0.0
27117748,0,0.0,0.08293839,0.10798122,0.1296729,0.0,0.0,0.0,0.0
27220456,0,0.0,0.0900474,0.10798122,0.1296729,0.0,0.0,0.0,0.0
27305360,0,0.0,0.087677725,0.1056338,0.1296729,0.0,0.0,0.0,0.0
27417223,0,0.0,0.09478673,0.1056338,0.1296729,0.0,0.0,0.0,0.0
27524890,0,0.0,0.09952607,0.10798122,0.1343458,0.0,0.0,0.0,0.0
27610032,0,0.0,0.0900474,0.10798122,0.1343458,0.0,0.0,0.0,0.0
27721872,0,0.021276595,0.09241706,0.10798122,0.1343458,0.0,0.0,0.0,0.0
27808221,0,0.028368793,0.0971564,0.10798122,0.1343458,0.0,0.0,0.0,0.0
27919385,0,0.040189125,0.10663507,0.10798122,0.13668224,0.0,0.0,0.0,0.0
28029069,0,0.04255319,0.12559241,0.09859155,0.13551402,0.0,0.0,0.0,0.0
28117789,0,0.04491726,0.13270143,0.096244134,0.12383178,0.0,0.0,0.0,0.0
28222224,0,0.040189125,0.13744076,0.09859155,0.12383178,0.0,0.0,0.0,0.0
28330804,0,0.028368793,0.16587678,0.09859155,0.13084112,0.0,0.0,0.0,0.0
28413461,0,0.0023640662,0.16587678,0.103286386,0.13785046,0.0,0.0,0.0,0.0
28502640,0,0.0,0.13981043,0.103286386,0.1448598,0.0,0.0,0.0,0.0
28611706,0,0.0,0.1421801,0.103286386,0.1448598,0.0,0.0,0.0,0.0
28722012,0,0.0,0.13744076,0.103286386,0.15771028,0.0,0.0,0.0,0.0
28829860,0,0.0,0.09478673,0.103286386,0.15771028,0.0,0.0,0.0,0.0
28915472,0,0.04964539,0.101895735,0.103286386,0.15771028,0.0,0.0,0.0,0.0
29021302,0,0.04964539,0.09241706,0.1056338,0.1495327,0.0,0.0,0.0,0.0
29109443,0,0.06146572,0.09478673,0.1056338,0.1495327,0.0,0.0,0.0,0.0
29217483,0,0.06146572,0.07582939,0.1056338,0.1495327,0.0,0.0,0.0,0.0
29328835,0,0.03782506,0.07582939,0.10798122,0.1495327,0.0,0.0,0.0,0.0
29415600,0,0.03073286,0.07109005,0.11032864,0.13084112,0.0,0.0,0.0,0.0
29524974,0,0.009456265,0.08056872,0.11032864,0.13084112,0.0,0.0,0.0,0.0
29611748,0,0.0,0.0450237,0.11032864,0.13084112,0.0,0.0,0.0,0.0
29698448,0,0.0,0.011848342,0.10798122,0.13084112,0.0,0.0,0.0,0.0
29806186,0,0.0,0.047393367,0.11032864,0.13200934,0.0,0.0,0.0,0.0
29912604,0,0.0,0.08293839,0.11032864,0.13317756,0.0,0.0,0.0,0.0
30023887,0,0.0,0.10663507,0.103286386,0.14252336,0.0,0.0,0.0,0.0
30111036,0,0.0,0.116113745,0.096244134,0.14252336,0.0,0.0,0.0,0.0
30219520,0,0.0,0.101895735,0.096244134,0.14252336,0.0,0.0,0.0,0.0
30328659,0,0.021276595,0.09478673,0.08685446,0.13317756,0.0,0.0,0.0,0.0
30393022,0,0.03073286,0.087677725,0.089201875,0.13317756,0.0,0.0,0.0,0.0
30521528,0,0.047281325,0.09241706,0.08685446,0.13317756,0.0,0.0,0.0,0.0
30628769,0,0.040189125,0.08056872,0.07981221,0.125,0.0,0.0,0.0,0.0
30714850,0,0.021276595,0.08293839,0.07746479,0.125,0.0,0.0,0.0,0.0
30804823,0,0.0,0.09241706,0.07746479,0.125,0.0,0.0,0.0,0.0
30871936,0,0.0,0.09241706,0.07511737,0.125,0.0,0.0,0.0,0.0
31026719,0,0.0,0.116113745,0.07746479,0.125,0.0,0.0,0.0,0.0
31067176,0,0.0,0.12559241,0.07746479,0.125,0.0,0.0,0.0,0.0
31217184,0,0.0,0.12559241,0.06807512,0.125,0.0,0.0,0.0,0.0
31328705,0,0.0,0.116113745,0.065727696,0.125,0.0,0.0,0.0,0.0
31391978,0,0.0,0.11137441,0.06338028,0.1296729,0.0,0.0,0.0,0.0
31518421,0,0.0,0.09952607,0.06338028,0.1296729,0.0,0.0,0.0,0.0
31625946,0,0.0,0.09952607,0.06338028,0.13317756,0.0,0.0,0.0,0.0
31708052,0,0.0,0.0971564,0.06338028,0.14018692,0.0,0.0,0.0,0.0
31820053,0,0.0,0.09478673,0.061032865,0.1448598,0.0,0.0,0.0,0.0
31908132,0,0.009456265,0.109004736,0.061032865,0.1448598,0.0,0.0,0.0,0.0
32012892,0,0.0070921984,0.123222746,0.061032865,0.1542056,0.0,0.0,0.0,0.0
32121152,0,0.0,0.11137441,0.061032865,0.15537383,0.0,0.0,0.0,0.0
32215670,0,0.0,0.10663507,0.061032865,0.15537383,0.0,0.0,0.0,0.0
32312098,0,0.0,0.11137441,0.061032865,0.15537383,0.0,0.0,0.0,0.0
32419406,0,0.0,0.11137441,0.058685444,0.1495327,0.0,0.0,0.0,0.0
32528554,0,0.0,0.09241706,0.056338027,0.1448598,0.0,0.0,0.0,0.0
32614326,0,0.0,0.09241706,0.049295776,0.1296729,0.0,0.0,0.0,0.0
32725102,0,0.016548464,0.09241706,0.051643193,0.12616822,0.0,0.0,0.0,0.0
32816295,0,0.023640662,0.08293839,0.05399061,0.12616822,0.0,0.0,0.0,0.0
32921665,0,0.014184397,0.08530806,0.05399061,0.12616822,0.0,0.0,0.0,0.0
33005939,0,0.011820331,0.09478673,0.05399061,0.12733644,0.0,0.0,0.0,0.0
33119062,0,0.03782506,0.087677725,0.051643193,0.12733644,0.0,0.0,0.0,0.0
33206016,0,0.009456265,0.09241706,0.049295776,0.1343458,0.0,0.0,0.0,0.0
33317281,0,0.0023640662,0.0900474,0.04225352,0.1343458,0.0,0.0,0.0,0.0
33423978,0,0.014184397,0.08293839,0.037558686,0.1343458,0.0,0.0,0.0,0.0
33509435,0,0.0,0.08293839,0.039906103,0.1343458,0.0,0.0,0.0,0.0
33621987,0,0.0,0.08293839,0.039906103,0.1343458,0.0,0.0,0.0,0.0
33729818,0,0.0,0.08056872,0.037558686,0.1343458,0.0,0.0,0.0,0.0
33798394,0,0.0,0.07582939,0.032863848,0.13084112,0.0,0.0,0.0,0.0
33905612,0,0.0,0.073459715,0.03521127,0.13084112,0.0,0.0,0.0,0.0
33989331,0,0.0,0.07582939,0.03521127,0.13084112,0.0,0.0,0.0,0.0
34117850,0,0.0,0.08056872,0.037558686,0.1296729,0.0,0.0,0.0,0.0
34207718,0,0.0,0.10663507,0.037558686,0.1296729,0.0,0.0,0.0,0.0
34313891,0,0.0,0.116113745,0.039906103,0.1296729,0.0,0.0,0.0,0.0
34418640,0,0.0,0.123222746,0.037558686,0.1296729,0.0,0.0,0.0,0.0
34526376,0,0.0,0.12796208,0.037558686,0.12266355,0.0,0.0,0.0,0.0
34611667,0,0.0,0.123222746,0.032863848,0.11682243,0.0,0.0,0.0,0.0
34718231,0,0.0,0.11374407,0.037558686,0.11682243,0.0,0.0,0.0,0.0
34825748,0,0.0,0.109004736,0.039906103,0.11682243,0.0,0.0,0.0,0.0
34931672,0,-0.0495283,0.08293839,0.039906103,0.11682243,0.0,0.0,0.0,0.0
34996405,0,-0.0495283,0.08293839,0.039906103,0.11682243,0.0,0.0,0.0,0.0
35102520,0,-0.0495283,0.08056872,0.039906103,0.11799066,0.0,0.0,0.0,0.0
35227307,0,-0.051886793,0.08293839,0.039906103,0.12616822,0.0,0.0,0.0,0.0
35317168,0,-0.08018868,0.07582939,0.039906103,0.13901868,0.0,0.0,0.0,0.0
35424814,0,-0.061320756,0.08056872,0.037558686,0.1448598,0.0,0.0,0.0,0.0
35511800,0,-0.061320756,0.08293839,0.037558686,0.14602804,0.0,0.0,0.0,0.0
35619138,0,-0.09669811,0.08293839,0.03521127,0.14602804,0.0,0.0,0.0,0.0
35728561,0,-0.20518868,0.109004736,0.02112676,0.14018692,0.0,0.0,0.0,0.0
35816339,0,-0.21462265,0.13270143,0.0,0.13901868,0.0,0.0,0.0,0.0
35924222,0,-0.16037735,0.11848341,0.0,0.13901868,0.0,0.0,0.0,0.0
36010104,0,-0.16745283,0.10663507,0.0,0.13901868,0.0,0.0,0.0,0.0
36096167,0,-0.14386792,0.101895735,0.0,0.13901868,0.0,0.0,0.0,0.0
36208419,0,-0.08254717,0.09478673,0.0,0.13901868,0.0,0.0,0.0,0.0
36313415,0,-0.04481132,0.08056872,-0.014251782,0.13901868,0.0,0.0,0.0,0.0
36423164,0,-0.03301887,0.059241705,-0.028503563,0.13901868,0.0,0.0,0.0,0.0
36509281,0,-0.028301887,0.04028436,-0.040380046,0.13901868,0.0,0.0,0.0,0.0
36618920,0,-0.03301887,0.054502368,-0.040380046,0.1343458,0.0,0.0,0.0,0.0
36727743,0,-0.06367925,0.09478673,-0.042755343,0.1343458,0.0,0.0,0.0,0.0
36812253,0,-0.06603774,0.0971564,-0.040380046,0.1343458,0.0,0.0,0.0,0.0
36921418,0,-0.051886793,0.11848341,-0.026128266,0.1495327,0.0,0.0,0.0,0.0
37009359,0,-0.047169812,0.13033175,-0.023752969,0.14836448,0.0,0.0,0.0,0.0
37119294,0,-0.04481132,0.12796208,-0.019002376,0.12850468,0.0,0.0,0.0,0.0
37225741,0,-0.03773585,0.123222746,-0.007125891,0.12850468,0.0,0.0,0.0,0.0
37319227,0,-0.009433962,0.13744076,-0.004750594,0.13084112,0.0,0.0,0.0,0.0
37401370,0,0.0,0.14691943,0.0,0.13084112,0.0,0.0,0.0,0.0
37510402,0,0.0,0.13507108,0.0,0.13084112,0.0,0.0,0.0,0.0
37618430,0,-0.007075472,0.09478673,0.0,0.13084112,0.0,0.0,0.0,0.0
37724726,0,0.0,-0.0,0.0,0.13317756,0.0,0.0,0.0,0.0
37813048,0,-0.009433962,-0.0,-0.016627079,0.13317756,0.0,0.0,0.0,0.0
37922899,0,-0.068396226,-0.0,-0.04513064,0.13084112,0.0,0.0,0.0,0.0
38011088,0,-0.1014151,-0.0,-0.052256532,0.13084112,0.0,0.0,0.0,0.0
38116330,0,-0.11556604,-0.0,-0.06888361,0.13084112,0.0,0.0,0.0,0.0
38227443,0,-0.12028302,-0.0,-0.08788598,0.12733644,0.0,0.0,0.0,0.0
38313800,0,-0.13679245,-0.0,-0.09026128,0.12733644,0.0,0.0,0.0,0.0
38420865,0,-0.13443395,-0.0,-0.09263658,0.13084112,0.0,0.0,0.0,0.0
38507265,0,-0.11556604,-0.0,-0.10213777,0.14252336,0.0,0.0,0.0,0.0
38615528,0,-0.11084906,-0.0,-0.10688836,0.1495327,0.0,0.0,0.0,0.0
38724656,0,-0.106132075,-0.0,-0.10213777,0.15303738,0.0,0.0,0.0,0.0
38813674,0,-0.051886793,-0.0,-0.10926366,0.15303738,0.0,0.0,0.0,0.0
38918169,0,-0.051886793,0.023696683,-0.11401425,0.14018692,0.0,0.0,0.0,0.0
39008005,0,-0.106132075,-0.0,-0.11401425,0.13901868,0.0,0.0,0.0,0.0
39116003,0,-0.091981135,-0.0,-0.11638955,0.15303738,0.0,0.0,0.0,0.0
39222828,0,-0.054245282,-0.0,-0.11638955,0.16121495,0.0,0.0,0.0,0.0
39309405,0,-0.07311321,-0.0,-0.111638956,0.16121495,0.0,0.0,0.0,0.0
39418826,0,-0.106132075,0.028436018,-0.10926366,0.1495327,0.0,0.0,0.0,0.0
39504109,0,-0.10377359,0.035545025,-0.10926366,0.1448598,0.0,0.0,0.0,0.0
39621347,0,-0.051886793,0.061611373,-0.10926366,0.14369158,0.0,0.0,0.0,0.0
39728423,0,-0.016509434,0.0900474,-0.11638955,0.14369158,0.0,0.0,0.0,0.0
39816455,0,0.0,0.1042654,-0.12826604,0.14018692,0.0,0.0,0.0,0.0
39904832,0,-0.016509434,0.0971564,-0.12589073,0.13901868,0.0,0.0,0.0,0.0
40014852,0,-0.047169812,0.061611373,-0.12826604,0.13901868,0.0,0.0,0.0,0.0
40122731,0,-0.08018868,-0.0,-0.13776723,0.13901868,0.0,0.0,0.0,0.0
40209412,0,-0.03301887,-0.0,-0.14251782,0.13084112,0.0,0.0,0.0,0.0
40319017,0,-0.061320756,-0.0,-0.1496437,0.1296729,0.0,0.0,0.0,0.0
40427586,0,-0.09669811,-0.0,-0.15201901,0.12733644,0.0,0.0,0.0,0.0
40512857,0,-0.06367925,0.009478673,-0.1567696,0.12266355,0.0,0.0,0.0,0.0
40623356,0,-0.03301887,0.023696683,-0.14726841,0.12616822,0.0,0.0,0.0,0.0
40710983,0,-0.004716981,0.035545025,-0.14726841,0.12616822,0.0,0.0,0.0,0.0
40816600,0,0.0,0.04028436,-0.15201901,0.12616822,0.0,0.0,0.0,0.0
40923124,0,-0.018867925,0.04028436,-0.1496437,0.13785046,0.0,0.0,0.0,0.0
41010787,0,-0.025943397,0.035545025,-0.14489311,0.13901868,0.0,0.0,0.0,0.0
41115565,0,0.0,0.023696683,-0.1496437,0.13901868,0.0,0.0,0.0,0.0
41225591,0,0.0,-0.0,-0.15201901,0.1495327,0.0,0.0,0.0,0.0
41287559,0,0.0,-0.0,-0.1567696,0.15070094,0.0,0.0,0.0,0.0
41419060,0,0.0,-0.0,-0.1591449,0.1495327,0.0,0.0,0.0,0.0
41485860,0,0.0,0.009478673,-0.1591449,0.14836448,0.0,0.0,0.0,0.0
41613438,0,0.0,0.047393367,-0.16152018,0.14602804,0.0,0.0,0.0,0.0
41720049,0,0.0,0.06872038,-0.16152018,0.14369158,0.0,0.0,0.0,0.0
41826162,0,0.0,0.08293839,-0.16152018,0.13200934,0.0,0.0,0.0,0.0
41889740,0,0.0,0.07109005,-0.16389549,0.13200934,0.0,0.0,0.0,0.0
42018288,0,-0.0023584906,0.056872036,-0.16152018,0.13668224,0.0,0.0,0.0,0.0
42113674,0,0.0,0.0521327,-0.16627078,0.13785046,0.0,0.0,0.0,0.0
42216025,0,0.0,0.06872038,-0.17339668,0.13785046,0.0,0.0,0.0,0.0
42328797,0,0.0,0.06872038,-0.17339668,0.13551402,0.0,0.0,0.0,0.0
42423338,0,0.0,0.06398104,-0.17339668,0.13084112,0.0,0.0,0.0,0.0
42527607,0,0.0,0.04265403,-0.17339668,0.12850468,0.0,0.0,0.0,0.0
42613440,0,0.0,-0.0,-0.17339668,0.12850468,0.0,0.0,0.0,0.0
42697221,0,0.0,0.009478673,-0.17339668,0.12850468,0.0,0.0,0.0,0.0
42829221,0,0.0,0.02606635,-0.17339668,0.12850468,0.0,0.0,0.0,0.0
42914802,0,0.0,0.0450237,-0.17339668,0.1296729,0.0,0.0,0.0,0.0
42998417,0,0.0,0.0521327,-0.17339668,0.13084112,0.0,0.0,0.0,0.0
43123279,0,0.0,0.0521327,-0.17814727,0.13901868,0.0,0.0,0.0,0.0
43212681,0,0.0,0.073459715,-0.17577197,0.15070094,0.0,0.0,0.0,0.0
43322676,0,0.0,0.08293839,-0.16864608,0.1542056,0.0,0.0,0.0,0.0
43409276,0,0.0,0.08056872,-0.17102137,0.1542056,0.0,0.0,0.0,0.0
43522286,0,-0.014150944,0.07819905,-0.16864608,0.16004673,0.0,0.0,0.0,0.0
43607543,0,-0.009433962,0.06872038,-0.16389549,0.16004673,0.0,0.0,0.0,0.0
43718538,0,0.0,0.07109005,-0.16389549,0.15654206,0.0,0.0,0.0,0.0
43827121,0,0.0,0.07582939,-0.16152018,0.14602804,0.0,0.0,0.0,0.0
43911955,0,0.0,0.08293839,-0.16152018,0.14369158,0.0,0.0,0.0,0.0
44016988,0,0.0,0.0900474,-0.16627078,0.13668224,0.0,0.0,0.0,0.0
44125846,0,0.0,0.09952607,-0.16864608,0.13317756,0.0,0.0,0.0,0.0
44191503,0,0.0,0.116113745,-0.16864608,0.13317756,0.0,0.0,0.0,0.0
44317561,0,0.0,0.11374407,-0.16389549,0.1203271,0.0,0.0,0.0,0.0
44403883,0,0.0,0.109004736,-0.1543943,0.1203271,0.0,0.0,0.0,0.0
44512548,0,0.0,0.11137441,-0.1567696,0.1203271,0.0,0.0,0.0,0.0
44618891,0,0.0,0.109004736,-0.1567696,0.11799066,0.0,0.0,0.0,0.0
44726825,0,0.0,0.116113745,-0.1591449,0.12149533,0.0,0.0,0.0,0.0
44811972,0,0.0,0.123222746,-0.16389549,0.125,0.0,0.0,0.0,0.0
44919920,0,0.0,0.12559241,-0.16864608,0.13551402,0.0,0.0,0.0,0.0
44984227,0,0.0,0.123222746,-0.16864608,0.14836448,0.0,0.0,0.0,0.0
45114042,0,0.0,0.101895735,-0.17339668,0.14836448,0.0,0.0,0.0,0.0
45223830,0,0.0,0.023696683,-0.17577197,0.1495327,0.0,0.0,0.0,0.0
45306098,0,0.0,-0.0,-0.17577197,0.15771028,0.0,0.0,0.0,0.0
45415917,0,0.0,-0.0,-0.17577197,0.16121495,0.0,0.0,0.0,0.0
45524336,0,0.0,0.0023696683,-0.19239905,0.15186916,0.0,0.0,0.0,0.0
45613795,0,0.0,0.0521327,-0.18527316,0.15186916,0.0,0.0,0.0,0.0
45722467,0,0.0,0.06398104,-0.18052256,0.14252336,0.0,0.0,0.0,0.0
45826887,0,0.0,0.073459715,-0.17577197,0.12266355,0.0,0.0,0.0,0.0
45916755,0,0.0,0.033175357,-0.17339668,0.12266355,0.0,0.0,0.0,0.0
46028621,0,0.0,0.011848342,-0.17339668,0.12266355,0.0,0.0,0.0,0.0
46119857,0,0.0,-0.0,-0.16864608,0.125,0.0,0.0,0.0,0.0
46184089,0,0.0,-0.0,-0.16627078,0.12616822,0.0,0.0,0.0,0.0
46321828,0,0.0,-0.0,-0.16864608,0.12616822,0.0,0.0,0.0,0.0
46426168,0,0.0,-0.0,-0.17577197,0.13785046,0.0,0.0,0.0,0.0
46498309,0,0.0,-0.0,-0.17814727,0.14836448,0.0,0.0,0.0,0.0
46617700,0,0.0,-0.0,-0.17577197,0.14836448,0.0,0.0,0.0,0.0
46683686,0,0.0,-0.0,-0.17577197,0.14836448,0.0,0.0,0.0,0.0
46830220,0,0.0,-0.0,-0.16864608,0.14836448,0.0,0.0,0.0,0.0
46916641,0,0.0,-0.012019231,-0.16152018,0.1495327,0.0,0.0,0.0,0.0
47027451,0,-0.1273585,-0.0,-0.1543943,0.1495327,0.0,0.0,0.0,0.0
47113108,0,-0.12028302,-0.0,-0.1543943,0.1495327,0.0,0.0,0.0,0.0
47221780,0,-0.054245282,-0.0,-0.1496437,0.13785046,0.0,0.0,0.0,0.0
47309845,0,0.0,-0.0,-0.1496437,0.1296729,0.0,0.0,0.0,0.0
47395369,0,0.0,-0.0,-0.14726841,0.12733644,0.0,0.0,0.0,0.0
47526112,0,0.0,-0.0,-0.14489311,0.12733644,0.0,0.0,0.0,0.0
47551861,0,0.0,-0.0,-0.14489311,0.12733644,0.0,0.0,0.0,0.0
47725473,0,0.0,-0.0,-0.14489311,0.12733644,0.0,0.0,0.0,0.0
47812321,0,0.0,0.0047393367,-0.14489311,0.12733644,0.0,0.0,0.0,0.0
47872320,0,0.0,0.009478673,-0.14489311,0.12850468,0.0,0.0,0.0,0.0
48024940,0,0.0,-0.0,-0.14726841,0.13785046,0.0,0.0,0.0,0.0
48112857,0,0.0,-0.0,-0.14726841,0.14018692,0.0,0.0,0.0,0.0
48216251,0,-0.047169812,-0.0,-0.14489311,0.14018692,0.0,0.0,0.0,0.0
48303280,0,-0.08962264,-0.0,-0.14251782,0.14018692,0.0,0.0,0.0,0.0
48346078,0,-0.091981135,-0.0,-0.14251782,0.14018692,0.0,0.0,0.0,0.0
48522584,0,-0.08726415,-0.0,-0.14251782,0.14369158,0.0,0.0,0.0,0.0
48625872,0,-0.09669811,-0.0,-0.14014252,0.1495327,0.0,0.0,0.0,0.0
48712248,0,-0.03301887,-0.0,-0.14251782,0.1495327,0.0,0.0,0.0,0.0
48798032,0,0.0,0.035545025,-0.14251782,0.1495327,0.0,0.0,0.0,0.0
49287273,0,-0.08726415,-0.0,-0.13064133,0.13084112,0.0,0.0,0.0,0.0
49415853,0,-0.0990566,-0.0,-0.12826604,0.13084112,0.0,0.0,0.0,0.0
49501224,0,-0.091981135,-0.0,-0.12589073,0.13084112,0.0,0.0,0.0,0.0
49544092,0,-0.091981135,-0.0,-0.12589073,0.13084112,0.0,0.0,0.0,0.0
49717322,0,-0.08962264,-0.0,-0.12589073,0.13084112,0.0,0.0,0.0,0.0
49825154,0,-0.06367925,-0.0,-0.12589073,0.13084112,0.0,0.0,0.0,0.0
49913657,0,-0.04481132,-0.0,-0.12589073,0.13084112,0.0,0.0,0.0,0.0
50023483,0,-0.025943397,0.009478673,-0.121140145,0.13317756,0.0,0.0,0.0,0.0
50113220,0,0.0,0.06872038,-0.121140145,0.13317756,0.0,0.0,0.0,0.0
50218063,0,0.0,0.087677725,-0.121140145,0.13901868,0.0,0.0,0.0,0.0
50326921,0,0.0,0.087677725,-0.111638956,0.14018692,0.0,0.0,0.0,0.0
50414215,0,0.0,0.0971564,-0.10213777,0.14369158,0.0,0.0,0.0,0.0
50517656,0,0.0,0.0900474,-0.09738717,0.14369158,0.0,0.0,0.0,0.0
50627347,0,0.0,0.08530806,-0.09026128,0.14836448,0.0,0.0,0.0,0.0
50714890,0,0.0,0.061611373,-0.08788598,0.1495327,0.0,0.0,0.0,0.0
50823509,0,0.0,0.06398104,-0.06888361,0.1495327,0.0,0.0,0.0,0.0
50910680,0,-0.08254717,0.016587678,-0.066508316,0.1495327,0.0,0.0,0.0,0.0
51004523,0,-0.08726415,0.016587678,-0.06175772,0.1495327,0.0,0.0,0.0,0.0
51111514,0,-0.09669811,0.016587678,-0.059382424,0.1495327,0.0,0.0,0.0,0.0
51202515,0,-0.09669811,0.021327015,-0.05463183,0.1495327,0.0,0.0,0.0,0.0
51310592,0,-0.08490566,0.028436018,-0.05463183,0.1495327,0.0,0.0,0.0,0.0
51416074,0,-0.04245283,0.07582939,-0.042755343,0.1495327,0.0,0.0,0.0,0.0
51524975,0,-0.025943397,0.09478673,-0.026128266,0.125,0.0,0.0,0.0,0.0
51610971,0,-0.014150944,0.11137441,-0.023752969,0.12383178,0.0,0.0,0.0,0.0
51722121,0,0.0,0.123222746,-0.021377672,0.12383178,0.0,0.0,0.0,0.0
51808928,0,0.0,0.13270143,-0.021377672,0.12383178,0.0,0.0,0.0,0.0
51914368,0,0.0,0.13270143,-0.014251782,0.12383178,0.0,0.0,0.0,0.0
52022884,0,0.0,0.13033175,-0.009501188,0.12383178,0.0,0.0,0.0,0.0
52095016,0,0.0,0.12796208,-0.009501188,0.125,0.0,0.0,0.0,0.0
52164660,0,0.0,0.123222746,-0.009501188,0.12733644,0.0,0.0,0.0,0.0
52316433,0,0.0,0.123222746,-0.007125891,0.12733644,0.0,0.0,0.0,0.0
52423320,0,-0.009433962,0.123222746,-0.007125891,0.13551402,0.0,0.0,0.0,0.0
52527987,0,0.0,0.15165877,-0.007125891,0.14135514,0.0,0.0,0.0,0.0
52615196,0,0.0,0.1492891,-0.007125891,0.14252336,0.0,0.0,0.0,0.0
52723965,0,0.0,0.14691943,-0.007125891,0.1495327,0.0,0.0,0.0,0.0
52766733,0,0.0,0.1421801,-0.007125891,0.15070094,0.0,0.0,0.0,0.0
52924719,0,0.0,0.101895735,-0.007125891,0.15070094,0.0,0.0,0.0,0.0
52966328,0,0.0,0.09478673,-0.007125891,0.15070094,0.0,0.0,0.0,0.0
53122032,0,0.0,0.116113745,-0.007125891,0.15070094,0.0,0.0,0.0,0.0
53206048,0,0.0,0.11137441,-0.007125891,0.15070094,0.0,0.0,0.0,0.0
53315065,0,0.0,0.101895735,-0.007125891,0.1495327,0.0,0.0,0.0,0.0
53421155,0,0.0,0.09478673,0.0,0.12850468,0.0,0.0,0.0,0.0
53529741,0,0.0,0.087677725,0.0,0.12616822,0.0,0.0,0.0,0.0
53624067,0,0.0,0.08530806,0.0,0.12733644,0.0,0.0,0.0,0.0
53725172,0,0.0,0.07819905,0.0,0.12733644,0.0,0.0,0.0,0.0
53812284,0,-0.0023584906,0.06398104,0.0,0.12850468,0.0,0.0,0.0,0.0
53920771,0,-0.061320756,0.059241705,0.0,0.12850468,0.0,0.0,0.0,0.0
54029555,0,-0.12028302,0.059241705,0.0,0.13668224,0.0,0.0,0.0,0.0
54115468,0,-0.1509434,0.030805686,0.0,0.13668224,0.0,0.0,0.0,0.0
54224411,0,-0.16745283,0.016587678,0.0,0.13668224,0.0,0.0,0.0,0.0
54308597,0,-0.15566038,0.028436018,0.0,0.13668224,0.0,0.0,0.0,0.0
54420106,0,-0.125,0.0450237,0.0,0.14252336,0.0,0.0,0.0,0.0
54483922,0,-0.091981135,0.06398104,0.0,0.14836448,0.0,0.0,0.0,0.0
54609938,0,-0.08726415,0.073459715,0.0,0.1495327,0.0,0.0,0.0,0.0
54719092,0,-0.028301887,0.11137441,0.0,0.15537383,0.0,0.0,0.0,0.0
54804410,0,-0.0023584906,0.12796208,0.0,0.15654206,0.0,0.0,0.0,0.0
54913245,0,0.0,0.12796208,0.0,0.15303738,0.0,0.0,0.0,0.0
55024589,0,0.0,0.1421801,0.0,0.13084112,0.0,0.0,0.0,0.0
55111645,0,0.0,0.13981043,0.0,0.14252336,0.0,0.0,0.0,0.0
55221813,0,-0.04245283,0.12559241,0.0,0.15303738,0.0,0.0,0.0,0.0
55328066,0,-0.068396226,0.11374407,0.0,0.1542056,0.0,0.0,0.0,0.0
55416719,0,-0.09669811,0.101895735,0.0,0.15654206,0.0,0.0,0.0,0.0
55523528,0,-0.08726415,0.10663507,0.0,0.1495327,0.0,0.0,0.0,0.0
55629331,0,-0.06603774,0.116113745,0.0,0.13551402,0.0,0.0,0.0,0.0
55714188,0,-0.056603774,0.11848341,0.0,0.13668224,0.0,0.0,0.0,0.0
55822049,0,-0.009433962,0.13981043,0.0,0.14018692,0.0,0.0,0.0,0.0
55927636,0,0.0,0.1492891,0.0,0.14602804,0.0,0.0,0.0,0.0
56011749,0,0.0,0.1421801,0.0,0.14135514,0.0,0.0,0.0,0.0
56079131,0,0.0,0.13507108,0.0,0.125,0.0,0.0,0.0,0.0
56211687,0,0.0,0.14691943,0.0,0.1296729,0.0,0.0,0.0,0.0
56253669,0,0.0,0.15402843,0.0,0.13200934,0.0,0.0,0.0,0.0
56408066,0,0.0,0.1421801,0.0,0.11682243,0.0,0.0,0.0,0.0
56516237,0,0.0,0.11848341,0.0,0.10747664,0.0,0.0,0.0,0.0
56624838,0,0.0,0.13981043,0.0,0.11682243,0.0,0.0,0.0,0.0
56712591,0,0.0,0.1635071,0.0,0.125,0.0,0.0,0.0,0.0
56821572,0,0.0,0.17061612,0.0,0.12733644,0.0,0.0,0.0,0.0
56925592,0,0.06619386,0.20616114,0.0,0.14018692,0.0,0.0,0.0,0.0
57013748,0,0.08274232,0.21327014,0.0,0.15070094,0.0,0.0,0.0,0.0
57122007,0,0.09456265,0.21327014,0.0,0.15186916,0.0,0.0,0.0,0.0
57185857,0,0.08510638,0.21090047,0.0,0.15186916,0.0,0.0,0.0,0.0
57317145,0,0.08510638,0.19668247,0.0,0.15186916,0.0,0.0,0.0,0.0
57428451,0,0.06619386,0.123222746,0.0,0.15186916,0.0,0.0,0.0,0.0
57515366,0,0.12293144,0.028436018,0.0,0.13785046,0.0,0.0,0.0,0.0
57626099,0,0.2245863,-0.0,0.0023474179,0.13668224,0.0,0.0,0.0,0.0
57714319,0,0.13711584,-0.0,0.0093896715,0.13785046,0.0,0.0,0.0,0.0
57819544,0,0.13475177,-0.0,0.037558686,0.13901868,0.0,0.0,0.0,0.0
57909210,0,0.11583924,-0.0,0.061032865,0.13200934,0.0,0.0,0.0,0.0
58017630,0,0.056737587,-0.0,0.096244134,0.1203271,0.0,0.0,0.0,0.0
58125298,0,0.0070921984,-0.0,0.09859155,0.13901868,0.0,0.0,0.0,0.0
58211260,0,0.0047281324,-0.0,0.09859155,0.14018692,0.0,0.0,0.0,0.0
58319002,0,0.03073286,-0.0,0.12676056,0.12850468,0.0,0.0,0.0,0.0
58408261,0,0.009456265,-0.0,0.15492958,0.1203271,0.0,0.0,0.0,0.0
58516230,0,0.0,-0.0,0.16666667,0.1203271,0.0,0.0,0.0,0.0
58621578,0,0.0,-0.0,0.19483568,0.125,0.0,0.0,0.0,0.0
58723002,0,0.0,-0.0,0.19953051,0.125,0.0,0.0,0.0,0.0
58822946,0,0.0,-0.0,0.19248827,0.14018692,0.0,0.0,0.0,0.0
58909187,0,0.0,-0.0,0.18075117,0.15070094,0.0,0.0,0.0,0.0
59026415,0,0.0,-0.0,0.17370892,0.17289719,0.0,0.0,0.0,0.0
59109287,0,0.0,-0.0,0.1713615,0.17990655,0.0,0.0,0.0,0.0
59221086,0,0.0,0.011848342,0.1713615,0.18341121,0.0,0.0,0.0,0.0
59326342,0,0.0,0.06398104,0.16197184,0.18574767,0.0,0.0,0.0,0.0
59412188,0,0.0,0.09241706,0.15727699,0.15771028,0.0,0.0,0.0,0.0
59522435,0,0.0,0.09952607,0.15727699,0.13668224,0.0,0.0,0.0,0.0
59609759,0,0.0,0.101895735,0.15023474,0.13084112,0.0,0.0,0.0,0.0
59714448,0,0.0,0.12796208,0.13145539,0.11565421,0.0,0.0,0.0,0.0
59824153,0,0.0,0.12796208,0.11971831,0.11799066,0.0,0.0,0.0,0.0
59915487,0,0.0,0.13033175,0.10798122,0.125,0.0,0.0,0.0,0.0
60022834,0,0.0,0.12559241,0.103286386,0.125,0.0,0.0,0.0,0.0
60110931,0,0.0,0.12796208,0.08450704,0.125,0.0,0.0,0.0,0.0
60220381,0,0.026004728,0.1421801,0.056338027,0.13551402,0.0,0.0,0.0,0.0
60322903,0,0.040189125,0.101895735,0.039906103,0.15186916,0.0,0.0,0.0,0.0
60405580,0,0.03782506,0.11137441,0.025821596,0.15186916,0.0,0.0,0.0,0.0
60520198,0,0.04255319,0.116113745,0.018779343,0.13084112,0.0,0.0,0.0,0.0
60610111,0,0.04491726,0.11137441,0.025821596,0.13084112,0.0,0.0,0.0,0.0
60717686,0,0.040189125,0.101895735,0.01173709,0.125,0.0,0.0,0.0,0.0
60826349,0,0.06146572,0.09952607,0.0093896715,0.12616822,0.0,0.0,0.0,0.0
60911051,0,0.10874704,0.09952607,0.0,0.11915888,0.0,0.0,0.0,0.0
61019040,0,0.11347517,0.0900474,0.0,0.14135514,0.0,0.0,0.0,0.0
61108895,0,0.08747045,0.09478673,0.0046948357,0.16004673,0.0,0.0,0.0,0.0
61219483,0,0.07565012,0.08293839,0.037558686,0.16004673,0.0,0.0,0.0,0.0
61309045,0,0.07565012,0.08056872,0.06807512,0.16471963,0.0,0.0,0.0,0.0
61417858,0,0.035460994,0.101895735,0.096244134,0.17990655,0.0,0.0,0.0,0.0
61506426,0,0.021276595,0.1042654,0.11971831,0.1682243,0.0,0.0,0.0,0.0
61613513,0,0.01891253,0.1042654,0.14553991,0.15186916,0.0,0.0,0.0,0.0
61719590,0,0.0,0.11374407,0.15962441,0.15186916,0.0,0.0,0.0,0.0
61807482,0,0.0,0.12796208,0.15492958,0.15186916,0.0,0.0,0.0,0.0
61917036,0,0.07801419,0.1421801,0.13849765,0.11214953,0.0,0.0,0.0,0.0
62008137,0,0.08747045,0.1421801,0.11971831,0.098130845,0.0,0.0,0.0,0.0
62115455,0,0.06855792,0.12796208,0.11032864,0.10981309,0.0,0.0,0.0,0.0
62226807,0,0.04491726,0.101895735,0.11032864,0.1343458,0.0,0.0,0.0,0.0
62313944,0,0.009456265,0.0971564,0.10798122,0.15070094,0.0,0.0,0.0,0.0
62398491,0,0.0,0.09952607,0.11032864,0.15537383,0.0,0.0,0.0,0.0
62524349,0,0.0,0.10663507,0.10798122,0.15537383,0.0,0.0,0.0,0.0
62629744,0,0.0,0.1042654,0.103286386,0.1635514,0.0,0.0,0.0,0.0
62715361,0,0.0,0.13981043,0.09859155,0.1635514,0.0,0.0,0.0,0.0
62822869,0,0.0,0.17298578,0.096244134,0.12383178,0.0,0.0,0.0,0.0
62907718,0,-0.0023584906,0.17061612,0.09859155,0.12733644,0.0,0.0,0.0,0.0
63014994,0,-0.023584906,0.16113745,0.09859155,0.14135514,0.0,0.0,0.0,0.0
63119189,0,-0.051886793,0.14691943,0.09859155,0.14836448,0.0,0.0,0.0,0.0
63209306,0,-0.0495283,0.1421801,0.09859155,0.1495327,0.0,0.0,0.0,0.0
63315341,0,0.0,0.13270143,0.096244134,0.16004673,0.0,0.0,0.0,0.0
63420166,0,0.0,0.09478673,0.09859155,0.16238318,0.0,0.0,0.0,0.0
63526835,0,-0.04009434,0.06872038,0.10798122,0.14602804,0.0,0.0,0.0,0.0
63614604,0,-0.08018868,0.06635071,0.10798122,0.14602804,0.0,0.0,0.0,0.0
63724125,0,-0.12264151,0.06872038,0.10798122,0.14602804,0.0,0.0,0.0,0.0
63809530,0,-0.15566038,0.06398104,0.10798122,0.14369158,0.0,0.0,0.0,0.0
63918708,0,-0.15566038,0.06398104,0.09389672,0.125,0.0,0.0,0.0,0.0
64025914,0,-0.13915095,0.056872036,0.09154929,0.11915888,0.0,0.0,0.0,0.0
64112246,0,-0.13443395,0.054502368,0.09389672,0.1203271,0.0,0.0,0.0,0.0
64222075,0,-0.13915095,0.0521327,0.10093897,0.125,0.0,0.0,0.0,0.0
64305449,0,-0.20518868,0.021327015,0.103286386,0.12616822,0.0,0.0,0.0,0.0
64424252,0,-0.24528302,0.009478673,0.10798122,0.1296729,0.0,0.0,0.0,0.0
64508873,0,-0.25,-0.0,0.11032864,0.13785046,0.0,0.0,0.0,0.0
64618865,0,-0.25,-0.0,0.11032864,0.14602804,0.0,0.0,0.0,0.0
64728553,0,-0.25707546,-0.0,0.10798122,0.15070094,0.0,0.0,0.0,0.0
64814671,0,-0.22169812,-0.0,0.10798122,0.15186916,0.0,0.0,0.0,0.0
64922267,0,-0.2004717,-0.0,0.103286386,0.15771028,0.0,0.0,0.0,0.0
65012128,0,-0.15566038,-0.0,0.1056338,0.15771028,0.0,0.0,0.0,0.0
65122474,0,-0.13443395,-0.0,0.11737089,0.16238318,0.0,0.0,0.0,0.0
65210671,0,0.0,0.056872036,0.12676056,0.12733644,0.0,0.0,0.0,0.0
65319384,0,0.0,0.09952607,0.12910798,0.12616822,0.0,0.0,0.0,0.0
65428769,0,0.0,0.0971564,0.13380282,0.12733644,0.0,0.0,0.0,0.0
65515716,0,0.0,0.06635071,0.14319248,0.13200934,0.0,0.0,0.0,0.0
65623363,0,-0.03301887,-0.0,0.16901408,0.13317756,0.0,0.0,0.0,0.0
65711522,0,-0.056603774,-0.0,0.19483568,0.13317756,0.0,0.0,0.0,0.0
65818570,0,-0.058962263,-0.0,0.21361503,0.1343458,0.0,0.0,0.0,0.0
65921834,0,-0.091981135,-0.0,0.2230047,0.13901868,0.0,0.0,0.0,0.0
66028135,0,-0.08726415,-0.0,0.22769953,0.14018692,0.0,0.0,0.0,0.0
66111501,0,-0.08726415,-0.0,0.23474178,0.14018692,0.0,0.0,0.0,0.0
66217643,0,-0.07311321,-0.0,0.2488263,0.14135514,0.0,0.0,0.0,0.0
66325842,0,-0.06367925,-0.0,0.24413146,0.14836448,0.0,0.0,0.0,0.0
66409173,0,-0.04481132,-0.0,0.24413146,0.1542056,0.0,0.0,0.0,0.0
66525827,0,-0.030660378,-0.0,0.24413146,0.1542056,0.0,0.0,0.0,0.0
66630656,0,-0.021226415,-0.0,0.24647887,0.15070094,0.0,0.0,0.0,0.0
66714676,0,-0.018867925,-0.0,0.2535211,0.15070094,0.0,0.0,0.0,0.0
66824482,0,-0.016509434,-0.0,0.25586855,0.15070094,0.0,0.0,0.0,0.0
66911619,0,-0.014150944,-0.0,0.25586855,0.15070094,0.0,0.0,0.0,0.0
67014862,0,0.0,-0.0,0.26760563,0.12850468,0.0,0.0,0.0,0.0
67105041,0,0.0,-0.0,0.2769953,0.11799066,0.0,0.0,0.0,0.0
67215785,0,0.0,-0.0,0.2769953,0.12850468,0.0,0.0,0.0,0.0
67323726,0,0.0,-0.0,0.27230048,0.13551402,0.0,0.0,0.0,0.0
67432000,0,0.0,-0.0,0.27230048,0.13551402,0.0,0.0,0.0,0.0
67495365,0,0.0,-0.0,0.26760563,0.13551402,0.0,0.0,0.0,0.0
67625402,0,0.0,-0.0,0.26760563,0.1495327,0.0,0.0,0.0,0.0
67708788,0,0.08510638,-0.0,0.26760563,0.1495327,0.0,0.0,0.0,0.0
67819851,0,0.1394799,-0.0,0.26760563,0.1495327,0.0,0.0,0.0,0.0
67923496,0,0.15602838,-0.01923077,0.2746479,0.1495327,0.0,0.0,0.0,0.0
68009561,0,0.13238771,-0.0,0.2746479,0.1495327,0.0,0.0,0.0,0.0
68114663,0,0.13475177,-0.0,0.2746479,0.1495327,0.0,0.0,0.0,0.0
68225688,0,0.11347517,-0.0,0.2769953,0.1495327,0.0,0.0,0.0,0.0
68311151,0,0.06855792,-0.03846154,0.2769953,0.1495327,0.0,0.0,0.0,0.0
68426517,0,0.07801419,-0.036057692,0.2746479,0.12850468,0.0,0.0,0.0,0.0
68514866,0,0.10165485,-0.036057692,0.2769953,0.13084112,0.0,0.0,0.0,0.0
68624641,0,0.12765957,-0.043269232,0.27230048,0.15070094,0.0,0.0,0.0,0.0
68708455,0,0.1394799,-0.026442308,0.26995304,0.15070094,0.0,0.0,0.0,0.0
68813564,0,0.19148937,-0.012019231,0.26760563,0.15070094,0.0,0.0,0.0,0.0
68926136,0,0.21749409,-0.01923077,0.26760563,0.1542056,0.0,0.0,0.0,0.0
68987973,0,0.21513002,-0.024038462,0.26760563,0.15654206,0.0,0.0,0.0,0.0
69117760,0,0.20803782,-0.024038462,0.27230048,0.15654206,0.0,0.0,0.0,0.0
69307588,0,0.19621749,-0.014423077,0.27230048,0.1495327,0.0,0.0,0.0,0.0
69414573,0,0.19621749,-0.0,0.27230048,0.1495327,0.0,0.0,0.0,0.0
69519028,0,0.1394799,-0.0,0.26291078,0.15070094,0.0,0.0,0.0,0.0
69624935,0,0.07801419,-0.0,0.21361503,0.15303738,0.0,0.0,0.0,0.0
69712164,0,0.028368793,-0.0,0.15258215,0.14369158,0.0,0.0,0.0,0.0
69820564,0,0.06855792,-0.0,0.14319248,0.14135514,0.0,0.0,0.0,0.0
69906638,0,0.09456265,-0.0,0.13615024,0.15771028,0.0,0.0,0.0,0.0
69991529,0,0.09692671,-0.0,0.14084508,0.16004673,0.0,0.0,0.0,0.0
70118345,0,0.17021276,-0.0,0.12676056,0.13317756,0.0,0.0,0.0,0.0
70224150,0,0.22695035,-0.0,0.12206573,0.12616822,0.0,0.0,0.0,0.0
70309399,0,0.28132388,-0.0,0.12206573,0.12616822,0.0,0.0,0.0,0.0
70415803,0,0.33096927,-0.0,0.13145539,0.12616822,0.0,0.0,0.0,0.0
70523643,0,0.2600473,0.09478673,0.13380282,0.12733644,0.0,0.0,0.0,0.0
70612469,0,0.2104019,0.1042654,0.14319248,0.12850468,0.0,0.0,0.0,0.0
70721766,0,0.22222222,0.09478673,0.14084508,0.13317756,0.0,0.0,0.0,0.0
70830097,0,0.22222222,0.0971564,0.14084508,0.14602804,0.0,0.0,0.0,0.0
70919621,0,0.22695035,0.09952607,0.14084508,0.1495327,0.0,0.0,0.0,0.0
71022890,0,0.25295508,0.11848341,0.13849765,0.15771028,0.0,0.0,0.0,0.0
71110178,0,0.26241136,0.123222746,0.13380282,0.16588785,0.0,0.0,0.0,0.0
71221719,0,0.23404256,0.11137441,0.13380282,0.16705607,0.0,0.0,0.0,0.0
71309362,0,0.13711584,0.09478673,0.11971831,0.16705607,0.0,0.0,0.0,0.0
71416182,0,0.011820331,0.09241706,0.09154929,0.16705607,0.0,0.0,0.0,0.0
71524327,0,0.0,0.08293839,0.016431924,0.15537383,0.0,0.0,0.0,0.0
71607837,0,0.0,0.11374407,0.0,0.14836448,0.0,0.0,0.0,0.0
71713887,0,0.0,0.18246445,0.0,0.17523365,0.0,0.0,0.0,0.0
71823691,0,0.0,0.27014217,0.0,0.17757009,0.0,0.0,0.0,0.0
71908396,0,0.0,0.25118482,0.0,0.16705607,0.0,0.0,0.0,0.0
72016055,0,0.0,0.2606635,0.0,0.16705607,0.0,0.0,0.0,0.0
72125154,0,0.0,0.28199053,0.0,0.16588785,0.0,0.0,0.0,0.0
72209958,0,0.0,0.27014217,0.0,0.13200934,0.0,0.0,0.0,0.0
72317798,0,0.0,0.23459716,0.0,0.125,0.0,0.0,0.0,0.0
72382774,0,0.0,0.23696682,0.0,0.125,0.0,0.0,0.0,0.0
72509551,0,0.0,0.26540285,0.0,0.1203271,0.0,0.0,0.0,0.0
72573902,0,0.0,0.27251184,0.0,0.1203271,0.0,0.0,0.0,0.0
72727486,0,0.056737587,0.25829384,0.0,0.1203271,0.0,0.0,0.0,0.0
72812204,0,0.11347517,0.26540285,0.0,0.1203271,0.0,0.0,0.0,0.0
72920325,0,0.14420804,0.29383886,0.0,0.12616822,0.0,0.0,0.0,0.0
73023656,0,0.13475177,0.29383886,0.0,0.12850468,0.0,0.0,0.0,0.0
73110336,0,0.15130024,0.30094787,0.0,0.12850468,0.0,0.0,0.0,0.0
73225266,0,0.1536643,0.34360188,0.0,0.14018692,0.0,0.0,0.0,0.0
73313966,0,0.120567374,0.4241706,0.0,0.16588785,0.0,0.0,0.0,0.0
73423294,0,0.04491726,0.41469195,0.0,0.18224299,0.0,0.0,0.0,0.0
73507713,0,0.07801419,0.40047392,0.0,0.18224299,0.0,0.0,0.0,0.0
73615752,0,0.13002364,0.41469195,0.0,0.17873831,0.0,0.0,0.0,0.0
73722401,0,0.17730497,0.3578199,0.0,0.16004673,0.0,0.0,0.0,0.0
73827187,0,0.19148937,0.30805686,0.0,0.13668224,0.0,0.0,0.0,0.0
73912993,0,0.16312057,0.31990522,0.0,0.13551402,0.0,0.0,0.0,0.0
74018937,0,0.15130024,0.32938388,0.0,0.12616822,0.0,0.0,0.0,0.0
74124872,0,0.120567374,0.31990522,0.0,0.125,0.0,0.0,0.0,0.0
74210093,0,0.05437352,0.3056872,0.0,0.125,0.0,0.0,0.0,0.0
74321456,0,0.0,0.28672987,0.0,0.125,0.0,0.0,0.0,0.0
74407911,0,0.0,0.27014217,0.0,0.125,0.0,0.0,0.0,0.0
74517312,0,-0.07783019,0.22748815,0.0,0.125,0.0,0.0,0.0,0.0
74625735,0,-0.10377359,0.20379147,0.0,0.125,0.0,0.0,0.0,0.0
74713986,0,-0.07311321,0.17772512,0.0,0.1203271,0.0,0.0,0.0,0.0
74822503,0,0.0,0.22037914,0.0,0.1203271,0.0,0.0,0.0,0.0
74926936,0,0.0,0.23933649,0.0,0.1203271,0.0,0.0,0.0,0.0
75012566,0,0.09456265,0.30094787,0.0,0.1448598,0.0,0.0,0.0,0.0
75120440,0,0.09692671,0.28672987,0.0,0.1495327,0.0,0.0,0.0,0.0
75228512,0,0.09929078,0.25829384,0.0,0.1495327,0.0,0.0,0.0,0.0
75316895,0,0.056737587,0.25829384,0.0,0.16121495,0.0,0.0,0.0,0.0
75426391,0,0.06855792,0.26540285,0.0,0.16588785,0.0,0.0,0.0,0.0
75512696,0,0.04255319,0.25829384,0.0,0.16588785,0.0,0.0,0.0,0.0
75621008,0,0.0,0.22511849,0.0,0.14602804,0.0,0.0,0.0,0.0
75730698,0,0.0,0.20616114,0.0,0.14602804,0.0,0.0,0.0,0.0
75816004,0,0.0,0.19668247,0.0,0.14602804,0.0,0.0,0.0,0.0
75925887,0,0.0,0.13507108,0.0,0.14369158,0.0,0.0,0.0,0.0
76021899,0,-0.08726415,0.023696683,0.0,0.125,0.0,0.0,0.0,0.0
76120684,0,-0.09669811,0.021327015,0.0,0.11915888,0.0,0.0,0.0,0.0
76208839,0,-0.091981135,0.02606635,0.0,0.1203271,0.0,0.0,0.0,0.0
76315195,0,-0.091981135,0.04028436,0.0,0.125,0.0,0.0,0.0,0.0
76421313,0,-0.04245283,0.08293839,0.0,0.1343458,0.0,0.0,0.0,0.0
76509470,0,0.0,0.11137441,0.0,0.14135514,0.0,0.0,0.0,0.0
76614909,0,0.0,0.11137441,0.0,0.16004673,0.0,0.0,0.0,0.0
76724185,0,0.0,0.116113745,0.0,0.18341121,0.0,0.0,0.0,0.0
76829463,0,0.0023640662,0.1042654,0.0,0.18341121,0.0,0.0,0.0,0.0
76919313,0,0.0,0.11137441,0.0,0.17523365,0.0,0.0,0.0,0.0
77007594,0,0.014184397,0.123222746,0.0,0.14836448,0.0,0.0,0.0,0.0
77130649,0,0.0023640662,0.123222746,0.0,0.14836448,0.0,0.0,0.0,0.0
77216858,0,0.0,0.13033175,0.0,0.14836448,0.0,0.0,0.0,0.0
77323746,0,0.0,0.11137441,0.0,0.14836448,0.0,0.0,0.0,0.0
77409710,0,0.0,0.101895735,0.0,0.15771028,0.0,0.0,0.0,0.0
77521362,0,0.0,0.09478673,0.0,0.14018692,0.0,0.0,0.0,0.0
77587942,0,0.0,0.08293839,0.0,0.12266355,0.0,0.0,0.0,0.0
77695809,0,0.0,0.056872036,0.0,0.13084112,0.0,0.0,0.0,0.0
77804061,0,0.0,0.0521327,0.0,0.13317756,0.0,0.0,0.0,0.0
77912833,0,0.06619386,0.07109005,0.0,0.13317756,0.0,0.0,0.0,0.0
78023050,0,0.03309693,0.09241706,0.0,0.13084112,0.0,0.0,0.0,0.0
78087408,0,0.0,0.09241706,0.0,0.15070094,0.0,0.0,0.0,0.0
78220241,0,0.01891253,0.09241706,0.0,0.15303738,0.0,0.0,0.0,0.0
78328289,0,0.05437352,0.08530806,0.0,0.15186916,0.0,0.0,0.0,0.0
78415242,0,0.06619386,0.09478673,0.0,0.14135514,0.0,0.0,0.0,0.0
78503059,0,0.06855792,0.09241706,0.0,0.1495327,0.0,0.0,0.0,0.0
78612888,0,0.08510638,0.09241706,0.0,0.1495327,0.0,0.0,0.0,0.0
78724288,0,0.023640662,0.08530806,0.0,0.15303738,0.0,0.0,0.0,0.0
78811245,0,0.021276595,0.09241706,0.0,0.15186916,0.0,0.0,0.0,0.0
78892942,0,0.03309693,0.09241706,0.0,0.15186916,0.0,0.0,0.0,0.0
79019308,0,0.03073286,0.09478673,0.0,0.13668224,0.0,0.0,0.0,0.0
79107209,0,0.03309693,0.1042654,0.0,0.13785046,0.0,0.0,0.0,0.0
79320056,0,0.10401891,0.1042654,0.0,0.15070094,0.0,0.0,0.0,0.0
79425371,0,0.11583924,0.109004736,0.0,0.14369158,0.0,0.0,0.0,0.0
79514474,0,0.09929078,0.11848341,0.0,0.1448598,0.0,0.0,0.0,0.0
79621577,0,0.09692671,0.13744076,0.0,0.14836448,0.0,0.0,0.0,0.0
79709561,0,0.06619386,0.14691943,0.0,0.15070094,0.0,0.0,0.0,0.0
79818038,0,0.03309693,0.12796208,0.0,0.14018692,0.0,0.0,0.0,0.0
79924210,0,0.0023640662,0.13033175,0.0,0.13901868,0.0,0.0,0.0,0.0
80009560,0,0.0,0.13744076,0.0,0.14252336,0.0,0.0,0.0,0.0
80117543,0,0.0,0.14454976,0.0,0.1495327,0.0,0.0,0.0,0.0
80223109,0,0.0,0.14691943,0.0,0.1495327,0.0,0.0,0.0,0.0
80310323,0,0.0,0.13744076,0.0,0.1495327,0.0,0.0,0.0,0.0
80419089,0,0.0023640662,0.13033175,0.0,0.14369158,0.0,0.0,0.0,0.0
80508197,0,0.009456265,0.13033175,0.0,0.14252336,0.0,0.0,0.0,0.0
80618671,0,0.009456265,0.12796208,0.0,0.14018692,0.0,0.0,0.0,0.0
80707221,0,0.0,0.12796208,0.0,0.13785046,0.0,0.0,0.0,0.0
80817853,0,0.0,0.12559241,0.0,0.13785046,0.0,0.0,0.0,0.0
80922527,0,0.0,0.13033175,0.0,0.14018692,0.0,0.0,0.0,0.0
80988412,0,0.0,0.13033175,0.0,0.14252336,0.0,0.0,0.0,0.0
81117617,0,0.0,0.13507108,0.0,0.15070094,0.0,0.0,0.0,0.0
81223779,0,0.0,0.14454976,0.0,0.16588785,0.0,0.0,0.0,0.0
81312873,0,0.0,0.14454976,0.0,0.15654206,0.0,0.0,0.0,0.0
81421809,0,0.0,0.14691943,0.0,0.14602804,0.0,0.0,0.0,0.0
81508266,0,0.0,0.14454976,0.0,0.13084112,0.0,0.0,0.0,0.0
81615425,0,0.0,0.13507108,0.0,0.12149533,0.0,0.0,0.0,0.0
81725713,0,-0.021226415,0.11848341,0.0,0.1203271,0.0,0.0,0.0,0.0
81791248,0,-0.04009434,0.11374407,0.0,0.12383178,0.0,0.0,0.0,0.0
81921709,0,-0.0495283,0.11137441,0.0,0.12383178,0.0,0.0,0.0,0.0
82029513,0,-0.04481132,0.11137441,-0.002375297,0.12383178,0.0,0.0,0.0,0.0
82120347,0,-0.011792453,0.13033175,-0.033254158,0.125,0.0,0.0,0.0,0.0
82220563,0,-0.004716981,0.15165877,-0.03087886,0.14135514,0.0,0.0,0.0,0.0
82326146,0,-0.016509434,0.15165877,-0.028503563,0.13551402,0.0,0.0,0.0,0.0
82411964,0,-0.03301887,0.13981043,-0.040380046,0.1296729,0.0,0.0,0.0,0.0
82520710,0,-0.0990566,0.116113745,-0.03087886,0.14836448,0.0,0.0,0.0,0.0
82586721,0,-0.10377359,0.11848341,-0.033254158,0.14836448,0.0,0.0,0.0,0.0
82714846,0,-0.11320755,0.123222746,-0.038004752,0.1588785,0.0,0.0,0.0,0.0
82801302,0,-0.108490564,0.13981043,-0.033254158,0.17873831,0.0,0.0,0.0,0.0
82911629,0,-0.0990566,0.1492891,-0.033254158,0.17873831,0.0,0.0,0.0,0.0
83022395,0,-0.10377359,0.1421801,-0.038004752,0.17523365,0.0,0.0,0.0,0.0
83109699,0,-0.11084906,0.1421801,-0.049881235,0.1542056,0.0,0.0,0.0,0.0
83214461,0,-0.11556604,0.13981043,-0.05463183,0.1542056,0.0,0.0,0.0,0.0
83325471,0,-0.14386792,0.12796208,-0.057007127,0.15771028,0.0,0.0,0.0,0.0
83412091,0,-0.070754714,0.12796208,-0.057007127,0.15654206,0.0,0.0,0.0,0.0
83520155,0,-0.04245283,0.116113745,-0.09026128,0.12383178,0.0,0.0,0.0,0.0
83626526,0,-0.106132075,0.09478673,-0.049881235,0.14836448,0.0,0.0,0.0,0.0
83713715,0,-0.0754717,0.09952607,-0.049881235,0.14836448,0.0,0.0,0.0,0.0
83822357,0,-0.04245283,0.116113745,-0.038004752,0.15303738,0.0,0.0,0.0,0.0
83929981,0,0.0,0.13981043,-0.038004752,0.14135514,0.0,0.0,0.0,0.0
84018093,0,0.0,0.13507108,-0.042755343,0.12850468,0.0,0.0,0.0,0.0
84128223,0,0.0,0.13744076,-0.033254158,0.14135514,0.0,0.0,0.0,0.0
84192409,0,0.0,0.13981043,-0.033254158,0.14369158,0.0,0.0,0.0,0.0
84322163,0,0.0,0.1563981,-0.026128266,0.14369158,0.0,0.0,0.0,0.0
84407914,0,0.0,0.15402843,-0.035629455,0.14369158,0.0,0.0,0.0,0.0
84512540,0,0.0,0.14691943,-0.035629455,0.14369158,0.0,0.0,0.0,0.0
84622135,0,0.0,0.15876777,-0.021377672,0.15186916,0.0,0.0,0.0,0.0
84711570,0,-0.021226415,0.14691943,-0.021377672,0.15070094,0.0,0.0,0.0,0.0
84820213,0,-0.12264151,0.116113745,-0.023752969,0.1495327,0.0,0.0,0.0,0.0
84926710,0,-0.08254717,0.11848341,-0.016627079,0.14836448,0.0,0.0,0.0,0.0
85014321,0,0.0,0.116113745,-0.014251782,0.14836448,0.0,0.0,0.0,0.0
85125965,0,0.0,0.09478673,-0.028503563,0.14719626,0.0,0.0,0.0,0.0
85210996,0,0.0,0.09478673,-0.033254158,0.13668224,0.0,0.0,0.0,0.0
85319340,0,0.0,0.109004736,-0.03087886,0.14135514,0.0,0.0,0.0,0.0
85405214,0,0.009456265,0.116113745,-0.023752969,0.14836448,0.0,0.0,0.0,0.0
85514728,0,0.01891253,0.11848341,-0.021377672,0.14836448,0.0,0.0,0.0,0.0
85624556,0,0.0070921984,0.11374407,-0.023752969,0.14018692,0.0,0.0,0.0,0.0
85713236,0,0.0023640662,0.116113745,-0.023752969,0.13901868,0.0,0.0,0.0,0.0
85820319,0,0.0,0.123222746,-0.021377672,0.13785046,0.0,0.0,0.0,0.0
85928520,0,0.0,0.1492891,-0.007125891,0.15186916,0.0,0.0,0.0,0.0
85994319,0,0.0,0.1563981,-0.007125891,0.15186916,0.0,0.0,0.0,0.0
86126330,0,0.0,0.14454976,-0.007125891,0.14369158,0.0,0.0,0.0,0.0
86200748,0,0.0,0.13981043,-0.009501188,0.14252336,0.0,0.0,0.0,0.0
86323473,0,0.0,0.123222746,-0.007125891,0.14252336,0.0,0.0,0.0,0.0
86409583,0,0.0,0.116113745,-0.007125891,0.14369158,0.0,0.0,0.0,0.0
86518784,0,0.0023640662,0.12559241,-0.007125891,0.14836448,0.0,0.0,0.0,0.0
86628993,0,0.0023640662,0.13270143,-0.004750594,0.1495327,0.0,0.0,0.0,0.0
86712937,0,0.0,0.13744076,-0.004750594,0.1495327,0.0,0.0,0.0,0.0
86818918,0,0.0,0.1563981,-0.019002376,0.14135514,0.0,0.0,0.0,0.0
87711068,0,-0.1014151,0.09478673,-0.042755343,0.1495327,0.0,0.0,0.0,0.0
88125901,0,0.0,0.11137441,-0.035629455,0.14252336,0.0,0.0,0.0,0.0
88212470,0,0.0,0.11848341,-0.035629455,0.13785046,0.0,0.0,0.0,0.0
88316539,0,0.026004728,0.116113745,-0.033254158,0.12616822,0.0,0.0,0.0,0.0
88423964,0,0.0023640662,0.116113745,-0.033254158,0.12616822,0.0,0.0,0.0,0.0
88510131,0,0.0,0.10663507,-0.03087886,0.12733644,0.0,0.0,0.0,0.0
88614970,0,0.0,0.11137441,-0.026128266,0.13200934,0.0,0.0,0.0,0.0
88700764,0,0.0,0.116113745,-0.028503563,0.13901868,0.0,0.0,0.0,0.0
88810943,0,0.0,0.12796208,-0.026128266,0.14836448,0.0,0.0,0.0,0.0
88916230,0,0.0,0.14691943,-0.021377672,0.1495327,0.0,0.0,0.0,0.0
89024553,0,0.0,0.1421801,-0.021377672,0.15186916,0.0,0.0,0.0,0.0
89109837,0,0.0,0.13981043,-0.021377672,0.15186916,0.0,0.0,0.0,0.0
89218271,0,-0.016509434,0.12796208,-0.019002376,0.1635514,0.0,0.0,0.0,0.0
89324826,0,-0.016509434,0.12796208,-0.019002376,0.16471963,0.0,0.0,0.0,0.0
89410962,0,0.0,0.13270143,-0.019002376,0.16471963,0.0,0.0,0.0,0.0
89519730,0,0.0,0.12796208,-0.021377672,0.16004673,0.0,0.0,0.0,0.0
89623603,0,0.0,0.12796208,-0.040380046,0.14602804,0.0,0.0,0.0,0.0
89730570,0,0.0,0.123222746,-0.038004752,0.14369158,0.0,0.0,0.0,0.0
89819111,0,-0.014150944,0.123222746,-0.033254158,0.14836448,0.0,0.0,0.0,0.0
89925135,0,-0.030660378,0.13270143,-0.033254158,0.1495327,0.0,0.0,0.0,0.0
90013453,0,-0.04481132,0.11848341,-0.033254158,0.14836448,0.0,0.0,0.0,0.0
90118528,0,-0.030660378,0.109004736,-0.038004752,0.1448598,0.0,0.0,0.0,0.0
90223418,0,-0.011792453,0.059241705,-0.049881235,0.13200934,0.0,0.0,0.0,0.0
90327312,0,-0.018867925,0.009478673,-0.052256532,0.13200934,0.0,0.0,0.0,0.0
90412930,0,-0.03301887,0.0047393367,-0.05463183,0.13200934,0.0,0.0,0.0,0.0
90522513,0,-0.035377357,0.0047393367,-0.057007127,0.13317756,0.0,0.0,0.0,0.0
90587455,0,-0.04009434,0.0047393367,-0.06175772,0.13317756,0.0,0.0,0.0,0.0
90716652,0,-0.06367925,0.009478673,-0.06413302,0.13317756,0.0,0.0,0.0,0.0
90803862,0,-0.091981135,0.009478673,-0.07125891,0.13785046,0.0,0.0,0.0,0.0
90892454,0,-0.11556604,0.0047393367,-0.07125891,0.14252336,0.0,0.0,0.0,0.0
91022309,0,-0.12264151,0.0047393367,-0.08076009,0.1495327,0.0,0.0,0.0,0.0
91088380,0,-0.13915095,0.009478673,-0.08076009,0.1495327,0.0,0.0,0.0,0.0
91221912,0,-0.12971698,0.016587678,-0.08076009,0.1495327,0.0,0.0,0.0,0.0
91328009,0,-0.1273585,0.016587678,-0.08076009,0.15070094,0.0,0.0,0.0,0.0
91414322,0,-0.10377359,0.018957347,-0.08076009,0.15070094,0.0,0.0,0.0,0.0
91521714,0,-0.051886793,0.021327015,-0.085510686,0.15070094,0.0,0.0,0.0,0.0
91629933,0,-0.051886793,0.011848342,-0.09026128,0.15186916,0.0,0.0,0.0,0.0
91712574,0,-0.06367925,0.011848342,-0.09026128,0.15186916,0.0,0.0,0.0,0.0
91821081,0,-0.06367925,0.011848342,-0.09976247,0.15186916,0.0,0.0,0.0,0.0
91929247,0,-0.068396226,0.011848342,-0.09976247,0.15186916,0.0,0.0,0.0,0.0
92014672,0,-0.08726415,0.016587678,-0.10213777,0.15186916,0.0,0.0,0.0,0.0
92124713,0,-0.08962264,0.023696683,-0.10213777,0.15771028,0.0,0.0,0.0,0.0
92210266,0,-0.08726415,0.030805686,-0.10213777,0.15771028,0.0,0.0,0.0,0.0
92315933,0,-0.08490566,0.023696683,-0.10688836,0.15303738,0.0,0.0,0.0,0.0
92423973,0,-0.0754717,0.016587678,-0.111638956,0.1495327,0.0,0.0,0.0,0.0
92467987,0,-0.07783019,0.016587678,-0.11638955,0.1495327,0.0,0.0,0.0,0.0
92627031,0,-0.056603774,0.011848342,-0.121140145,0.15070094,0.0,0.0,0.0,0.0
92710770,0,-0.028301887,0.009478673,-0.12351544,0.15070094,0.0,0.0,0.0,0.0
92801157,0,-0.028301887,0.011848342,-0.12589073,0.15070094,0.0,0.0,0.0,0.0
92886933,0,-0.028301887,0.014218009,-0.12826604,0.15070094,0.0,0.0,0.0,0.0
93018132,0,-0.028301887,0.021327015,-0.12826604,0.15186916,0.0,0.0,0.0,0.0
93125400,0,-0.014150944,0.023696683,-0.13301663,0.15303738,0.0,0.0,0.0,0.0
93208445,0,-0.004716981,0.028436018,-0.13539192,0.15303738,0.0,0.0,0.0,0.0
93323571,0,-0.0023584906,0.035545025,-0.13539192,0.15303738,0.0,0.0,0.0,0.0
93419962,0,0.0,0.061611373,-0.13539192,0.1542056,0.0,0.0,0.0,0.0
93506090,0,0.0,0.08293839,-0.13539192,0.15303738,0.0,0.0,0.0,0.0
93616528,0,0.0,0.073459715,-0.14251782,0.15303738,0.0,0.0,0.0,0.0
93725641,0,0.0,0.087677725,-0.14251782,0.15303738,0.0,0.0,0.0,0.0
93811060,0,0.0,0.09952607,-0.13776723,0.15303738,0.0,0.0,0.0,0.0
93925079,0,-0.014150944,0.10663507,-0.13301663,0.15303738,0.0,0.0,0.0,0.0
94013998,0,-0.0495283,0.09241706,-0.13539192,0.15303738,0.0,0.0,0.0,0.0
94126037,0,-0.08018868,0.08293839,-0.13539192,0.1495327,0.0,0.0,0.0,0.0
94213834,0,-0.068396226,0.0971564,-0.13539192,0.1495327,0.0,0.0,0.0,0.0
94318371,0,-0.04009434,0.11848341,-0.13539192,0.14252336,0.0,0.0,0.0,0.0
94425314,0,-0.06367925,0.09241706,-0.14489311,0.14135514,0.0,0.0,0.0,0.0
94513308,0,-0.09669811,0.054502368,-0.1496437,0.13901868,0.0,0.0,0.0,0.0
94621584,0,-0.11556604,0.0047393367,-0.1591449,0.13901868,0.0,0.0,0.0,0.0
94709458,0,-0.0990566,0.011848342,-0.16627078,0.13901868,0.0,0.0,0.0,0.0
94815799,0,-0.07311321,0.047393367,-0.16389549,0.13901868,0.0,0.0,0.0,0.0
94921889,0,-0.04481132,0.08293839,-0.16389549,0.13901868,0.0,0.0,0.0,0.0
95027260,0,0.0,0.123222746,-0.16389549,0.13901868,0.0,0.0,0.0,0.0
95114875,0,0.0,0.14691943,-0.16864608,0.14252336,0.0,0.0,0.0,0.0
95220374,0,0.0,0.1492891,-0.16864608,0.14252336,0.0,0.0,0.0,0.0
95324992,0,0.0,0.14454976,-0.16627078,0.14719626,0.0,0.0,0.0,0.0
95415339,0,0.0,0.15165877,-0.13776723,0.1495327,0.0,0.0,0.0,0.0
95521117,0,0.0,0.14691943,-0.08076009,0.16939253,0.0,0.0,0.0,0.0
95611413,0,0.0,0.13270143,-0.049881235,0.18925233,0.0,0.0,0.0,0.0
95722145,0,0.0,0.08530806,-0.033254158,0.19158879,0.0,0.0,0.0,0.0
95813126,0,0.0,0.087677725,0.0,0.19158879,0.0,0.0,0.0,0.0
95919080,0,0.09456265,0.073459715,0.0,0.19042057,0.0,0.0,0.0,0.0
96023664,0,0.13002364,0.08530806,0.0,0.13901868,0.0,0.0,0.0,0.0
96113814,0,0.1394799,0.07109005,0.0,0.14602804,0.0,0.0,0.0,0.0
96221774,0,0.14893617,0.06872038,0.0,0.14719626,0.0,0.0,0.0,0.0
96309775,0,0.14893617,0.049763035,0.0,0.1542056,0.0,0.0,0.0,0.0
96406882,0,0.15130024,0.016587678,0.0,0.1542056,0.0,0.0,0.0,0.0
96522632,0,0.1252955,0.023696683,0.0,0.1542056,0.0,0.0,0.0,0.0
96628059,0,0.09692671,0.037914693,0.0,0.15537383,0.0,0.0,0.0,0.0
96712572,0,0.06619386,0.0450237,0.0,0.16004673,0.0,0.0,0.0,0.0
96821389,0,0.016548464,0.06398104,-0.040380046,0.16121495,0.0,0.0,0.0,0.0
96928008,0,0.0,0.12796208,-0.06888361,0.13200934,0.0,0.0,0.0,0.0
97012856,0,0.0,0.12796208,-0.07125891,0.12616822,0.0,0.0,0.0,0.0
97127360,0,0.0,0.11848341,-0.066508316,0.12616822,0.0,0.0,0.0,0.0
97215211,0,0.0,0.13507108,-0.057007127,0.1203271,0.0,0.0,0.0,0.0
97325785,0,0.31678486,0.116113745,-0.057007127,0.1203271,0.0,0.0,0.0,0.0
97430518,0,0.39007092,0.08530806,-0.057007127,0.1203271,0.0,0.0,0.0,0.0
97520381,0,0.36406618,0.06872038,-0.052256532,0.1203271,0.0,0.0,0.0,0.0
97610248,0,0.3617021,0.0450237,-0.05463183,0.12266355,0.0,0.0,0.0,0.0
97721934,0,0.2104019,0.059241705,-0.06175772,0.1495327,0.0,0.0,0.0,0.0
97808036,0,0.13238771,0.07582939,-0.059382424,0.1682243,0.0,0.0,0.0,0.0
97917618,0,0.15602838,0.09478673,-0.04513064,0.16939253,0.0,0.0,0.0,0.0
98005295,0,0.16548464,0.1421801,-0.042755343,0.17757009,0.0,0.0,0.0,0.0
98111100,0,0.1394799,0.17772512,-0.033254158,0.18107477,0.0,0.0,0.0,0.0
98221710,0,0.26950353,0.24881516,-0.007125891,0.15186916,0.0,0.0,0.0,0.0
98327114,0,0.30260047,0.24881516,-0.007125891,0.14836448,0.0,0.0,0.0,0.0
98411974,0,0.28368795,0.22037914,-0.004750594,0.14836448,0.0,0.0,0.0,0.0
98523593,0,0.26477543,0.1943128,0.0,0.13668224,0.0,0.0,0.0,0.0
98609894,0,0.2671395,0.17061612,0.0,0.1203271,0.0,0.0,0.0,0.0
98719734,0,0.25531915,0.16824645,0.0,0.12383178,0.0,0.0,0.0,0.0
98825132,0,0.23404256,0.1800948,-0.002375297,0.15654206,0.0,0.0,0.0,0.0
98891150,0,0.23404256,0.18246445,-0.004750594,0.15771028,0.0,0.0,0.0,0.0
99019750,0,0.23404256,0.1872038,-0.007125891,0.15537383,0.0,0.0,0.0,0.0
99105820,0,0.21513002,0.20616114,-0.007125891,0.15186916,0.0,0.0,0.0,0.0
99218468,0,0.17257683,0.21563981,-0.009501188,0.16238318,0.0,0.0,0.0,0.0
99324266,0,0.1394799,0.22985782,0.0,0.14369158,0.0,0.0,0.0,0.0
99409209,0,0.13475177,0.23459716,0.0,0.13551402,0.0,0.0,0.0,0.0
99517920,0,0.1252955,0.22985782,0.0,0.15303738,0.0,0.0,0.0,0.0
99628419,0,0.14420804,0.22985782,0.0,0.15654206,0.0,0.0,0.0,0.0
99713334,0,0.20803782,0.25118482,0.0,0.1635514,0.0,0.0,0.0,0.0
99822180,0,0.24113475,0.26540285,0.0,0.16939253,0.0,0.0,0.0,0.0
99926079,0,0.21513002,0.25118482,0.0,0.17172897,0.0,0.0,0.0,0.0
100013262,0,0.14893617,0.23696682,0.0,0.17757009,0.0,0.0,0.0,0.0
100123140,0,0.11583924,0.22748815,0.0,0.17172897,0.0,0.0,0.0,0.0
100228380,0,0.056737587,0.18957347,0.0,0.1495327,0.0,0.0,0.0,0.0
100316757,0,0.026004728,0.1563981,0.0,0.14836448,0.0,0.0,0.0,0.0
100425297,0,0.040189125,0.15165877,0.0,0.1448598,0.0,0.0,0.0,0.0
100512621,0,0.120567374,0.116113745,0.0,0.13551402,0.0,0.0,0.0,0.0
100618657,0,0.11583924,0.09241706,0.0,0.13084112,0.0,0.0,0.0,0.0
100727133,0,0.13002364,0.101895735,0.0,0.14602804,0.0,0.0,0.0,0.0
100815957,0,0.1394799,0.123222746,0.0,0.14836448,0.0,0.0,0.0,0.0
100924501,0,0.11583924,0.13270143,0.0,0.125,0.0,0.0,0.0,0.0
101008121,0,0.09692671,0.13270143,0.0,0.125,0.0,0.0,0.0,0.0
101094247,0,0.07801419,0.13270143,0.0,0.13317756,0.0,0.0,0.0,0.0
101224123,0,0.07565012,0.13507108,0.0,0.13668224,0.0,0.0,0.0,0.0
101312407,0,0.06382979,0.13981043,0.0,0.14719626,0.0,0.0,0.0,0.0
101421598,0,0.06146572,0.15876777,0.0,0.15303738,0.0,0.0,0.0,0.0
101510401,0,0.047281325,0.1492891,0.0,0.1542056,0.0,0.0,0.0,0.0
101619265,0,0.021276595,0.13981043,0.0,0.16004673,0.0,0.0,0.0,0.0
101727297,0,0.0,0.13033175,0.0,0.16121495,0.0,0.0,0.0,0.0
101770383,0,0.0,0.123222746,0.0,0.16121495,0.0,0.0,0.0,0.0
101924276,0,0.0023640662,0.1042654,0.0,0.16121495,0.0,0.0,0.0,0.0
102013445,0,0.06855792,0.09241706,0.0,0.1588785,0.0,0.0,0.0,0.0
102121146,0,0.11111111,0.116113745,0.0,0.15070094,0.0,0.0,0.0,0.0
102224972,0,0.11347517,0.1421801,0.0,0.14602804,0.0,0.0,0.0,0.0
102309545,0,0.10638298,0.15165877,0.0,0.14602804,0.0,0.0,0.0,0.0
102369874,0,0.10874704,0.15876777,0.0,0.14602804,0.0,0.0,0.0,0.0
102454948,0,0.10874704,0.1635071,0.0,0.14602804,0.0,0.0,0.0,0.0
102608745,0,0.10874704,0.1635071,0.0,0.14602804,0.0,0.0,0.0,0.0
102713991,0,0.09692671,0.15402843,0.0,0.1495327,0.0,0.0,0.0,0.0
102822930,0,0.08983452,0.14691943,0.0,0.15186916,0.0,0.0,0.0,0.0
102909924,0,0.10165485,0.14454976,0.0,0.15186916,0.0,0.0,0.0,0.0
103018830,0,0.09929078,0.1421801,0.0,0.15303738,0.0,0.0,0.0,0.0
103127092,0,0.09219858,0.14691943,0.0,0.15537383,0.0,0.0,0.0,0.0
103214613,0,0.09456265,0.15165877,0.0,0.15303738,0.0,0.0,0.0,0.0
103324410,0,0.10165485,0.1563981,0.0,0.14719626,0.0,0.0,0.0,0.0
103392494,0,0.10165485,0.15402843,0.0,0.14719626,0.0,0.0,0.0,0.0
103502057,0,0.08747045,0.1492891,0.0,0.1495327,0.0,0.0,0.0,0.0
103608843,0,0.08510638,0.14691943,0.0,0.15070094,0.0,0.0,0.0,0.0
103716992,0,0.08510638,0.14454976,0.0,0.15070094,0.0,0.0,0.0,0.0
103823642,0,0.08037825,0.13744076,0.0,0.15303738,0.0,0.0,0.0,0.0
103888417,0,0.07801419,0.13270143,0.0,0.1542056,0.0,0.0,0.0,0.0
104017062,0,0.07801419,0.12085308,0.0,0.15771028,0.0,0.0,0.0,0.0
104128032,0,0.09219858,0.116113745,0.0,0.16238318,0.0,0.0,0.0,0.0
104216255,0,0.09692671,0.116113745,0.0,0.16471963,0.0,0.0,0.0,0.0
104326475,0,0.10165485,0.11137441,0.0,0.17289719,0.0,0.0,0.0,0.0
104410989,0,0.11583924,0.0971564,0.0,0.17523365,0.0,0.0,0.0,0.0
104519539,0,0.11347517,0.09478673,0.0,0.17990655,0.0,0.0,0.0,0.0
104630025,0,0.09929078,0.09241706,0.0,0.18107477,0.0,0.0,0.0,0.0
104717131,0,0.07092199,0.07582939,0.0,0.1635514,0.0,0.0,0.0,0.0
104829166,0,0.0070921984,0.011848342,0.0,0.1635514,0.0,0.0,0.0,0.0
104915544,0,0.0,-0.0,0.0,0.16588785,0.0,0.0,0.0,0.0
105005090,0,0.0,-0.0,0.0,0.1542056,0.0,0.0,0.0,0.0
105113582,0,0.0,-0.0,0.0,0.15303738,0.0,0.0,0.0,0.0
105220208,0,0.0,-0.0072115385,0.0,0.14836448,0.0,0.0,0.0,0.0
105329927,0,0.0,-0.0,0.0,0.1343458,0.0,0.0,0.0,0.0
105411250,0,0.026004728,-0.0,0.0,0.1343458,0.0,0.0,0.0,0.0
105494757,0,0.03782506,-0.0,0.0,0.1343458,0.0,0.0,0.0,0.0
105600789,0,0.028368793,-0.0,0.0,0.1343458,0.0,0.0,0.0,0.0
105710580,0,0.021276595,-0.0,0.0,0.1343458,0.0,0.0,0.0,0.0
105817457,0,0.0,-0.0,0.0,0.13317756,0.0,0.0,0.0,0.0
105925303,0,0.0,-0.0,0.0,0.13317756,0.0,0.0,0.0,0.0
106010249,0,0.0,-0.0,0.0,0.13551402,0.0,0.0,0.0,0.0
106122080,0,0.0,0.011848342,0.0,0.14369158,0.0,0.0,0.0,0.0
106208206,0,0.0,0.023696683,0.0,0.15303738,0.0,0.0,0.0,0.0
106318018,0,0.0,0.056872036,0.0,0.16471963,0.0,0.0,0.0,0.0
106422330,0,0.0,0.08530806,0.0,0.17056075,0.0,0.0,0.0,0.0
106509819,0,0.0,0.0971564,0.0,0.17056075,0.0,0.0,0.0,0.0
106617733,0,0.0,0.12796208,0.0,0.17056075,0.0,0.0,0.0,0.0
106726110,0,0.0,0.1635071,0.0,0.16939253,0.0,0.0,0.0,0.0
106812275,0,0.0023640662,0.16824645,0.0,0.16121495,0.0,0.0,0.0,0.0
106920998,0,0.026004728,0.16824645,0.0,0.15070094,0.0,0.0,0.0,0.0
107027477,0,0.009456265,0.16587678,0.0,0.14602804,0.0,0.0,0.0,0.0
107113556,0,0.009456265,0.16587678,0.0,0.13785046,0.0,0.0,0.0,0.0
107202025,0,0.014184397,0.17061612,0.0,0.13200934,0.0,0.0,0.0,0.0
107313096,0,0.011820331,0.17298578,0.0,0.13084112,0.0,0.0,0.0,0.0
107377982,0,0.0070921984,0.17535545,0.0,0.13084112,0.0,0.0,0.0,0.0
107507394,0,0.009456265,0.18957347,0.0,0.13084112,0.0,0.0,0.0,0.0
107602838,0,0.04255319,0.21563981,0.0,0.13200934,0.0,0.0,0.0,0.0
107726304,0,0.04491726,0.21327014,0.0,0.13200934,0.0,0.0,0.0,0.0
107815094,0,0.047281325,0.21090047,0.0,0.13200934,0.0,0.0,0.0,0.0
107881082,0,0.040189125,0.2085308,0.0,0.1343458,0.0,0.0,0.0,0.0
108010866,0,0.04255319,0.20616114,0.0,0.13785046,0.0,0.0,0.0,0.0
108120206,0,0.04255319,0.20379147,0.0,0.14602804,0.0,0.0,0.0,0.0
108223813,0,0.035460994,0.1872038,0.0,0.1542056,0.0,0.0,0.0,0.0
108310316,0,0.05437352,0.1635071,0.0,0.15654206,0.0,0.0,0.0,0.0
108420613,0,0.06619386,0.17535545,0.0,0.15654206,0.0,0.0,0.0,0.0
108508100,0,0.06619386,0.17061612,0.0,0.15771028,0.0,0.0,0.0,0.0
108626385,0,0.059101656,0.16824645,0.0,0.15771028,0.0,0.0,0.0,0.0
108724767,0,0.06146572,0.16587678,0.0,0.15654206,0.0,0.0,0.0,0.0
108813843,0,0.07328605,0.17061612,0.0,0.15771028,0.0,0.0,0.0,0.0
108899988,0,0.08983452,0.17535545,0.0,0.15654206,0.0,0.0,0.0,0.0
109008990,0,0.09692671,0.15876777,0.0,0.14836448,0.0,0.0,0.0,0.0
109118736,0,0.08510638,0.1421801,0.0,0.14018692,0.0,0.0,0.0,0.0
109180257,0,0.08510638,0.13744076,0.0,0.14018692,0.0,0.0,0.0,0.0
109290593,0,0.08510638,0.13981043,0.0,0.14018692,0.0,0.0,0.0,0.0
109419862,0,0.08037825,0.13507108,0.0,0.14602804,0.0,0.0,0.0,0.0
109528022,0,0.08747045,0.13981043,0.0,0.15537383,0.0,0.0,0.0,0.0
109612627,0,0.09456265,0.1421801,0.0,0.16004673,0.0,0.0,0.0,0.0
109720488,0,0.10165485,0.14691943,0.0,0.15537383,0.0,0.0,0.0,0.0
109828075,0,0.10165485,0.14454976,0.0,0.14602804,0.0,0.0,0.0,0.0
109916770,0,0.10638298,0.14454976,0.0,0.14252336,0.0,0.0,0.0,0.0
110003992,0,0.10874704,0.14454976,0.0,0.13317756,0.0,0.0,0.0,0.0
110112082,0,0.11347517,0.14454976,0.0,0.12616822,0.0,0.0,0.0,0.0
110218633,0,0.10874704,0.14454976,0.0,0.12616822,0.0,0.0,0.0,0.0
110325553,0,0.08983452,0.12796208,0.0,0.12266355,0.0,0.0,0.0,0.0
110413526,0,0.07801419,0.11848341,0.0,0.1203271,0.0,0.0,0.0,0.0
110522075,0,0.06146572,0.109004736,0.0,0.1203271,0.0,0.0,0.0,0.0
110610982,0,0.056737587,0.101895735,0.0,0.1203271,0.0,0.0,0.0,0.0
110716412,0,0.05437352,0.087677725,0.0,0.1203271,0.0,0.0,0.0,0.0
110826022,0,0.04964539,0.073459715,0.0,0.11682243,0.0,0.0,0.0,0.0
110911304,0,0.047281325,0.07109005,0.0,0.098130845,0.0,0.0,0.0,0.0
111020748,0,0.05437352,0.06872038,0.0,0.043224297,0.0,0.0,0.0,0.0
111106129,0,0.06619386,0.0521327,0.0,0.0,0.0,0.0,0.0,0.0
111214884,0,0.059101656,0.037914693,0.0,0.0,0.0,0.0,0.0,0.0
111302021,0,0.04964539,0.035545025,0.0,0.0,0.0,0.0,0.0,0.0
111390741,0,0.04255319,0.023696683,0.0,0.0,0.0,0.0,0.0,0.0
111518922,0,0.026004728,0.009478673,-0.004750594,0.0,0.0,0.0,0.0,0.0
111624347,0,0.021276595,-0.0,-0.88598573,0.0,0.0,0.0,0.0,0.0
111709943,0,0.01891253,-0.0,-1.0,0.0,0.0,0.0,0.0,0.0
111818568,0,0.0,-0.0,-1.0,0.0,0.0,0.0,0.0,0.0
111884004,0,0.0,-0.0,-1.0,0.0,0.0,0.0,0.0,0.0
112189706,0,0.0,-0.0,-1.0,0.0,0.0,0.0,0.0,0.0
112491701,0,0.0,-0.0,-1.0,0.0,0.0,0.0,0.0,0.0
112798532,0,0.0,-0.0,-1.0,0.0,0.0,0.0,0.0,0.0
113119259,0,0.0,-0.0,-1.0,0.0,0.0,0.0,0.0,0.0
113229284,0,0.0,-0.0,-1.0,0.0,0.0,0.0,0.0,0.0
113252484,0,0.0,-0.0,-1.0,0.0,0.0,0.0,0.0,0.0
113340924,0,0.0,-0.0,-1.0,0.0,0.0,0.0,0.0,0.0
113407111,0,0.0,-0.0,-0.5914489,0.0,0.0,0.0,0.0,0.0
113512593,0,0.0,-0.0,0.0,0.0,0.0,0.0,0.0,0.0
113620519,0,0.0,-0.0,0.0,0.0,0.0,0.0,0.0,0.0
113664890,0,0.0,-0.0,0.0,0.0,0.0,0.0,0.0,0.0
