timestamp,timestamp_sample,gps_hvel[0],gps_hvel[1],gps_vvel,gps_hpos[0],gps_hpos[1],gps_vpos,ev_hvel[0],ev_hvel[1],ev_vvel,ev_hpos[0],ev_hpos[1],ev_vpos,rng_vpos,baro_vpos,aux_hvel[0],aux_hvel[1],aux_vvel,flow[0],flow[1],heading,mag_field[0],mag_field[1],mag_field[2],drag[0],drag[1],airspeed,beta,hagl
22227477,22226924,0.0,0.0,0.0,6.582095e-05,0.0,0.0,0.0,0.0,0.0,0.0,0.0,0.0,0.0,4.4008272e-07,0.0,0.0,nan,0.0,0.0,3.986618e-05,0.0,0.0,0.0,0.0,0.0,0.0,0.0,0.0
22727627,22726938,0.0,0.0,0.0,0.00041792807,0.0,0.0,0.0,0.0,0.0,0.0,0.0,0.0,0.0,3.88709e-05,0.0,0.0,nan,0.0,0.0,0.00042847436,0.0,0.0,0.0,0.0,0.0,0.0,0.0,0.0
23223469,23222777,0.0,0.0,0.0,4.1316953e-06,0.0,0.0,0.0,0.0,0.0,0.0,0.0,0.0,0.0,3.911119e-08,0.0,0.0,nan,0.0,0.0,0.0034850328,0.0,0.0,0.0,0.0,0.0,0.0,0.0,0.0
23728384,23727374,0.0,0.0,0.0,2.1042044e-05,0.0,0.0,0.0,0.0,0.0,0.0,0.0,0.0,0.0,0.00011852385,0.0,0.0,nan,0.0,0.0,0.0052063824,0.0,0.0,0.0,0.0,0.0,0.0,0.0,0.0
24227986,24227610,0.0,0.0,0.0,0.00011266015,0.0,0.0,0.0,0.0,0.0,0.0,0.0,0.0,0.0,4.9247545e-05,0.0,0.0,nan,0.0,0.0,0.007316677,0.0,0.0,0.0,0.0,0.0,0.0,0.0,0.0
24723887,24723359,0.0,0.0,0.0,0.00025569217,0.0,0.0,0.0,0.0,0.0,0.0,0.0,0.0,0.0,1.5304961e-07,0.0,0.0,nan,0.0,0.0,0.018334363,0.0,0.0,0.0,0.0,0.0,0.0,0.0,0.0
25228708,25228204,0.0,0.0,0.0,0.0007119894,0.0,0.0,0.0,0.0,0.0,0.0,0.0,0.0,0.0,1.272994e-07,0.0,0.0,nan,0.0,0.0,0.007083673,0.0,0.0,0.0,0.0,0.0,0.0,0.0,0.0
25730004,25728641,0.0,0.0,0.0,0.0012071518,0.0,0.0,0.0,0.0,0.0,0.0,0.0,0.0,0.0,2.2278167e-05,0.0,0.0,nan,0.0,0.0,0.006001188,0.0,0.0,0.0,0.0,0.0,0.0,0.0,0.0
26224534,26224106,0.0,0.0,0.0,0.002238315,0.0,0.0,0.0,0.0,0.0,0.0,0.0,0.0,0.0,3.359531e-05,0.0,0.0,nan,0.0,0.0,0.014525206,0.0,0.0,0.0,0.0,0.0,0.0,0.0,0.0
26724932,26724495,0.0,0.0,0.0,0.0029742126,0.0,0.0,0.0,0.0,0.0,0.0,0.0,0.0,0.0,5.630176e-06,0.0,0.0,nan,0.0,0.0,0.017564768,0.0,0.0,0.0,0.0,0.0,0.0,0.0,0.0
27225228,27224542,0.0,0.0,0.0,0.0035135255,0.0,0.0,0.0,0.0,0.0,0.0,0.0,0.0,0.0,1.0665848e-07,0.0,0.0,nan,0.0,0.0,0.00891143,0.0,0.0,0.0,0.0,0.0,0.0,0.0,0.0
27721225,27720361,0.0,0.0,0.0,0.0038829453,0.0,0.0,0.0,0.0,0.0,0.0,0.0,0.0,0.0,0.000104423736,0.0,0.0,nan,0.0,0.0,0.009972728,0.0,0.0,0.0,0.0,0.0,0.0,0.0,0.0
28225571,28225023,0.0,0.0,0.0,0.0037742574,0.0,0.0,0.0,0.0,0.0,0.0,0.0,0.0,0.0,0.00015446881,0.0,0.0,nan,0.0,0.0,0.01025383,0.0,0.0,0.0,0.0,0.0,0.0,0.0,0.0
28721546,28720758,0.0,0.0,0.0,0.003234672,0.0,0.0,0.0,0.0,0.0,0.0,0.0,0.0,0.0,2.726765e-05,0.0,0.0,nan,0.0,0.0,0.005618853,0.0,0.0,0.0,0.0,0.0,0.0,0.0,0.0
29217014,29216635,0.0,0.0,0.0,0.0027151022,0.0,0.0,0.0,0.0,0.0,0.0,0.0,0.0,0.0,0.0002785673,0.0,0.0,nan,0.0,0.0,0.008156685,0.0,0.0,0.0,0.0,0.0,0.0,0.0,0.0
29728574,29725816,0.0,0.0,0.0,0.0019664878,0.0,0.0,0.0,0.0,0.0,0.0,0.0,0.0,0.0,0.00018360496,0.0,0.0,nan,0.0,0.0,0.0,0.0017886386,0.0,0.0,0.0,0.0,0.0,0.0,0.0
30230913,30226235,0.0,0.0,0.0,0.0016287653,0.0,0.0,0.0,0.0,0.0,0.0,0.0,0.0,0.0,2.7450442e-05,0.0,0.0,nan,0.0,0.0,0.0,0.0050932174,0.0,0.0,0.0,0.0,0.0,0.0,0.0
30728197,30726232,0.0,0.0,0.0,0.0013803315,0.0,0.0,0.0,0.0,0.0,0.0,0.0,0.0,0.0,4.1952324e-05,0.0,0.0,nan,0.0,0.0,0.0,0.010206119,0.0,0.0,0.0,0.0,0.0,0.0,0.0
31222490,31222097,0.0,0.0,0.0,0.0011317912,0.0,0.0,0.0,0.0,0.0,0.0,0.0,0.0,0.0,5.2187283e-05,0.0,0.0,nan,0.0,0.0,0.0,0.0020849756,0.0,0.0,0.0,0.0,0.0,0.0,0.0
31722871,31722253,0.0,0.0,0.0,0.0010283663,0.0,0.0,0.0,0.0,0.0,0.0,0.0,0.0,0.0,2.0075097e-06,0.0,0.0,nan,0.0,0.0,0.0,0.0072525465,0.0,0.0,0.0,0.0,0.0,0.0,0.0
32223352,32222451,0.0,0.0,0.0,0.000949826,0.0,0.0,0.0,0.0,0.0,0.0,0.0,0.0,0.0,1.7450822e-06,0.0,0.0,nan,0.0,0.0,0.0,0.002995315,0.0,0.0,0.0,0.0,0.0,0.0,0.0
32725026,32722735,0.0,0.0,0.0,0.0009458577,0.0,0.0,0.0,0.0,0.0,0.0,0.0,0.0,0.0,1.8054881e-07,0.0,0.0,nan,0.0,0.0,0.0,0.009035284,0.0,0.0,0.0,0.0,0.0,0.0,0.0
33228209,33227572,0.0,0.0,0.0,0.0009760783,0.0,0.0,0.0,0.0,0.0,0.0,0.0,0.0,0.0,9.540189e-06,0.0,0.0,nan,0.0,0.0,0.015007794,0.0,0.0,0.0,0.0,0.0,0.0,0.0,0.0
33733489,33732196,0.0,0.0,0.0,0.0010530152,0.0,0.0,0.0,0.0,0.0,0.0,0.0,0.0,0.0,5.6731806e-05,0.0,0.0,nan,0.0,0.0,0.00040533853,0.0,0.0,0.0,0.0,0.0,0.0,0.0,0.0
34228632,34227939,0.0,0.0,0.0,0.001146705,0.0,0.0,0.0,0.0,0.0,0.0,0.0,0.0,0.0,4.5221157e-05,0.0,0.0,nan,0.0,0.0,0.00017089599,0.0,0.0,0.0,0.0,0.0,0.0,0.0,0.0
34720166,34719208,0.0,0.0,0.0,0.0013140363,0.0,0.0,0.0,0.0,0.0,0.0,0.0,0.0,0.0,2.894818e-05,0.0,0.0,nan,0.0,0.0,0.0010131226,0.0,0.0,0.0,0.0,0.0,0.0,0.0,0.0
35224572,35223913,0.0,0.0,0.0,0.0014407402,0.0,0.0,0.0,0.0,0.0,0.0,0.0,0.0,0.0,6.5019634e-07,0.0,0.0,nan,0.0,0.0,0.00017054849,0.0,0.0,0.0,0.0,0.0,0.0,0.0,0.0
35729043,35728663,0.0,0.0,0.0,0.0015840296,0.0,0.0,0.0,0.0,0.0,0.0,0.0,0.0,0.0,2.4192166e-05,0.0,0.0,nan,0.0,0.0,0.00026773688,0.0,0.0,0.0,0.0,0.0,0.0,0.0,0.0
36229521,36228952,0.0,0.0,0.0,0.001546083,0.0,0.0,0.0,0.0,0.0,0.0,0.0,0.0,0.0,1.2834555e-05,0.0,0.0,nan,0.0,0.0,0.00017816163,0.0,0.0,0.0,0.0,0.0,0.0,0.0,0.0
36730032,36729345,0.0,0.0,0.0,0.0012120589,0.0,0.0,0.0,0.0,0.0,0.0,0.0,0.0,0.0,9.159598e-06,0.0,0.0,nan,0.0,0.0,0.0031701033,0.0,0.0,0.0,0.0,0.0,0.0,0.0,0.0
37231107,37229397,0.0,0.0,0.0,0.0009603006,0.0,0.0,0.0,0.0,0.0,0.0,0.0,0.0,0.0,4.9975686e-05,0.0,0.0,nan,0.0,0.0,3.583803e-05,0.0,0.0,0.0,0.0,0.0,0.0,0.0,0.0
37725599,37725229,0.0,0.0,0.0,0.0007224004,0.0,0.0,0.0,0.0,0.0,0.0,0.0,0.0,0.0,7.0674187e-09,0.0,0.0,nan,0.0,0.0,0.0025355548,0.0,0.0,0.0,0.0,0.0,0.0,0.0,0.0
38221304,38220876,0.0,0.0,0.0,0.0004931392,0.0,0.0,0.0,0.0,0.0,0.0,0.0,0.0,0.0,2.2837867e-05,0.0,0.0,nan,0.0,0.0,0.008234742,0.0,0.0,0.0,0.0,0.0,0.0,0.0,0.0
38726292,38725627,0.0,0.0,0.0,0.0003388271,0.0,0.0,0.0,0.0,0.0,0.0,0.0,0.0,0.0,5.2241197e-05,0.0,0.0,nan,0.0,0.0,0.0,0.008036776,0.0,0.0,0.0,0.0,0.0,0.0,0.0
39222231,39221535,0.0,0.0,0.0,0.00010497463,0.0,0.0,0.0,0.0,0.0,0.0,0.0,0.0,0.0,1.3223345e-06,0.0,0.0,nan,0.0,0.0,0.0,0.0023068655,0.0,0.0,0.0,0.0,0.0,0.0,0.0
39723796,39721658,0.0,0.0,0.0,1.86877e-05,0.0,0.0,0.0,0.0,0.0,0.0,0.0,0.0,0.0,0.00015333359,0.0,0.0,nan,0.0,0.0,0.0,0.0058752755,0.0,0.0,0.0,0.0,0.0,0.0,0.0
40226753,40226365,0.0,0.0,0.0,3.682235e-05,0.0,0.0,0.0,0.0,0.0,0.0,0.0,0.0,0.0,5.7628957e-05,0.0,0.0,nan,0.0,0.0,0.0,0.013026388,0.0,0.0,0.0,0.0,0.0,0.0,0.0
40722544,40717857,0.0,0.0,0.0,0.00010594595,0.0,0.0,0.0,0.0,0.0,0.0,0.0,0.0,0.0,2.0760011e-05,0.0,0.0,nan,0.0,0.0,0.0,0.006916312,0.0,0.0,0.0,0.0,0.0,0.0,0.0
41227415,41227025,0.0,0.0,0.0,0.00020718608,0.0,0.0,0.0,0.0,0.0,0.0,0.0,0.0,0.0,5.5941975e-05,0.0,0.0,nan,0.0,0.0,0.0,0.0042088735,0.0,0.0,0.0,0.0,0.0,0.0,0.0
41731844,41727150,0.0,0.0,0.0,0.0002907197,0.0,0.0,0.0,0.0,0.0,0.0,0.0,0.0,0.0,0.00014052045,0.0,0.0,nan,0.0,0.0,0.0,0.0005174253,0.0,0.0,0.0,0.0,0.0,0.0,0.0
42227973,42227354,0.0,0.0,0.0,0.00037439578,0.0,0.0,0.0,0.0,0.0,0.0,0.0,0.0,0.0,4.4426357e-05,0.0,0.0,nan,0.0,0.0,0.0,0.00382294,0.0,0.0,0.0,0.0,0.0,0.0,0.0
42725428,42723358,0.0,0.0,0.0,0.0004448312,0.0,0.0,0.0,0.0,0.0,0.0,0.0,0.0,0.0,9.479999e-05,0.0,0.0,nan,0.0,0.0,0.0,0.003241277,0.0,0.0,0.0,0.0,0.0,0.0,0.0
43223883,43223341,0.0,0.0,0.0,0.0004173211,0.0,0.0,0.0,0.0,0.0,0.0,0.0,0.0,0.0,1.07664775e-07,0.0,0.0,nan,0.0,0.0,0.0,0.014189918,0.0,0.0,0.0,0.0,0.0,0.0,0.0
43720522,43719235,0.0,0.0,0.0,0.0002878213,0.0,0.0,0.0,0.0,0.0,0.0,0.0,0.0,0.0,1.3026141e-05,0.0,0.0,nan,0.0,0.0,0.0,0.069382586,0.0,0.0,0.0,0.0,0.0,0.0,0.0
44231196,44228413,0.0,0.0,0.0,6.413916e-05,0.0,0.0,0.0,0.0,0.0,0.0,0.0,0.0,0.0,1.8654475e-06,0.0,0.0,nan,0.0,0.0,0.0,0.04722435,0.0,0.0,0.0,0.0,0.0,0.0,0.0
44732407,44728850,0.0,0.0,0.0,2.2991588e-05,0.0,0.0,0.0,0.0,0.0,0.0,0.0,0.0,0.0,4.761876e-06,0.0,0.0,nan,0.0,0.0,0.0,0.02571437,0.0,0.0,0.0,0.0,0.0,0.0,0.0
45231251,45228842,0.0,0.0,0.0,8.649626e-05,0.0,0.0,0.0,0.0,0.0,0.0,0.0,0.0,0.0,1.7356061e-08,0.0,0.0,nan,0.0,0.0,0.0,0.026411075,0.0,0.0,0.0,0.0,0.0,0.0,0.0
45725116,45724733,0.0,0.0,0.0,0.00035257687,0.0,0.0,0.0,0.0,0.0,0.0,0.0,0.0,0.0,1.5257994e-05,0.0,0.0,nan,0.0,0.0,0.0,0.08914761,0.0,0.0,0.0,0.0,0.0,0.0,0.0
46229326,46224831,0.0,0.0,0.0,0.00090327306,0.0,0.0,0.0,0.0,0.0,0.0,0.0,0.0,0.0,8.228657e-05,0.0,0.0,nan,0.0,0.0,0.0,0.07703388,0.0,0.0,0.0,0.0,0.0,0.0,0.0
46725497,46725082,0.0,0.0,0.0,0.00151117,0.0,0.0,0.0,0.0,0.0,0.0,0.0,0.0,0.0,6.261843e-05,0.0,0.0,nan,0.0,0.0,0.0,0.057631403,0.0,0.0,0.0,0.0,0.0,0.0,0.0
47227510,47225375,0.0,0.0,0.0,0.0022824015,0.0,0.0,0.0,0.0,0.0,0.0,0.0,0.0,0.0,3.221316e-05,0.0,0.0,nan,0.0,0.0,0.0,0.08079465,0.0,0.0,0.0,0.0,0.0,0.0,0.0
47730756,47730241,0.0,0.0,0.0,0.0037807839,0.0,0.0,0.0,0.0,0.0,0.0,0.0,0.0,0.0,0.00018678783,0.0,0.0,nan,0.0,0.0,0.0,0.03459534,0.0,0.0,0.0,0.0,0.0,0.0,0.0
48218381,48216966,0.0,0.0,0.0,0.0049795224,0.0,0.0,0.0,0.0,0.0,0.0,0.0,0.0,0.0,1.7797147e-05,0.0,0.0,nan,0.0,0.0,0.0,0.03158619,0.0,0.0,0.0,0.0,0.0,0.0,0.0
48728476,48726142,0.0,0.0,0.0,0.006520641,0.0,0.0,0.0,0.0,0.0,0.0,0.0,0.0,0.0,9.6655014e-05,0.0,0.0,nan,0.0,0.0,0.0,0.04011174,0.0,0.0,0.0,0.0,0.0,0.0,0.0
49727207,49726628,0.0,0.0,0.0,0.008569739,0.0,0.0,0.0,0.0,0.0,0.0,0.0,0.0,0.0,0.0002044553,0.0,0.0,nan,0.0,0.0,0.0,0.025993714,0.0,0.0,0.0,0.0,0.0,0.0,0.0
50224794,50222474,0.0,0.0,0.0,0.009060257,0.0,0.0,0.0,0.0,0.0,0.0,0.0,0.0,0.0,0.00017697847,0.0,0.0,nan,0.0,0.0,0.0,0.008557173,0.0,0.0,0.0,0.0,0.0,0.0,0.0
50723604,50722576,0.0,0.0,0.0,0.009292356,0.0,0.0,0.0,0.0,0.0,0.0,0.0,0.0,0.0,1.689607e-05,0.0,0.0,nan,0.0,0.0,0.0,0.019114912,0.0,0.0,0.0,0.0,0.0,0.0,0.0
51228179,51227353,0.0,0.0,0.0,0.009123395,0.0,0.0,0.0,0.0,0.0,0.0,0.0,0.0,0.0,0.0001525694,0.0,0.0,nan,0.0,0.0,0.0,0.010841628,0.0,0.0,0.0,0.0,0.0,0.0,0.0
51719192,51718814,0.0,0.0,0.0,0.008901361,0.0,0.0,0.0,0.0,0.0,0.0,0.0,0.0,0.0,5.480646e-06,0.0,0.0,nan,0.0,0.0,0.0,0.012814554,0.0,0.0,0.0,0.0,0.0,0.0,0.0
52228459,52227990,0.0,0.0,0.0,0.008891668,0.0,0.0,0.0,0.0,0.0,0.0,0.0,0.0,0.0,0.00017336529,0.0,0.0,nan,0.0,0.0,0.0,0.021770844,0.0,0.0,0.0,0.0,0.0,0.0,0.0
52728690,52728094,0.0,0.0,0.0,0.008730939,0.0,0.0,0.0,0.0,0.0,0.0,0.0,0.0,0.0,3.820272e-06,0.0,0.0,nan,0.0,0.0,0.0,0.00867543,0.0,0.0,0.0,0.0,0.0,0.0,0.0
53224611,53223908,0.0,0.0,0.0,0.008143048,0.0,0.0,0.0,0.0,0.0,0.0,0.0,0.0,0.0,1.7041987e-07,0.0,0.0,nan,0.0,0.0,0.002860607,0.0,0.0,0.0,0.0,0.0,0.0,0.0,0.0
53729878,53728596,0.0,0.0,0.0,0.00788972,0.0,0.0,0.0,0.0,0.0,0.0,0.0,0.0,0.0,0.00026150723,0.0,0.0,nan,0.0,0.0,0.006295639,0.0,0.0,0.0,0.0,0.0,0.0,0.0,0.0
54224928,54224387,0.0,0.0,0.0,0.00749002,0.0,0.0,0.0,0.0,0.0,0.0,0.0,0.0,0.0,0.00023136102,0.0,0.0,nan,0.0,0.0,0.004775651,0.0,0.0,0.0,0.0,0.0,0.0,0.0,0.0
54729518,54729144,0.0,0.0,0.0,0.007311477,0.0,0.0,0.0,0.0,0.0,0.0,0.0,0.0,0.0,0.00021443985,0.0,0.0,nan,0.0,0.0,0.0026280687,0.0,0.0,0.0,0.0,0.0,0.0,0.0,0.0
55229989,55229428,0.0,0.0,0.0,0.0073569603,0.0,0.0,0.0,0.0,0.0,0.0,0.0,0.0,0.0,0.00010038221,0.0,0.0,nan,0.0,0.0,0.006032725,0.0,0.0,0.0,0.0,0.0,0.0,0.0,0.0
55725894,55725099,0.0,0.0,0.0,0.007413225,0.0,0.0,0.0,0.0,0.0,0.0,0.0,0.0,0.0,0.00028300736,0.0,0.0,nan,0.0,0.0,0.0024148049,0.0,0.0,0.0,0.0,0.0,0.0,0.0,0.0
56217044,56216595,0.0,0.0,0.0,0.007461758,0.0,0.0,0.0,0.0,0.0,0.0,0.0,0.0,0.0,0.00046313656,0.0,0.0,nan,0.0,0.0,0.0056123296,0.0,0.0,0.0,0.0,0.0,0.0,0.0,0.0
56726196,56725787,0.0,0.0,0.0,0.0075142155,0.0,0.0,0.0,0.0,0.0,0.0,0.0,0.0,0.0,0.0003101416,0.0,0.0,nan,0.0,0.0,0.008649996,0.0,0.0,0.0,0.0,0.0,0.0,0.0,0.0
57226618,57225859,0.0,0.0,0.0,0.0074097803,0.0,0.0,0.0,0.0,0.0,0.0,0.0,0.0,0.0,0.000557606,0.0,0.0,nan,0.0,0.0,0.0040988284,0.0,0.0,0.0,0.0,0.0,0.0,0.0,0.0
57722498,57721700,0.0,0.0,0.0,0.0067398543,0.0,0.0,0.0,0.0,0.0,0.0,0.0,0.0,0.0,0.00018988669,0.0,0.0,nan,0.0,0.0,0.005819083,0.0,0.0,0.0,0.0,0.0,0.0,0.0,0.0
58227540,58226371,0.0,0.0,0.0,0.005937224,0.0,0.0,0.0,0.0,0.0,0.0,0.0,0.0,0.0,0.00017396026,0.0,0.0,nan,0.0,0.0,0.015762007,0.0,0.0,0.0,0.0,0.0,0.0,0.0,0.0
58722960,58722164,0.0,0.0,0.0,0.004163587,0.0,0.0,0.0,0.0,0.0,0.0,0.0,0.0,0.0,8.4491774e-05,0.0,0.0,nan,0.0,0.0,0.0,0.049057234,0.0,0.0,0.0,0.0,0.0,0.0,0.0
59218439,59218046,0.0,0.0,0.0,0.0032758198,0.0,0.0,0.0,0.0,0.0,0.0,0.0,0.0,0.0,0.00026802468,0.0,0.0,nan,0.0,0.0,0.0,0.014680872,0.0,0.0,0.0,0.0,0.0,0.0,0.0
59730206,59727223,0.0,0.0,0.0,0.0029136438,0.0,0.0,0.0,0.0,0.0,0.0,0.0,0.0,0.0,0.00019168037,0.0,0.0,nan,0.0,0.0,0.0,0.03884408,0.0,0.0,0.0,0.0,0.0,0.0,0.0
60228737,60227689,0.0,0.0,0.0,0.0038758237,0.0,0.0,0.0,0.0,0.0,0.0,0.0,0.0,0.0,0.000119274184,0.0,0.0,nan,0.0,0.0,0.0,0.070830405,0.0,0.0,0.0,0.0,0.0,0.0,0.0
60728226,60727642,0.0,0.0,0.0,0.0050926968,0.0,0.0,0.0,0.0,0.0,0.0,0.0,0.0,0.0,0.00015326224,0.0,0.0,nan,0.0,0.0,0.0,0.08239865,0.0,0.0,0.0,0.0,0.0,0.0,0.0
61219405,61218931,0.0,0.0,0.0,0.0072569023,0.0,0.0,0.0,0.0,0.0,0.0,0.0,0.0,0.0,0.00022363418,0.0,0.0,nan,0.0,0.0,0.0,0.099703394,0.0,0.0,0.0,0.0,0.0,0.0,0.0
61734803,61732791,0.0,0.0,0.0,0.008284862,0.0,0.0,0.0,0.0,0.0,0.0,0.0,0.0,0.0,1.0264125e-05,0.0,0.0,nan,0.0,0.0,0.0,0.04699608,0.0,0.0,0.0,0.0,0.0,0.0,0.0
62228793,62228411,0.0,0.0,0.0,0.009600217,0.0,0.0,0.0,0.0,0.0,0.0,0.0,0.0,0.0,7.87043e-05,0.0,0.0,nan,0.0,0.0,0.0,0.036875516,0.0,0.0,0.0,0.0,0.0,0.0,0.0
62720234,62719657,0.0,0.0,0.0,0.011187547,0.0,0.0,0.0,0.0,0.0,0.0,0.0,0.0,0.0,9.723892e-06,0.0,0.0,nan,0.0,0.0,0.0,0.12991205,0.0,0.0,0.0,0.0,0.0,0.0,0.0
63224900,63224461,0.0,0.0,0.0,0.013271284,0.0,0.0,0.0,0.0,0.0,0.0,0.0,0.0,0.0,4.0325693e-05,0.0,0.0,nan,0.0,0.0,0.0,0.12571214,0.0,0.0,0.0,0.0,0.0,0.0,0.0
63731746,63729179,0.0,0.0,0.0,0.016944423,0.0,0.0,0.0,0.0,0.0,0.0,0.0,0.0,0.0,8.02867e-06,0.0,0.0,nan,0.0,0.0,0.0,0.09358805,0.0,0.0,0.0,0.0,0.0,0.0,0.0
64225540,64225074,0.0,0.0,0.0,0.019737843,0.0,0.0,0.0,0.0,0.0,0.0,0.0,0.0,0.0,2.938435e-05,0.0,0.0,nan,0.0,0.0,0.0,0.05656102,0.0,0.0,0.0,0.0,0.0,0.0,0.0
64732273,64729693,0.0,0.0,0.0,0.023944661,0.0,0.0,0.0,0.0,0.0,0.0,0.0,0.0,0.0,1.2486874e-05,0.0,0.0,nan,0.0,0.0,0.0,0.04734787,0.0,0.0,0.0,0.0,0.0,0.0,0.0
65227577,65225443,0.0,0.0,0.0,0.028724225,0.0,0.0,0.0,0.0,0.0,0.0,0.0,0.0,0.0,1.170799e-05,0.0,0.0,nan,0.0,0.0,0.0,0.05802046,0.0,0.0,0.0,0.0,0.0,0.0,0.0
65726233,65725746,0.0,0.0,0.0,0.038047485,0.0,0.0,0.0,0.0,0.0,0.0,0.0,0.0,0.0,1.5858484e-05,0.0,0.0,nan,0.0,0.0,0.0,0.037085965,0.0,0.0,0.0,0.0,0.0,0.0,0.0
66232652,66230682,0.0,0.0,0.0,0.043313786,0.0,0.0,0.0,0.0,0.0,0.0,0.0,0.0,0.0,9.3685844e-07,0.0,0.0,nan,0.0,0.0,0.0,0.0635954,0.0,0.0,0.0,0.0,0.0,0.0,0.0
66722016,66717345,0.0,0.0,0.0,0.050913867,0.0,0.0,0.0,0.0,0.0,0.0,0.0,0.0,0.0,4.5057964e-06,0.0,0.0,nan,0.0,0.0,0.0,0.043350402,0.0,0.0,0.0,0.0,0.0,0.0,0.0
67229668,67226548,0.0,0.0,0.0,0.05634057,0.0,0.0,0.0,0.0,0.0,0.0,0.0,0.0,0.0,8.434486e-06,0.0,0.0,nan,0.0,0.0,0.0,0.05454541,0.0,0.0,0.0,0.0,0.0,0.0,0.0
67727259,67726735,0.0,0.0,0.0,0.06121667,0.0,0.0,0.0,0.0,0.0,0.0,0.0,0.0,0.0,3.927601e-06,0.0,0.0,nan,0.0,0.0,0.0,0.09039413,0.0,0.0,0.0,0.0,0.0,0.0,0.0
68229307,68227036,0.0,0.0,0.0,0.07148208,0.0,0.0,0.0,0.0,0.0,0.0,0.0,0.0,0.0,8.9549985e-07,0.0,0.0,nan,0.0,0.0,0.0,0.113786235,0.0,0.0,0.0,0.0,0.0,0.0,0.0
68723450,68722929,0.0,0.0,0.0,0.08386524,0.0,0.0,0.0,0.0,0.0,0.0,0.0,0.0,0.0,2.479408e-07,0.0,0.0,nan,0.0,0.0,0.0,0.1404268,0.0,0.0,0.0,0.0,0.0,0.0,0.0
69227889,69227516,0.0,0.0,0.0,0.10876961,0.0,0.0,0.0,0.0,0.0,0.0,0.0,0.0,0.0,0.00046637756,0.0,0.0,nan,0.0,0.0,0.0,0.101909995,0.0,0.0,0.0,0.0,0.0,0.0,0.0
69732018,69727766,0.0,0.0,0.0,0.12858336,0.0,0.0,0.0,0.0,0.0,0.0,0.0,0.0,0.0,0.00016169468,0.0,0.0,nan,0.0,0.0,0.0,0.0774825,0.0,0.0,0.0,0.0,0.0,0.0,0.0
70224072,70223527,0.0,0.0,0.0,0.15985039,0.0,0.0,0.0,0.0,0.0,0.0,0.0,0.0,0.0,8.747827e-05,0.0,0.0,nan,0.0,0.0,0.0,0.0626779,0.0,0.0,0.0,0.0,0.0,0.0,0.0
70730662,70728503,0.0,0.0,0.0,0.17708768,0.0,0.0,0.0,0.0,0.0,0.0,0.0,0.0,0.0,0.00021035672,0.0,0.0,nan,0.0,0.0,0.0,0.059316132,0.0,0.0,0.0,0.0,0.0,0.0,0.0
71229133,71228545,0.0,0.0,0.0,0.19100913,0.0,0.0,0.0,0.0,0.0,0.0,0.0,0.0,0.0,4.4545422e-06,0.0,0.0,nan,0.0,0.0,0.0,0.05723685,0.0,0.0,0.0,0.0,0.0,0.0,0.0
71727088,71724477,0.0,0.0,0.0,0.2021332,0.0,0.0,0.0,0.0,0.0,0.0,0.0,0.0,0.0,1.0510965e-08,0.0,0.0,nan,0.0,0.0,0.0,0.05450782,0.0,0.0,0.0,0.0,0.0,0.0,0.0
72229709,72229068,0.0,0.0,0.0,0.20308898,0.0,0.0,0.0,0.0,0.0,0.0,0.0,0.0,0.0,0.00016440975,0.0,0.0,nan,0.0,0.0,0.0,0.07072246,0.0,0.0,0.0,0.0,0.0,0.0,0.0
72726955,72724824,0.0,0.0,0.0,0.19974802,0.0,0.0,0.0,0.0,0.0,0.0,0.0,0.0,0.0,1.14543454e-07,0.0,0.0,nan,0.0,0.0,0.0,0.040987078,0.0,0.0,0.0,0.0,0.0,0.0,0.0
73223165,73220798,0.0,0.0,0.0,0.19801642,0.0,0.0,0.0,0.0,0.0,0.0,0.0,0.0,0.0,0.00036098209,0.0,0.0,nan,0.0,0.0,0.0,0.07098364,0.0,0.0,0.0,0.0,0.0,0.0,0.0
73721939,73720833,0.0,0.0,0.0,0.18840787,0.0,0.0,0.0,0.0,0.0,0.0,0.0,0.0,0.0,1.985807e-05,0.0,0.0,nan,0.0,0.0,0.0,0.08935441,0.0,0.0,0.0,0.0,0.0,0.0,0.0
74217105,74216736,0.0,0.0,0.0,0.19146149,0.0,0.0,0.0,0.0,0.0,0.0,0.0,0.0,0.0,2.1194583e-05,0.0,0.0,nan,0.0,0.0,0.0033323066,0.0,0.0,0.0,0.0,0.0,0.0,0.0,0.0
74726487,74725928,0.0,0.0,0.0,0.1975441,0.0,0.0,0.0,0.0,0.0,0.0,0.0,0.0,0.0,0.00047535985,0.0,0.0,nan,0.0,0.0,0.0076950397,0.0,0.0,0.0,0.0,0.0,0.0,0.0,0.0
75226767,75226383,0.0,0.0,0.0,0.2003654,0.0,0.0,0.0,0.0,0.0,0.0,0.0,0.0,0.0,5.6441626e-05,0.0,0.0,nan,0.0,0.0,0.0058828606,0.0,0.0,0.0,0.0,0.0,0.0,0.0,0.0
75727049,75726384,0.0,0.0,0.0,0.20105343,0.0,0.0,0.0,0.0,0.0,0.0,0.0,0.0,0.0,0.00010161818,0.0,0.0,nan,0.0,0.0,0.008750221,0.0,0.0,0.0,0.0,0.0,0.0,0.0,0.0
76223174,76222320,0.0,0.0,0.0,0.19820093,0.0,0.0,0.0,0.0,0.0,0.0,0.0,0.0,0.0,0.00032711987,0.0,0.0,nan,0.0,0.0,0.0025202776,0.0,0.0,0.0,0.0,0.0,0.0,0.0,0.0
76723144,76722450,0.0,0.0,0.0,0.192254,0.0,0.0,0.0,0.0,0.0,0.0,0.0,0.0,0.0,0.000113390655,0.0,0.0,nan,0.0,0.0,0.0017054739,0.0,0.0,0.0,0.0,0.0,0.0,0.0,0.0
77227776,77227170,0.0,0.0,0.0,0.17670806,0.0,0.0,0.0,0.0,0.0,0.0,0.0,0.0,0.0,0.0001200333,0.0,0.0,nan,0.0,0.0,0.0011498454,0.0,0.0,0.0,0.0,0.0,0.0,0.0,0.0
77723286,77722924,0.0,0.0,0.0,0.16531788,0.0,0.0,0.0,0.0,0.0,0.0,0.0,0.0,0.0,0.00035091265,0.0,0.0,nan,0.0,0.0,0.00023152161,0.0,0.0,0.0,0.0,0.0,0.0,0.0,0.0
78223566,78223186,0.0,0.0,0.0,0.15190761,0.0,0.0,0.0,0.0,0.0,0.0,0.0,0.0,0.0,0.00050925027,0.0,0.0,nan,0.0,0.0,0.00018454295,0.0,0.0,0.0,0.0,0.0,0.0,0.0,0.0
78729285,78728001,0.0,0.0,0.0,0.13188417,0.0,0.0,0.0,0.0,0.0,0.0,0.0,0.0,0.0,0.00027456728,0.0,0.0,nan,0.0,0.0,0.00034632237,0.0,0.0,0.0,0.0,0.0,0.0,0.0,0.0
79719942,79719513,0.0,0.0,0.0,0.10044769,0.0,0.0,0.0,0.0,0.0,0.0,0.0,0.0,0.0,0.00023276122,0.0,0.0,nan,0.0,0.0,0.00086874695,0.0,0.0,0.0,0.0,0.0,0.0,0.0,0.0
80224655,80224237,0.0,0.0,0.0,0.08960629,0.0,0.0,0.0,0.0,0.0,0.0,0.0,0.0,0.0,2.4602006e-05,0.0,0.0,nan,0.0,0.0,0.0018565353,0.0,0.0,0.0,0.0,0.0,0.0,0.0,0.0
80726197,80724500,0.0,0.0,0.0,0.0750136,0.0,0.0,0.0,0.0,0.0,0.0,0.0,0.0,0.0,0.00031710594,0.0,0.0,nan,0.0,0.0,0.005327607,0.0,0.0,0.0,0.0,0.0,0.0,0.0,0.0
81220865,81220264,0.0,0.0,0.0,0.06601548,0.0,0.0,0.0,0.0,0.0,0.0,0.0,0.0,0.0,0.00024866324,0.0,0.0,nan,0.0,0.0,0.0026909502,0.0,0.0,0.0,0.0,0.0,0.0,0.0,0.0
81730268,81729534,0.0,0.0,0.0,0.053569198,0.0,0.0,0.0,0.0,0.0,0.0,0.0,0.0,0.0,0.00029009886,0.0,0.0,nan,0.0,0.0,0.0031313347,0.0,0.0,0.0,0.0,0.0,0.0,0.0,0.0
82230256,82229798,0.0,0.0,0.0,0.046554588,0.0,0.0,0.0,0.0,0.0,0.0,0.0,0.0,0.0,0.0007833891,0.0,0.0,nan,0.0,0.0,0.0009892362,0.0,0.0,0.0,0.0,0.0,0.0,0.0,0.0
82726070,82725554,0.0,0.0,0.0,0.040073518,0.0,0.0,0.0,0.0,0.0,0.0,0.0,0.0,0.0,0.00030428788,0.0,0.0,nan,0.0,0.0,0.0026460742,0.0,0.0,0.0,0.0,0.0,0.0,0.0,0.0
83226986,83225819,0.0,0.0,0.0,0.03095334,0.0,0.0,0.0,0.0,0.0,0.0,0.0,0.0,0.0,0.00032278354,0.0,0.0,nan,0.0,0.0,0.0018301712,0.0,0.0,0.0,0.0,0.0,0.0,0.0,0.0
83722296,83721796,0.0,0.0,0.0,0.025335336,0.0,0.0,0.0,0.0,0.0,0.0,0.0,0.0,0.0,0.0002767959,0.0,0.0,nan,0.0,0.0,0.00017208654,0.0,0.0,0.0,0.0,0.0,0.0,0.0,0.0
84222514,84221841,0.0,0.0,0.0,0.017770363,0.0,0.0,0.0,0.0,0.0,0.0,0.0,0.0,0.0,0.00020848181,0.0,0.0,nan,0.0,0.0,2.1152118e-05,0.0,0.0,0.0,0.0,0.0,0.0,0.0,0.0
84726990,84726613,0.0,0.0,0.0,0.013593483,0.0,0.0,0.0,0.0,0.0,0.0,0.0,0.0,0.0,0.00066990237,0.0,0.0,nan,0.0,0.0,0.00019369752,0.0,0.0,0.0,0.0,0.0,0.0,0.0,0.0
85223617,85222370,0.0,0.0,0.0,0.008750259,0.0,0.0,0.0,0.0,0.0,0.0,0.0,0.0,0.0,2.8300421e-06,0.0,0.0,nan,0.0,0.0,0.00032329126,0.0,0.0,0.0,0.0,0.0,0.0,0.0,0.0
85728435,85727395,0.0,0.0,0.0,0.006163406,0.0,0.0,0.0,0.0,0.0,0.0,0.0,0.0,0.0,7.3186225e-06,0.0,0.0,nan,0.0,0.0,0.001332012,0.0,0.0,0.0,0.0,0.0,0.0,0.0,0.0
86228195,86227410,0.0,0.0,0.0,0.0041382653,0.0,0.0,0.0,0.0,0.0,0.0,0.0,0.0,0.0,1.0269629e-06,0.0,0.0,nan,0.0,0.0,1.4584976e-05,0.0,0.0,0.0,0.0,0.0,0.0,0.0,0.0
86723768,86723325,0.0,0.0,0.0,0.0021225489,0.0,0.0,0.0,0.0,0.0,0.0,0.0,0.0,0.0,1.3954216e-06,0.0,0.0,nan,0.0,0.0,0.00032563528,0.0,0.0,0.0,0.0,0.0,0.0,0.0,0.0
87728584,87728204,0.0,0.0,0.0,0.0027873924,0.0,0.0,0.0,0.0,0.0,0.0,0.0,0.0,0.0,4.6730496e-05,0.0,0.0,nan,0.0,0.0,0.004528724,0.0,0.0,0.0,0.0,0.0,0.0,0.0,0.0
88229975,88228487,0.0,0.0,0.0,0.0030799017,0.0,0.0,0.0,0.0,0.0,0.0,0.0,0.0,0.0,6.4003936e-05,0.0,0.0,nan,0.0,0.0,0.0015713201,0.0,0.0,0.0,0.0,0.0,0.0,0.0,0.0
88724735,88724229,0.0,0.0,0.0,0.0033756266,0.0,0.0,0.0,0.0,0.0,0.0,0.0,0.0,0.0,6.478135e-06,0.0,0.0,nan,0.0,0.0,0.0019746346,0.0,0.0,0.0,0.0,0.0,0.0,0.0,0.0
89229704,89229047,0.0,0.0,0.0,0.0036416454,0.0,0.0,0.0,0.0,0.0,0.0,0.0,0.0,0.0,2.8642027e-05,0.0,0.0,nan,0.0,0.0,0.003924499,0.0,0.0,0.0,0.0,0.0,0.0,0.0,0.0
89725426,89724917,0.0,0.0,0.0,0.0037970874,0.0,0.0,0.0,0.0,0.0,0.0,0.0,0.0,0.0,1.7525342e-07,0.0,0.0,nan,0.0,0.0,0.017025098,0.0,0.0,0.0,0.0,0.0,0.0,0.0,0.0
90225832,90225027,0.0,0.0,0.0,0.004019739,0.0,0.0,0.0,0.0,0.0,0.0,0.0,0.0,0.0,1.3935403e-05,0.0,0.0,nan,0.0,0.0,0.0115650585,0.0,0.0,0.0,0.0,0.0,0.0,0.0,0.0
90721282,90720846,0.0,0.0,0.0,0.0041911853,0.0,0.0,0.0,0.0,0.0,0.0,0.0,0.0,0.0,6.346009e-06,0.0,0.0,nan,0.0,0.0,0.025706261,0.0,0.0,0.0,0.0,0.0,0.0,0.0,0.0
91221834,91221367,0.0,0.0,0.0,0.0041138106,0.0,0.0,0.0,0.0,0.0,0.0,0.0,0.0,0.0,0.00015959147,0.0,0.0,nan,0.0,0.0,0.030373974,0.0,0.0,0.0,0.0,0.0,0.0,0.0,0.0
91721868,91721321,0.0,0.0,0.0,0.003890251,0.0,0.0,0.0,0.0,0.0,0.0,0.0,0.0,0.0,8.388203e-06,0.0,0.0,nan,0.0,0.0,0.0412949,0.0,0.0,0.0,0.0,0.0,0.0,0.0,0.0
92220471,92217255,0.0,0.0,0.0,0.004997575,0.0,0.0,0.0,0.0,0.0,0.0,0.0,0.0,0.0,1.3022768e-05,0.0,0.0,nan,0.0,0.0,0.0,0.1327989,0.0,0.0,0.0,0.0,0.0,0.0,0.0
92728827,92726461,0.0,0.0,0.0,0.009565047,0.0,0.0,0.0,0.0,0.0,0.0,0.0,0.0,0.0,1.8516766e-05,0.0,0.0,nan,0.0,0.0,0.0,0.12868157,0.0,0.0,0.0,0.0,0.0,0.0,0.0
93228807,93226630,0.0,0.0,0.0,0.016535474,0.0,0.0,0.0,0.0,0.0,0.0,0.0,0.0,0.0,3.5040634e-05,0.0,0.0,nan,0.0,0.0,0.0,0.10996349,0.0,0.0,0.0,0.0,0.0,0.0,0.0
93727500,93726898,0.0,0.0,0.0,0.026871098,0.0,0.0,0.0,0.0,0.0,0.0,0.0,0.0,0.0,3.78507e-05,0.0,0.0,nan,0.0,0.0,0.0,0.10777163,0.0,0.0,0.0,0.0,0.0,0.0,0.0
94231814,94227166,0.0,0.0,0.0,0.032828264,0.0,0.0,0.0,0.0,0.0,0.0,0.0,0.0,0.0,2.3024399e-05,0.0,0.0,nan,0.0,0.0,0.0,0.07290918,0.0,0.0,0.0,0.0,0.0,0.0,0.0
94723806,94722927,0.0,0.0,0.0,0.042575173,0.0,0.0,0.0,0.0,0.0,0.0,0.0,0.0,0.0,1.12014695e-05,0.0,0.0,nan,0.0,0.0,0.0,0.11976647,0.0,0.0,0.0,0.0,0.0,0.0,0.0
95219214,95218840,0.0,0.0,0.0,0.048264038,0.0,0.0,0.0,0.0,0.0,0.0,0.0,0.0,0.0,1.22552265e-05,0.0,0.0,nan,0.0,0.0,0.0,0.09717545,0.0,0.0,0.0,0.0,0.0,0.0,0.0
95730155,95728050,0.0,0.0,0.0,0.05084052,0.0,0.0,0.0,0.0,0.0,0.0,0.0,0.0,0.0,3.26277e-08,0.0,0.0,nan,0.0,0.0,0.0,0.022906583,0.0,0.0,0.0,0.0,0.0,0.0,0.0
96229105,96228241,0.0,0.0,0.0,0.049947657,0.0,0.0,0.0,0.0,0.0,0.0,0.0,0.0,0.0,6.131059e-07,0.0,0.0,nan,0.0,0.0,0.0,0.03944259,0.0,0.0,0.0,0.0,0.0,0.0,0.0
96724393,96724000,0.0,0.0,0.0,0.051866885,0.0,0.0,0.0,0.0,0.0,0.0,0.0,0.0,0.0,0.0001962419,0.0,0.0,nan,0.0,0.0,0.0,0.039016515,0.0,0.0,0.0,0.0,0.0,0.0,0.0
97225103,97224475,0.0,0.0,0.0,0.057271395,0.0,0.0,0.0,0.0,0.0,0.0,0.0,0.0,0.0,5.9883103e-05,0.0,0.0,nan,0.0,0.0,0.0,0.039549965,0.0,0.0,0.0,0.0,0.0,0.0,0.0
97726755,97724585,0.0,0.0,0.0,0.059700828,0.0,0.0,0.0,0.0,0.0,0.0,0.0,0.0,0.0,5.2163286e-05,0.0,0.0,nan,0.0,0.0,0.0,0.016414594,0.0,0.0,0.0,0.0,0.0,0.0,0.0
98220984,98220440,0.0,0.0,0.0,0.061089773,0.0,0.0,0.0,0.0,0.0,0.0,0.0,0.0,0.0,0.0001284447,0.0,0.0,nan,0.0,0.0,0.0033130837,0.0,0.0,0.0,0.0,0.0,0.0,0.0,0.0
98721287,98720572,0.0,0.0,0.0,0.06388694,0.0,0.0,0.0,0.0,0.0,0.0,0.0,0.0,0.0,9.650912e-06,0.0,0.0,nan,0.0,0.0,0.0010823817,0.0,0.0,0.0,0.0,0.0,0.0,0.0,0.0
99225720,99225350,0.0,0.0,0.0,0.0702799,0.0,0.0,0.0,0.0,0.0,0.0,0.0,0.0,0.0,0.00018155221,0.0,0.0,nan,0.0,0.0,0.00667865,0.0,0.0,0.0,0.0,0.0,0.0,0.0,0.0
99717224,99716857,0.0,0.0,0.0,0.075746305,0.0,0.0,0.0,0.0,0.0,0.0,0.0,0.0,0.0,8.452407e-06,0.0,0.0,nan,0.0,0.0,0.0043933783,0.0,0.0,0.0,0.0,0.0,0.0,0.0,0.0
100226541,100226067,0.0,0.0,0.0,0.08045587,0.0,0.0,0.0,0.0,0.0,0.0,0.0,0.0,0.0,5.1253214e-06,0.0,0.0,nan,0.0,0.0,0.006257949,0.0,0.0,0.0,0.0,0.0,0.0,0.0,0.0
100731179,100730666,0.0,0.0,0.0,0.08657547,0.0,0.0,0.0,0.0,0.0,0.0,0.0,0.0,0.0,1.2703725e-05,0.0,0.0,nan,0.0,0.0,6.798767e-05,0.0,0.0,0.0,0.0,0.0,0.0,0.0,0.0
101222390,101222019,0.0,0.0,0.0,0.088608325,0.0,0.0,0.0,0.0,0.0,0.0,0.0,0.0,0.0,7.492427e-09,0.0,0.0,nan,0.0,0.0,0.00019576124,0.0,0.0,0.0,0.0,0.0,0.0,0.0,0.0
101727191,101726700,0.0,0.0,0.0,0.09113614,0.0,0.0,0.0,0.0,0.0,0.0,0.0,0.0,0.0,0.0002444454,0.0,0.0,nan,0.0,0.0,0.0003528135,0.0,0.0,0.0,0.0,0.0,0.0,0.0,0.0
102223197,102222463,0.0,0.0,0.0,0.09133934,0.0,0.0,0.0,0.0,0.0,0.0,0.0,0.0,0.0,3.3386335e-05,0.0,0.0,nan,0.0,0.0,1.9265439e-05,0.0,0.0,0.0,0.0,0.0,0.0,0.0,0.0
102719016,102718454,0.0,0.0,0.0,0.08886507,0.0,0.0,0.0,0.0,0.0,0.0,0.0,0.0,0.0,4.3926984e-06,0.0,0.0,nan,0.0,0.0,0.00029531462,0.0,0.0,0.0,0.0,0.0,0.0,0.0,0.0
103228246,103227683,0.0,0.0,0.0,0.08780711,0.0,0.0,0.0,0.0,0.0,0.0,0.0,0.0,0.0,8.151211e-06,0.0,0.0,nan,0.0,0.0,0.0009620507,0.0,0.0,0.0,0.0,0.0,0.0,0.0,0.0
103728357,103727785,0.0,0.0,0.0,0.08574246,0.0,0.0,0.0,0.0,0.0,0.0,0.0,0.0,0.0,3.7172767e-06,0.0,0.0,nan,0.0,0.0,0.00011437161,0.0,0.0,0.0,0.0,0.0,0.0,0.0,0.0
104224430,104223636,0.0,0.0,0.0,0.08122148,0.0,0.0,0.0,0.0,0.0,0.0,0.0,0.0,0.0,0.00011202573,0.0,0.0,nan,0.0,0.0,0.00038117648,0.0,0.0,0.0,0.0,0.0,0.0,0.0,0.0
104729176,104728330,0.0,0.0,0.0,0.07849485,0.0,0.0,0.0,0.0,0.0,0.0,0.0,0.0,0.0,2.6149219e-05,0.0,0.0,nan,0.0,0.0,0.0013211713,0.0,0.0,0.0,0.0,0.0,0.0,0.0,0.0
105224806,105224092,0.0,0.0,0.0,0.07427836,0.0,0.0,0.0,0.0,0.0,0.0,0.0,0.0,0.0,3.136282e-05,0.0,0.0,nan,0.0,0.0,0.00044870828,0.0,0.0,0.0,0.0,0.0,0.0,0.0,0.0
105720491,105720105,0.0,0.0,0.0,0.069996454,0.0,0.0,0.0,0.0,0.0,0.0,0.0,0.0,0.0,0.00021003697,0.0,0.0,nan,0.0,0.0,0.001175527,0.0,0.0,0.0,0.0,0.0,0.0,0.0,0.0
106229853,106229275,0.0,0.0,0.0,0.06299924,0.0,0.0,0.0,0.0,0.0,0.0,0.0,0.0,0.0,2.3073271e-05,0.0,0.0,nan,0.0,0.0,0.00040179113,0.0,0.0,0.0,0.0,0.0,0.0,0.0,0.0
106730259,106729414,0.0,0.0,0.0,0.05825509,0.0,0.0,0.0,0.0,0.0,0.0,0.0,0.0,0.0,0.00012615733,0.0,0.0,nan,0.0,0.0,1.5979533e-05,0.0,0.0,0.0,0.0,0.0,0.0,0.0,0.0
107225874,107225244,0.0,0.0,0.0,0.05287863,0.0,0.0,0.0,0.0,0.0,0.0,0.0,0.0,0.0,2.0982905e-05,0.0,0.0,nan,0.0,0.0,6.480628e-05,0.0,0.0,0.0,0.0,0.0,0.0,0.0,0.0
107730435,107730005,0.0,0.0,0.0,0.04488491,0.0,0.0,0.0,0.0,0.0,0.0,0.0,0.0,0.0,2.666244e-05,0.0,0.0,nan,0.0,0.0,7.267236e-08,0.0,0.0,0.0,0.0,0.0,0.0,0.0,0.0
108221636,108221215,0.0,0.0,0.0,0.03975076,0.0,0.0,0.0,0.0,0.0,0.0,0.0,0.0,0.0,5.1543143e-09,0.0,0.0,nan,0.0,0.0,0.00021043041,0.0,0.0,0.0,0.0,0.0,0.0,0.0,0.0
108722497,108721694,0.0,0.0,0.0,0.03242954,0.0,0.0,0.0,0.0,0.0,0.0,0.0,0.0,0.0,4.025726e-06,0.0,0.0,nan,0.0,0.0,0.004737995,0.0,0.0,0.0,0.0,0.0,0.0,0.0,0.0
109222608,109221764,0.0,0.0,0.0,0.028500823,0.0,0.0,0.0,0.0,0.0,0.0,0.0,0.0,0.0,0.00013406026,0.0,0.0,nan,0.0,0.0,0.0038330364,0.0,0.0,0.0,0.0,0.0,0.0,0.0,0.0
109726983,109726602,0.0,0.0,0.0,0.023229528,0.0,0.0,0.0,0.0,0.0,0.0,0.0,0.0,0.0,0.00022117855,0.0,0.0,nan,0.0,0.0,0.0071929987,0.0,0.0,0.0,0.0,0.0,0.0,0.0,0.0
110222808,110222310,0.0,0.0,0.0,0.020192532,0.0,0.0,0.0,0.0,0.0,0.0,0.0,0.0,0.0,3.084252e-05,0.0,0.0,nan,0.0,0.0,0.0038262296,0.0,0.0,0.0,0.0,0.0,0.0,0.0,0.0
110727866,110727357,0.0,0.0,0.0,0.016612152,0.0,0.0,0.0,0.0,0.0,0.0,0.0,0.0,0.0,3.2477463e-05,0.0,0.0,nan,0.0,0.0,0.000575871,0.0,0.0,0.0,0.0,0.0,0.0,0.0,0.0
111228518,111227365,0.0,0.0,0.0,0.014289105,0.0,0.0,0.0,0.0,0.0,0.0,0.0,0.0,0.0,7.380259e-05,0.0,0.0,nan,0.0,0.0,0.009450208,0.0,0.0,0.0,0.0,0.0,0.0,0.0,0.0
111723987,111723312,0.0,0.0,0.0,0.0102796815,0.0,0.0,0.0,0.0,0.0,0.0,0.0,0.0,0.0,7.982387e-05,0.0,0.0,nan,0.0,0.0,0.014895348,0.0,0.0,0.0,0.0,0.0,0.0,0.0,0.0
112224075,112223409,0.0,0.0,0.0,0.007628638,0.0,0.0,0.0,0.0,0.0,0.0,0.0,0.0,0.0,2.3154016e-06,0.0,0.0,nan,0.0,0.0,0.016341561,0.0,0.0,0.0,0.0,0.0,0.0,0.0,0.0
112728604,112728188,0.0,0.0,0.0,0.005692775,0.0,0.0,0.0,0.0,0.0,0.0,0.0,0.0,0.0,0.00069642265,0.0,0.0,nan,0.0,0.0,0.014287258,0.0,0.0,0.0,0.0,0.0,0.0,0.0,0.0
113224578,113223955,0.0,0.0,0.0,0.06263092,0.0,0.0,0.0,0.0,0.0,0.0,0.0,0.0,0.0,0.0005534048,0.0,0.0,nan,0.0,0.0,0.05601875,0.0,0.0,0.0,0.0,0.0,0.0,0.0,0.0
113724734,113724277,0.0,0.0,0.0,0.0081768045,0.0,0.0,0.0,0.0,0.0,0.0,0.0,0.0,0.0,0.0004193895,0.0,0.0,nan,0.0,0.0,0.053062223,0.0,0.0,0.0,0.0,0.0,0.0,0.0,0.0
