timestamp,voltage_v,voltage_filtered_v,current_a,current_filtered_a,average_current_a,discharged_mah,remaining,scale,temperature,cell_count,voltage_cell_v[0],voltage_cell_v[1],voltage_cell_v[2],voltage_cell_v[3],voltage_cell_v[4],voltage_cell_v[5],voltage_cell_v[6],voltage_cell_v[7],voltage_cell_v[8],voltage_cell_v[9],max_cell_voltage_delta,capacity,cycle_count,run_time_to_empty,average_time_to_empty,serial_number,manufacture_date,state_of_health,max_error,interface_error,connected,source,priority,id,is_powering_off,warning
22530540,24.294477,24.85372,5.1568,3.2833176,0.0,1.3280846,1.0,1.0,nan,4,6.21343,6.21343,6.21343,6.21343,0.0,0.0,0.0,0.0,0.0,0.0,0.0,0,0,0,0,0,0,0,0,0,1,0,0,1,0,0
22820490,24.36739,24.779438,5.3619,4.083221,0.0,1.7416344,1.0,1.0,nan,4,6.1948595,6.1948595,6.1948595,6.1948595,0.0,0.0,0.0,0.0,0.0,0.0,0.0,0,0,0,0,0,0,0,0,0,1,0,0,1,0,0
23120589,24.090322,24.665342,17.5507,7.350856,0.0,2.61869,1.0,1.0,nan,4,6.1663356,6.1663356,6.1663356,6.1663356,0.0,0.0,0.0,0.0,0.0,0.0,0.0,0,0,0,0,0,0,0,0,0,1,0,0,1,0,0
23430667,23.886168,24.483608,20.949501,12.584748,0.0,4.2175584,1.0,1.0,nan,4,6.120902,6.120902,6.120902,6.120902,0.0,0.0,0.0,0.0,0.0,0.0,0.0,0,0,0,0,0,0,0,0,0,1,0,0,1,0,0
23720537,23.72576,24.31508,20.4807,15.954477,0.0,5.852051,1.0,1.0,nan,4,6.07877,6.07877,6.07877,6.07877,0.0,0.0,0.0,0.0,0.0,0.0,0.0,0,0,0,0,0,0,0,0,0,1,0,0,1,0,0
24020578,23.929914,24.200657,16.9647,17.448425,0.0,7.468663,1.0,1.0,nan,4,6.050164,6.050164,6.050164,6.050164,0.0,0.0,0.0,0.0,0.0,0.0,0.0,0,0,0,0,0,0,0,0,0,1,0,0,1,0,0
24320489,23.536186,24.140944,18.0195,17.805101,0.0,8.976635,1.0,1.0,nan,4,6.035236,6.035236,6.035236,6.035236,0.0,0.0,0.0,0.0,0.0,0.0,0.0,0,0,0,0,0,0,0,0,0,1,0,0,1,0,0
24630893,24.090322,24.035923,24.3776,19.863794,0.0,10.872211,1.0,1.0,nan,4,6.0089808,6.0089808,6.0089808,6.0089808,0.0,0.0,0.0,0.0,0.0,0.0,0.0,0,0,0,0,0,0,0,0,0,1,0,0,1,0,0
24920517,23.68201,23.914106,24.8464,21.719807,0.0,12.809609,1.0,1.0,nan,4,5.9785266,5.9785266,5.9785266,5.9785266,0.0,0.0,0.0,0.0,0.0,0.0,0.0,0,0,0,0,0,0,0,0,0,1,0,0,1,0,0
25530900,23.90075,23.807652,19.8068,20.797016,0.0,16.346071,1.0,1.0,nan,4,5.951913,5.951913,5.951913,5.951913,0.0,0.0,0.0,0.0,0.0,0.0,0.0,0,0,0,0,0,0,0,0,0,1,0,0,1,0,0
25820524,22.763313,23.796934,20.949501,20.281633,0.0,17.921824,1.0,1.0,nan,4,5.9492335,5.9492335,5.9492335,5.9492335,0.0,0.0,0.0,0.0,0.0,0.0,0.0,0,0,0,0,0,0,0,0,0,1,0,0,1,0,0
26121116,23.784088,23.73526,22.0336,20.57364,0.0,19.667921,1.0,1.0,nan,4,5.933815,5.933815,5.933815,5.933815,0.0,0.0,0.0,0.0,0.0,0.0,0.0,0,0,0,0,0,0,0,0,0,1,0,0,1,0,0
26420490,23.769506,23.712387,22.8833,21.132889,0.0,21.47659,1.0,1.0,nan,4,5.928097,5.928097,5.928097,5.928097,0.0,0.0,0.0,0.0,0.0,0.0,0.0,0,0,0,0,0,0,0,0,0,1,0,0,1,0,0
26720519,23.507023,23.677265,23.2642,21.855328,0.0,23.36378,1.0,1.0,nan,4,5.9193163,5.9193163,5.9193163,5.9193163,0.0,0.0,0.0,0.0,0.0,0.0,0.0,0,0,0,0,0,0,0,0,0,1,0,0,1,0,0
27020496,23.332031,23.671322,20.6272,21.595251,0.0,25.14284,1.0,1.0,nan,4,5.9178305,5.9178305,5.9178305,5.9178305,0.0,0.0,0.0,0.0,0.0,0.0,0.0,0,0,0,0,0,0,0,0,0,1,0,0,1,0,0
27320544,23.43411,23.647102,19.7482,21.18738,0.0,26.86731,1.0,1.0,nan,4,5.9117756,5.9117756,5.9117756,5.9117756,0.0,0.0,0.0,0.0,0.0,0.0,0.0,0,0,0,0,0,0,0,0,0,1,0,0,1,0,0
27631245,23.404943,23.621304,21.183899,21.196886,0.0,28.693056,1.0,1.0,nan,4,5.905326,5.905326,5.905326,5.905326,0.0,0.0,0.0,0.0,0.0,0.0,0.0,0,0,0,0,0,0,0,0,0,1,0,0,1,0,0
27920878,22.98205,23.568733,19.396599,21.135143,0.0,30.388601,1.0,1.0,nan,4,5.8921833,5.8921833,5.8921833,5.8921833,0.0,0.0,0.0,0.0,0.0,0.0,0.0,0,0,0,0,0,0,0,0,0,1,0,0,1,0,0
28520519,23.68201,23.583921,22.9126,21.064093,0.0,33.87283,1.0,1.0,nan,4,5.8959804,5.8959804,5.8959804,5.8959804,0.0,0.0,0.0,0.0,0.0,0.0,0.0,0,0,0,0,0,0,0,0,0,1,0,0,1,0,0
28830548,23.477858,23.550056,24.1432,22.142109,0.0,35.879997,1.0,1.0,nan,4,5.887514,5.887514,5.887514,5.887514,0.0,0.0,0.0,0.0,0.0,0.0,0.0,0,0,0,0,0,0,0,0,0,1,0,0,1,0,0
29120698,24.031992,23.521496,23.5865,22.786156,0.0,37.789093,1.0,1.0,nan,4,5.880374,5.880374,5.880374,5.880374,0.0,0.0,0.0,0.0,0.0,0.0,0.0,0,0,0,0,0,0,0,0,0,1,0,0,1,0,0
29420505,23.711176,23.48366,21.7992,22.83894,0.0,39.69896,1.0,1.0,nan,4,5.870915,5.870915,5.870915,5.870915,0.0,0.0,0.0,0.0,0.0,0.0,0.0,0,0,0,0,0,0,0,0,0,1,0,0,1,0,0
29720488,23.507023,23.468397,21.154598,21.888466,0.0,41.424503,1.0,1.0,nan,4,5.8670993,5.8670993,5.8670993,5.8670993,0.0,0.0,0.0,0.0,0.0,0.0,0.0,0,0,0,0,0,0,0,0,0,1,0,0,1,0,0
30030542,23.740341,23.481148,22.4438,21.635433,0.0,43.25623,1.0,1.0,nan,4,5.870287,5.870287,5.870287,5.870287,0.0,0.0,0.0,0.0,0.0,0.0,0.0,0,0,0,0,0,0,0,0,0,1,0,0,1,0,0
30320491,23.507023,23.459888,22.1508,21.884897,0.0,45.0455,1.0,1.0,nan,4,5.864972,5.864972,5.864972,5.864972,0.0,0.0,0.0,0.0,0.0,0.0,0.0,0,0,0,0,0,0,0,0,0,1,0,0,1,0,0
30620883,23.988245,23.458366,21.5648,21.631264,0.0,46.821636,1.0,1.0,nan,4,5.8645916,5.8645916,5.8645916,5.8645916,0.0,0.0,0.0,0.0,0.0,0.0,0.0,0,0,0,0,0,0,0,0,0,1,0,0,1,0,0
30930613,23.55077,23.47449,19.9533,20.938152,0.0,48.555367,1.0,1.0,nan,4,5.8686223,5.8686223,5.8686223,5.8686223,0.0,0.0,0.0,0.0,0.0,0.0,0.0,0,0,0,0,0,0,0,0,0,1,0,0,1,0,0
31531775,23.638264,23.47236,21.154598,20.584656,0.0,51.95083,1.0,1.0,nan,4,5.86809,5.86809,5.86809,5.86809,0.0,0.0,0.0,0.0,0.0,0.0,0.0,0,0,0,0,0,0,0,0,0,1,0,0,1,0,0
31831367,23.49244,23.437967,23.0298,20.961292,0.0,53.72679,1.0,1.0,nan,4,5.859492,5.859492,5.859492,5.859492,0.0,0.0,0.0,0.0,0.0,0.0,0.0,0,0,0,0,0,0,0,0,0,1,0,0,1,0,0
32130847,23.72576,23.418509,24.4655,22.036259,0.0,55.665974,1.0,1.0,nan,4,5.854627,5.854627,5.854627,5.854627,0.0,0.0,0.0,0.0,0.0,0.0,0.0,0,0,0,0,0,0,0,0,0,1,0,0,1,0,0
32432140,23.186207,23.379871,23.147,22.841694,0.0,57.663532,1.0,1.0,nan,4,5.844968,5.844968,5.844968,5.844968,0.0,0.0,0.0,0.0,0.0,0.0,0.0,0,0,0,0,0,0,0,0,0,1,0,0,1,0,0
32720488,23.84242,23.344952,20.3635,22.410357,0.0,59.42702,1.0,1.0,nan,4,5.836238,5.836238,5.836238,5.836238,0.0,0.0,0.0,0.0,0.0,0.0,0.0,0,0,0,0,0,0,0,0,0,1,0,0,1,0,0
33031456,23.594517,23.374628,20.8909,21.416405,0.0,61.173805,1.0,1.0,nan,4,5.843657,5.843657,5.843657,5.843657,0.0,0.0,0.0,0.0,0.0,0.0,0.0,0,0,0,0,0,0,0,0,0,1,0,0,1,0,0
33320488,23.55077,23.385345,22.0336,21.178665,0.0,62.843094,1.0,1.0,nan,4,5.8463364,5.8463364,5.8463364,5.8463364,0.0,0.0,0.0,0.0,0.0,0.0,0.0,0,0,0,0,0,0,0,0,0,1,0,0,1,0,0
33620512,23.594517,23.376663,21.857801,21.215836,0.0,64.61545,1.0,1.0,nan,4,5.844166,5.844166,5.844166,5.844166,0.0,0.0,0.0,0.0,0.0,0.0,0.0,0,0,0,0,0,0,0,0,0,1,0,0,1,0,0
33931127,22.777897,23.372965,19.660301,21.121058,0.0,66.42791,1.0,1.0,nan,4,5.843241,5.843241,5.843241,5.843241,0.0,0.0,0.0,0.0,0.0,0.0,0.0,0,0,0,0,0,0,0,0,0,1,0,0,1,0,0
34521903,23.579935,23.396898,20.6272,20.885088,0.0,69.838875,1.0,1.0,nan,4,5.8492246,5.8492246,5.8492246,5.8492246,0.0,0.0,0.0,0.0,0.0,0.0,0.0,0,0,0,0,0,0,0,0,0,1,0,0,1,0,0
34821348,23.623682,23.397831,20.422098,20.166838,0.0,71.44294,1.0,1.0,nan,4,5.8494577,5.8494577,5.8494577,5.8494577,0.0,0.0,0.0,0.0,0.0,0.0,0.0,0,0,0,0,0,0,0,0,0,1,0,0,1,0,0
35130529,23.72576,23.41241,18.8985,19.720425,0.0,73.09235,1.0,1.0,nan,4,5.8531027,5.8531027,5.8531027,5.8531027,0.0,0.0,0.0,0.0,0.0,0.0,0.0,0,0,0,0,0,0,0,0,0,1,0,0,1,0,0
35420515,22.209177,23.415188,21.096,20.202444,0.0,74.751884,1.0,1.0,nan,4,5.853797,5.853797,5.853797,5.853797,0.0,0.0,0.0,0.0,0.0,0.0,0.0,0,0,0,0,0,0,0,0,0,1,0,0,1,0,0
36020664,22.821644,23.369488,20.597898,21.50348,0.0,78.4505,1.0,1.0,nan,4,5.842372,5.842372,5.842372,5.842372,0.0,0.0,0.0,0.0,0.0,0.0,0.0,0,0,0,0,0,0,0,0,0,1,0,0,1,0,0
36330539,23.696594,23.360296,22.3266,21.683558,0.0,80.33452,1.0,1.0,nan,4,5.840074,5.840074,5.840074,5.840074,0.0,0.0,0.0,0.0,0.0,0.0,0.0,0,0,0,0,0,0,0,0,0,1,0,0,1,0,0
36620487,23.025797,23.334372,20.861599,21.733166,0.0,82.09197,1.0,1.0,nan,4,5.833593,5.833593,5.833593,5.833593,0.0,0.0,0.0,0.0,0.0,0.0,0.0,0,0,0,0,0,0,0,0,0,1,0,0,1,0,0
36921078,23.054962,23.334255,22.414501,21.694315,0.0,83.896576,1.0,1.0,nan,4,5.833564,5.833564,5.833564,5.833564,0.0,0.0,0.0,0.0,0.0,0.0,0.0,0,0,0,0,0,0,0,0,0,1,0,0,1,0,0
37520668,23.113295,23.347857,19.865398,21.34346,0.0,87.4559,1.0,1.0,nan,4,5.836964,5.836964,5.836964,5.836964,0.0,0.0,0.0,0.0,0.0,0.0,0.0,0,0,0,0,0,0,0,0,0,1,0,0,1,0,0
37820516,22.86539,23.345736,20.3049,21.077526,0.0,89.1842,1.0,1.0,nan,4,5.836434,5.836434,5.836434,5.836434,0.0,0.0,0.0,0.0,0.0,0.0,0.0,0,0,0,0,0,0,0,0,0,1,0,0,1,0,0
38120624,23.477858,23.347252,21.2132,21.033182,0.0,90.936775,1.0,1.0,nan,4,5.836813,5.836813,5.836813,5.836813,0.0,0.0,0.0,0.0,0.0,0.0,0.0,0,0,0,0,0,0,0,0,0,1,0,0,1,0,0
38430489,23.463274,23.33985,21.008099,20.834303,0.0,92.70695,1.0,1.0,nan,4,5.8349624,5.8349624,5.8349624,5.8349624,0.0,0.0,0.0,0.0,0.0,0.0,0.0,0,0,0,0,0,0,0,0,0,1,0,0,1,0,0
39021479,23.375778,23.280817,22.1215,22.183859,0.0,96.43382,1.0,1.0,nan,4,5.8202043,5.8202043,5.8202043,5.8202043,0.0,0.0,0.0,0.0,0.0,0.0,0.0,0,0,0,0,0,0,0,0,0,1,0,0,1,0,0
39330499,23.332031,23.221378,25.1101,22.906586,0.0,98.45964,1.0,1.0,nan,4,5.8053446,5.8053446,5.8053446,5.8053446,0.0,0.0,0.0,0.0,0.0,0.0,0.0,0,0,0,0,0,0,0,0,0,1,0,0,1,0,0
39620574,23.215372,23.196772,21.154598,22.942154,0.0,100.32432,1.0,1.0,nan,4,5.799193,5.799193,5.799193,5.799193,0.0,0.0,0.0,0.0,0.0,0.0,0.0,0,0,0,0,0,0,0,0,0,1,0,0,1,0,0
39923013,23.507023,23.208794,21.975,22.515383,0.0,102.17122,1.0,1.0,nan,4,5.8021984,5.8021984,5.8021984,5.8021984,0.0,0.0,0.0,0.0,0.0,0.0,0.0,0,0,0,0,0,0,0,0,0,1,0,0,1,0,0
40532180,23.186207,23.233768,19.543098,21.315691,0.0,105.726524,1.0,1.0,nan,4,5.808442,5.808442,5.808442,5.808442,0.0,0.0,0.0,0.0,0.0,0.0,0.0,0,0,0,0,0,0,0,0,0,1,0,0,1,0,0
40820495,23.463274,23.251314,20.7151,20.764147,0.0,107.33316,1.0,1.0,nan,4,5.8128285,5.8128285,5.8128285,5.8128285,0.0,0.0,0.0,0.0,0.0,0.0,0.0,0,0,0,0,0,0,0,0,0,1,0,0,1,0,0
41130796,22.821644,23.25324,20.392801,20.980206,0.0,109.15472,1.0,1.0,nan,4,5.81331,5.81331,5.81331,5.81331,0.0,0.0,0.0,0.0,0.0,0.0,0.0,0,0,0,0,0,0,0,0,0,1,0,0,1,0,0
41432501,23.813255,23.242867,23.4107,21.921978,0.0,111.08301,1.0,1.0,nan,4,5.8107166,5.8107166,5.8107166,5.8107166,0.0,0.0,0.0,0.0,0.0,0.0,0.0,0,0,0,0,0,0,0,0,0,1,0,0,1,0,0
41732078,22.996634,23.238115,22.004301,22.227812,0.0,112.96559,1.0,1.0,nan,4,5.809529,5.809529,5.809529,5.809529,0.0,0.0,0.0,0.0,0.0,0.0,0.0,0,0,0,0,0,0,0,0,0,1,0,0,1,0,0
42022835,23.55077,23.22654,22.2973,21.702162,0.0,114.66634,1.0,1.0,nan,4,5.806635,5.806635,5.806635,5.806635,0.0,0.0,0.0,0.0,0.0,0.0,0.0,0,0,0,0,0,0,0,0,0,1,0,0,1,0,0
42320494,23.404943,23.210897,22.1508,21.636595,0.0,116.44887,1.0,1.0,nan,4,5.8027244,5.8027244,5.8027244,5.8027244,0.0,0.0,0.0,0.0,0.0,0.0,0.0,0,0,0,0,0,0,0,0,0,1,0,0,1,0,0
42630767,23.988245,23.210638,20.51,21.21756,0.0,118.23925,1.0,1.0,nan,4,5.8026595,5.8026595,5.8026595,5.8026595,0.0,0.0,0.0,0.0,0.0,0.0,0.0,0,0,0,0,0,0,0,0,0,1,0,0,1,0,0
42923418,22.777897,23.218105,19.543098,20.898907,0.0,119.90596,1.0,1.0,nan,4,5.8045263,5.8045263,5.8045263,5.8045263,0.0,0.0,0.0,0.0,0.0,0.0,0.0,0,0,0,0,0,0,0,0,0,1,0,0,1,0,0
43222712,23.157042,23.240707,22.4438,21.08991,0.0,121.67521,1.0,1.0,nan,4,5.810177,5.810177,5.810177,5.810177,0.0,0.0,0.0,0.0,0.0,0.0,0.0,0,0,0,0,0,0,0,0,0,1,0,0,1,0,0
43530495,22.777897,23.223192,22.6489,22.18042,0.0,123.68149,1.0,1.0,nan,4,5.805798,5.805798,5.805798,5.805798,0.0,0.0,0.0,0.0,0.0,0.0,0.0,0,0,0,0,0,0,0,0,0,1,0,0,1,0,0
43821743,23.186207,23.19051,22.9419,22.909035,0.0,125.611534,1.0,1.0,nan,4,5.7976274,5.7976274,5.7976274,5.7976274,0.0,0.0,0.0,0.0,0.0,0.0,0.0,0,0,0,0,0,0,0,0,0,1,0,0,1,0,0
44121318,23.507023,23.186922,21.3011,22.443624,0.0,127.438324,1.0,1.0,nan,4,5.7967305,5.7967305,5.7967305,5.7967305,0.0,0.0,0.0,0.0,0.0,0.0,0.0,0,0,0,0,0,0,0,0,0,1,0,0,1,0,0
44420491,23.215372,23.210232,18.927801,21.46826,0.0,129.13489,1.0,1.0,nan,4,5.802558,5.802558,5.802558,5.802558,0.0,0.0,0.0,0.0,0.0,0.0,0.0,0,0,0,0,0,0,0,0,0,1,0,0,1,0,0
44732972,23.740341,23.240862,19.8068,20.561949,0.0,130.82791,1.0,1.0,nan,4,5.8102155,5.8102155,5.8102155,5.8102155,0.0,0.0,0.0,0.0,0.0,0.0,0.0,0,0,0,0,0,0,0,0,0,1,0,0,1,0,0
45020489,22.86539,23.22237,21.975,20.528757,0.0,132.45355,1.0,1.0,nan,4,5.8055925,5.8055925,5.8055925,5.8055925,0.0,0.0,0.0,0.0,0.0,0.0,0.0,0,0,0,0,0,0,0,0,0,1,0,0,1,0,0
45331391,23.536186,23.196924,25.0515,21.646662,0.0,134.42766,1.0,1.0,nan,4,5.799231,5.799231,5.799231,5.799231,0.0,0.0,0.0,0.0,0.0,0.0,0.0,0,0,0,0,0,0,0,0,0,1,0,0,1,0,0
45620488,22.442497,23.154392,22.766098,22.633593,0.0,136.35408,1.0,1.0,nan,4,5.788598,5.788598,5.788598,5.788598,0.0,0.0,0.0,0.0,0.0,0.0,0.0,0,0,0,0,0,0,0,0,0,1,0,0,1,0,0
45920510,22.894556,23.152477,19.045,21.926346,0.0,138.12926,1.0,1.0,nan,4,5.7881193,5.7881193,5.7881193,5.7881193,0.0,0.0,0.0,0.0,0.0,0.0,0.0,0,0,0,0,0,0,0,0,0,1,0,0,1,0,0
46220801,23.098711,23.182129,20.5686,21.002848,0.0,139.78233,1.0,1.0,nan,4,5.795532,5.795532,5.795532,5.795532,0.0,0.0,0.0,0.0,0.0,0.0,0.0,0,0,0,0,0,0,0,0,0,1,0,0,1,0,0
46520519,23.011215,23.182745,22.5024,20.905045,0.0,141.50508,1.0,1.0,nan,4,5.7956862,5.7956862,5.7956862,5.7956862,0.0,0.0,0.0,0.0,0.0,0.0,0.0,0,0,0,0,0,0,0,0,0,1,0,0,1,0,0
46830597,23.14246,23.1712,22.619598,21.776974,0.0,143.46904,1.0,1.0,nan,4,5.7928,5.7928,5.7928,5.7928,0.0,0.0,0.0,0.0,0.0,0.0,0.0,0,0,0,0,0,0,0,0,0,1,0,0,1,0,0
47120511,23.229954,23.140446,23.498598,22.22214,0.0,145.30379,1.0,1.0,nan,4,5.7851114,5.7851114,5.7851114,5.7851114,0.0,0.0,0.0,0.0,0.0,0.0,0.0,0,0,0,0,0,0,0,0,0,1,0,0,1,0,0
47431249,23.157042,23.147821,19.924,21.744732,0.0,147.14816,1.0,1.0,nan,4,5.7869554,5.7869554,5.7869554,5.7869554,0.0,0.0,0.0,0.0,0.0,0.0,0.0,0,0,0,0,0,0,0,0,0,1,0,0,1,0,0
47730886,22.996634,23.142704,19.1915,20.987581,0.0,148.81772,1.0,1.0,nan,4,5.785676,5.785676,5.785676,5.785676,0.0,0.0,0.0,0.0,0.0,0.0,0.0,0,0,0,0,0,0,0,0,0,1,0,0,1,0,0
48020497,23.215372,23.139692,21.4476,20.612947,0.0,150.43517,1.0,1.0,nan,4,5.784923,5.784923,5.784923,5.784923,0.0,0.0,0.0,0.0,0.0,0.0,0.0,0,0,0,0,0,0,0,0,0,1,0,0,1,0,0
48320980,23.43411,23.145845,22.1801,21.25152,0.0,152.27504,1.0,1.0,nan,4,5.7864614,5.7864614,5.7864614,5.7864614,0.0,0.0,0.0,0.0,0.0,0.0,0.0,0,0,0,0,0,0,0,0,0,1,0,0,1,0,0
48620489,23.200788,23.141245,22.795399,21.537167,0.0,154.09315,1.0,1.0,nan,4,5.785311,5.785311,5.785311,5.785311,0.0,0.0,0.0,0.0,0.0,0.0,0.0,0,0,0,0,0,0,0,0,0,1,0,0,1,0,0
49533366,23.200788,23.124876,20.8909,21.660765,0.0,159.70776,1.0,1.0,nan,4,5.781219,5.781219,5.781219,5.781219,0.0,0.0,0.0,0.0,0.0,0.0,0.0,0,0,0,0,0,0,0,0,0,1,0,0,1,0,0
49832343,23.332031,23.137878,20.9202,21.220318,0.0,161.42628,1.0,1.0,nan,4,5.7844696,5.7844696,5.7844696,5.7844696,0.0,0.0,0.0,0.0,0.0,0.0,0.0,0,0,0,0,0,0,0,0,0,1,0,0,1,0,0
50120492,23.244535,23.17143,21.154598,21.02788,0.0,163.0905,1.0,1.0,nan,4,5.7928576,5.7928576,5.7928576,5.7928576,0.0,0.0,0.0,0.0,0.0,0.0,0.0,0,0,0,0,0,0,0,0,0,1,0,0,1,0,0
50431059,23.011215,23.163748,22.1801,21.248741,0.0,164.94255,1.0,1.0,nan,4,5.790937,5.790937,5.790937,5.790937,0.0,0.0,0.0,0.0,0.0,0.0,0.0,0,0,0,0,0,0,0,0,0,1,0,0,1,0,0
50730566,23.49244,23.146118,23.44,21.708042,0.0,166.79567,1.0,1.0,nan,4,5.7865295,5.7865295,5.7865295,5.7865295,0.0,0.0,0.0,0.0,0.0,0.0,0.0,0,0,0,0,0,0,0,0,0,1,0,0,1,0,0
51020496,23.171623,23.122343,22.6489,22.123491,0.0,168.62047,1.0,1.0,nan,4,5.780586,5.780586,5.780586,5.780586,0.0,0.0,0.0,0.0,0.0,0.0,0.0,0,0,0,0,0,0,0,0,0,1,0,0,1,0,0
51320525,23.157042,23.101696,23.205599,22.350134,0.0,170.50688,1.0,1.0,nan,4,5.775424,5.775424,5.775424,5.775424,0.0,0.0,0.0,0.0,0.0,0.0,0.0,0,0,0,0,0,0,0,0,0,1,0,0,1,0,0
51622059,23.477858,23.103085,19.513802,21.898554,0.0,172.3128,1.0,1.0,nan,4,5.775771,5.775771,5.775771,5.775771,0.0,0.0,0.0,0.0,0.0,0.0,0.0,0,0,0,0,0,0,0,0,0,1,0,0,1,0,0
51931374,23.536186,23.130327,19.4552,20.826813,0.0,173.99341,1.0,1.0,nan,4,5.782582,5.782582,5.782582,5.782582,0.0,0.0,0.0,0.0,0.0,0.0,0.0,0,0,0,0,0,0,0,0,0,1,0,0,1,0,0
52221419,23.127876,23.133522,20.1877,20.386023,0.0,175.58673,1.0,1.0,nan,4,5.7833805,5.7833805,5.7833805,5.7833805,0.0,0.0,0.0,0.0,0.0,0.0,0.0,0,0,0,0,0,0,0,0,0,1,0,0,1,0,0
52520494,22.763313,23.144506,21.7113,20.463247,0.0,177.28764,1.0,1.0,nan,4,5.7861266,5.7861266,5.7861266,5.7861266,0.0,0.0,0.0,0.0,0.0,0.0,0.0,0,0,0,0,0,0,0,0,0,1,0,0,1,0,0
52830496,22.967468,23.110844,21.857801,21.274483,0.0,179.19888,1.0,1.0,nan,4,5.777711,5.777711,5.777711,5.777711,0.0,0.0,0.0,0.0,0.0,0.0,0.0,0,0,0,0,0,0,0,0,0,1,0,0,1,0,0
53130488,23.171623,23.119259,22.6782,22.131985,0.0,181.13354,1.0,1.0,nan,4,5.7798147,5.7798147,5.7798147,5.7798147,0.0,0.0,0.0,0.0,0.0,0.0,0.0,0,0,0,0,0,0,0,0,0,1,0,0,1,0,0
53420489,23.14246,23.07212,21.2425,22.297028,0.0,182.95293,1.0,1.0,nan,4,5.76803,5.76803,5.76803,5.76803,0.0,0.0,0.0,0.0,0.0,0.0,0.0,0,0,0,0,0,0,0,0,0,1,0,0,1,0,0
53720491,22.646652,23.072855,19.631,21.23154,0.0,184.61221,1.0,1.0,nan,4,5.7682137,5.7682137,5.7682137,5.7682137,0.0,0.0,0.0,0.0,0.0,0.0,0.0,0,0,0,0,0,0,0,0,0,1,0,0,1,0,0
54030538,23.463274,23.072493,21.506199,20.764822,0.0,186.34851,1.0,1.0,nan,4,5.768123,5.768123,5.768123,5.768123,0.0,0.0,0.0,0.0,0.0,0.0,0.0,0,0,0,0,0,0,0,0,0,1,0,0,1,0,0
54320514,23.186207,23.062704,21.389,20.907288,0.0,188.04797,1.0,1.0,nan,4,5.765676,5.765676,5.765676,5.765676,0.0,0.0,0.0,0.0,0.0,0.0,0.0,0,0,0,0,0,0,0,0,0,1,0,0,1,0,0
54620505,23.171623,23.06841,23.8795,21.565084,0.0,189.90282,1.0,1.0,nan,4,5.7671027,5.7671027,5.7671027,5.7671027,0.0,0.0,0.0,0.0,0.0,0.0,0.0,0,0,0,0,0,0,0,0,0,1,0,0,1,0,0
54920488,23.302866,23.047443,23.938099,22.375147,0.0,191.8462,1.0,1.0,nan,4,5.761861,5.761861,5.761861,5.761861,0.0,0.0,0.0,0.0,0.0,0.0,0.0,0,0,0,0,0,0,0,0,0,1,0,0,1,0,0
55230515,22.923721,23.060429,23.0298,22.081627,0.0,193.71754,1.0,1.0,nan,4,5.765107,5.765107,5.765107,5.765107,0.0,0.0,0.0,0.0,0.0,0.0,0.0,0,0,0,0,0,0,0,0,0,1,0,0,1,0,0
55520672,22.80706,23.056232,23.498598,22.759918,0.0,195.61894,1.0,1.0,nan,4,5.764058,5.764058,5.764058,5.764058,0.0,0.0,0.0,0.0,0.0,0.0,0.0,0,0,0,0,0,0,0,0,0,1,0,0,1,0,0
55820495,22.559158,23.060678,21.0667,22.103966,0.0,197.40125,1.0,1.0,nan,4,5.7651696,5.7651696,5.7651696,5.7651696,0.0,0.0,0.0,0.0,0.0,0.0,0.0,0,0,0,0,0,0,0,0,0,1,0,0,1,0,0
56130602,23.332031,23.061628,20.217001,21.791964,0.0,199.25638,1.0,1.0,nan,4,5.765407,5.765407,5.765407,5.765407,0.0,0.0,0.0,0.0,0.0,0.0,0.0,0,0,0,0,0,0,0,0,0,1,0,0,1,0,0
56420541,23.477858,23.080906,20.0705,21.149544,0.0,200.88899,1.0,1.0,nan,4,5.7702265,5.7702265,5.7702265,5.7702265,0.0,0.0,0.0,0.0,0.0,0.0,0.0,0,0,0,0,0,0,0,0,0,1,0,0,1,0,0
56720488,23.288284,23.121464,19.8947,19.91155,0.0,202.41608,1.0,1.0,nan,4,5.780366,5.780366,5.780366,5.780366,0.0,0.0,0.0,0.0,0.0,0.0,0.0,0,0,0,0,0,0,0,0,0,1,0,0,1,0,0
57030489,22.646652,23.115799,21.857801,20.383842,0.0,204.20195,1.0,1.0,nan,4,5.7789497,5.7789497,5.7789497,5.7789497,0.0,0.0,0.0,0.0,0.0,0.0,0.0,0,0,0,0,0,0,0,0,0,1,0,0,1,0,0
57320489,22.252924,23.07473,22.3559,21.537218,0.0,206.05696,1.0,1.0,nan,4,5.7686825,5.7686825,5.7686825,5.7686825,0.0,0.0,0.0,0.0,0.0,0.0,0.0,0,0,0,0,0,0,0,0,0,1,0,0,1,0,0
57620488,23.113295,23.067924,21.125301,21.881983,0.0,207.92755,1.0,1.0,nan,4,5.766981,5.766981,5.766981,5.766981,0.0,0.0,0.0,0.0,0.0,0.0,0.0,0,0,0,0,0,0,0,0,0,1,0,0,1,0,0
57920680,23.448692,23.072325,21.916399,21.574568,0.0,209.69302,1.0,1.0,nan,4,5.768081,5.768081,5.768081,5.768081,0.0,0.0,0.0,0.0,0.0,0.0,0.0,0,0,0,0,0,0,0,0,0,1,0,0,1,0,0
58230490,22.821644,23.071976,21.3597,21.088999,0.0,211.44957,1.0,1.0,nan,4,5.767994,5.767994,5.767994,5.767994,0.0,0.0,0.0,0.0,0.0,0.0,0.0,0,0,0,0,0,0,0,0,0,1,0,0,1,0,0
58521252,23.317448,23.094578,18.986399,20.554472,0.0,213.06561,1.0,1.0,nan,4,5.7736444,5.7736444,5.7736444,5.7736444,0.0,0.0,0.0,0.0,0.0,0.0,0.0,0,0,0,0,0,0,0,0,0,1,0,0,1,0,0
58820780,22.748732,23.098797,20.0705,20.213793,0.0,214.70833,1.0,1.0,nan,4,5.774699,5.774699,5.774699,5.774699,0.0,0.0,0.0,0.0,0.0,0.0,0.0,0,0,0,0,0,0,0,0,0,1,0,0,1,0,0
59132712,22.821644,23.049137,27.1025,22.146124,0.0,216.79814,1.0,1.0,nan,4,5.7622843,5.7622843,5.7622843,5.7622843,0.0,0.0,0.0,0.0,0.0,0.0,0.0,0,0,0,0,0,0,0,0,0,1,0,0,1,0,0
59431906,22.734148,22.974936,24.406898,24.24682,0.0,219.03358,1.0,1.0,nan,4,5.743734,5.743734,5.743734,5.743734,0.0,0.0,0.0,0.0,0.0,0.0,0.0,0,0,0,0,0,0,0,0,0,1,0,0,1,0,0
59730497,23.171623,22.989548,18.4004,22.653767,0.0,220.766,1.0,1.0,nan,4,5.747387,5.747387,5.747387,5.747387,0.0,0.0,0.0,0.0,0.0,0.0,0.0,0,0,0,0,0,0,0,0,0,1,0,0,1,0,0
60021133,23.419525,23.030159,20.3049,21.25674,0.0,222.32884,1.0,1.0,nan,4,5.7575397,5.7575397,5.7575397,5.7575397,0.0,0.0,0.0,0.0,0.0,0.0,0.0,0,0,0,0,0,0,0,0,0,1,0,0,1,0,0
60320855,22.602905,23.034502,21.7699,20.97495,0.0,224.03548,1.0,1.0,nan,4,5.7586255,5.7586255,5.7586255,5.7586255,0.0,0.0,0.0,0.0,0.0,0.0,0.0,0,0,0,0,0,0,0,0,0,1,0,0,1,0,0
60621719,23.069548,23.017544,20.861599,21.428715,0.0,225.88857,1.0,1.0,nan,4,5.754386,5.754386,5.754386,5.754386,0.0,0.0,0.0,0.0,0.0,0.0,0.0,0,0,0,0,0,0,0,0,0,1,0,0,1,0,0
60920539,23.157042,23.04316,20.129099,20.82182,0.0,227.557,1.0,1.0,nan,4,5.76079,5.76079,5.76079,5.76079,0.0,0.0,0.0,0.0,0.0,0.0,0.0,0,0,0,0,0,0,0,0,0,1,0,0,1,0,0
61220518,22.86539,23.027935,24.612,21.479168,0.0,229.38339,1.0,1.0,nan,4,5.7569838,5.7569838,5.7569838,5.7569838,0.0,0.0,0.0,0.0,0.0,0.0,0.0,0,0,0,0,0,0,0,0,0,1,0,0,1,0,0
61520490,22.836226,22.991203,25.491001,23.31526,0.0,231.49951,1.0,1.0,nan,4,5.747801,5.747801,5.747801,5.747801,0.0,0.0,0.0,0.0,0.0,0.0,0.0,0,0,0,0,0,0,0,0,0,1,0,0,1,0,0
61820982,23.113295,22.994043,23.1763,23.299995,0.0,233.4538,1.0,1.0,nan,4,5.748511,5.748511,5.748511,5.748511,0.0,0.0,0.0,0.0,0.0,0.0,0.0,0,0,0,0,0,0,0,0,0,1,0,0,1,0,0
62132609,23.215372,23.0247,16.495901,20.91873,0.0,235.06134,1.0,1.0,nan,4,5.756175,5.756175,5.756175,5.756175,0.0,0.0,0.0,0.0,0.0,0.0,0.0,0,0,0,0,0,0,0,0,0,1,0,0,1,0,0
62432374,23.332031,23.017649,23.9674,21.245499,0.0,236.83727,1.0,1.0,nan,4,5.754412,5.754412,5.754412,5.754412,0.0,0.0,0.0,0.0,0.0,0.0,0.0,0,0,0,0,0,0,0,0,0,1,0,0,1,0,0
62720491,22.85081,22.980597,24.1139,22.443308,0.0,238.75424,1.0,1.0,nan,4,5.745149,5.745149,5.745149,5.745149,0.0,0.0,0.0,0.0,0.0,0.0,0.0,0,0,0,0,0,0,0,0,0,1,0,0,1,0,0
63030593,23.14246,22.987923,21.7113,21.900114,0.0,240.59764,1.0,1.0,nan,4,5.7469807,5.7469807,5.7469807,5.7469807,0.0,0.0,0.0,0.0,0.0,0.0,0.0,0,0,0,0,0,0,0,0,0,1,0,0,1,0,0
63330500,23.069548,22.998047,23.9674,22.252144,0.0,242.48114,1.0,1.0,nan,4,5.7495117,5.7495117,5.7495117,5.7495117,0.0,0.0,0.0,0.0,0.0,0.0,0.0,0,0,0,0,0,0,0,0,0,1,0,0,1,0,0
63620488,22.85081,22.989052,22.0922,22.724699,0.0,244.37144,1.0,1.0,nan,4,5.747263,5.747263,5.747263,5.747263,0.0,0.0,0.0,0.0,0.0,0.0,0.0,0,0,0,0,0,0,0,0,0,1,0,0,1,0,0
63920613,23.011215,22.973343,20.6565,22.359634,0.0,246.20337,1.0,1.0,nan,4,5.7433357,5.7433357,5.7433357,5.7433357,0.0,0.0,0.0,0.0,0.0,0.0,0.0,0,0,0,0,0,0,0,0,0,1,0,0,1,0,0
64220799,23.332031,23.00182,20.2463,20.9154,0.0,247.8001,1.0,1.0,nan,4,5.750455,5.750455,5.750455,5.750455,0.0,0.0,0.0,0.0,0.0,0.0,0.0,0,0,0,0,0,0,0,0,0,1,0,0,1,0,0
64530537,22.413334,23.01516,19.1329,20.534079,0.0,249.52625,1.0,1.0,nan,4,5.75379,5.75379,5.75379,5.75379,0.0,0.0,0.0,0.0,0.0,0.0,0.0,0,0,0,0,0,0,0,0,0,1,0,0,1,0,0
64822388,23.113295,23.003817,22.6489,21.234945,0.0,251.31541,1.0,1.0,nan,4,5.750954,5.750954,5.750954,5.750954,0.0,0.0,0.0,0.0,0.0,0.0,0.0,0,0,0,0,0,0,0,0,0,1,0,0,1,0,0
65120494,22.967468,22.962822,23.4107,22.260979,0.0,253.25746,1.0,1.0,nan,4,5.7407055,5.7407055,5.7407055,5.7407055,0.0,0.0,0.0,0.0,0.0,0.0,0.0,0,0,0,0,0,0,0,0,0,1,0,0,1,0,0
65422012,23.186207,22.981535,20.422098,21.665855,0.0,255.03162,1.0,1.0,nan,4,5.7453837,5.7453837,5.7453837,5.7453837,0.0,0.0,0.0,0.0,0.0,0.0,0.0,0,0,0,0,0,0,0,0,0,1,0,0,1,0,0
66023018,23.113295,23.000938,21.916399,21.150194,0.0,258.50076,1.0,1.0,nan,4,5.7502346,5.7502346,5.7502346,5.7502346,0.0,0.0,0.0,0.0,0.0,0.0,0.0,0,0,0,0,0,0,0,0,0,1,0,0,1,0,0
66320872,23.404943,23.004578,22.1508,21.521116,0.0,260.3181,1.0,1.0,nan,4,5.7511444,5.7511444,5.7511444,5.7511444,0.0,0.0,0.0,0.0,0.0,0.0,0.0,0,0,0,0,0,0,0,0,0,1,0,0,1,0,0
66630490,22.98205,22.986366,23.733,22.20647,0.0,262.2946,1.0,1.0,nan,4,5.7465916,5.7465916,5.7465916,5.7465916,0.0,0.0,0.0,0.0,0.0,0.0,0.0,0,0,0,0,0,0,0,0,0,1,0,0,1,0,0
66920493,22.661234,22.94689,23.5865,22.414772,0.0,264.12308,1.0,1.0,nan,4,5.7367225,5.7367225,5.7367225,5.7367225,0.0,0.0,0.0,0.0,0.0,0.0,0.0,0,0,0,0,0,0,0,0,0,1,0,0,1,0,0
67220490,22.938303,22.964668,19.1036,21.399345,0.0,265.82068,1.0,1.0,nan,4,5.741167,5.741167,5.741167,5.741167,0.0,0.0,0.0,0.0,0.0,0.0,0.0,0,0,0,0,0,0,0,0,0,1,0,0,1,0,0
67530695,22.894556,22.96249,20.7151,21.176483,0.0,267.61905,1.0,1.0,nan,4,5.7406225,5.7406225,5.7406225,5.7406225,0.0,0.0,0.0,0.0,0.0,0.0,0.0,0,0,0,0,0,0,0,0,0,1,0,0,1,0,0
67833483,22.734148,22.938381,22.9126,21.7077,0.0,269.4942,1.0,1.0,nan,4,5.7345953,5.7345953,5.7345953,5.7345953,0.0,0.0,0.0,0.0,0.0,0.0,0.0,0,0,0,0,0,0,0,0,0,1,0,0,1,0,0
68130965,22.734148,22.927507,22.8833,22.025295,0.0,271.3464,1.0,1.0,nan,4,5.731877,5.731877,5.731877,5.731877,0.0,0.0,0.0,0.0,0.0,0.0,0.0,0,0,0,0,0,0,0,0,0,1,0,0,1,0,0
68430954,23.069548,22.929277,21.4769,22.271713,0.0,273.23337,1.0,1.0,nan,4,5.7323194,5.7323194,5.7323194,5.7323194,0.0,0.0,0.0,0.0,0.0,0.0,0.0,0,0,0,0,0,0,0,0,0,1,0,0,1,0,0
68730603,22.136265,22.950687,22.2094,21.958607,0.0,275.0148,1.0,1.0,nan,4,5.737672,5.737672,5.737672,5.737672,0.0,0.0,0.0,0.0,0.0,0.0,0.0,0,0,0,0,0,0,0,0,0,1,0,0,1,0,0
69023396,22.57374,22.932945,22.971199,22.42975,0.0,276.88455,1.0,1.0,nan,4,5.7332363,5.7332363,5.7332363,5.7332363,0.0,0.0,0.0,0.0,0.0,0.0,0.0,0,0,0,0,0,0,0,0,0,1,0,0,1,0,0
69320892,22.894556,22.921412,22.7075,22.859236,0.0,278.8195,1.0,1.0,nan,4,5.730353,5.730353,5.730353,5.730353,0.0,0.0,0.0,0.0,0.0,0.0,0.0,0,0,0,0,0,0,0,0,0,1,0,0,1,0,0
69620491,22.427916,22.903294,23.733,22.810854,0.0,280.7095,1.0,1.0,nan,4,5.7258234,5.7258234,5.7258234,5.7258234,0.0,0.0,0.0,0.0,0.0,0.0,0.0,0,0,0,0,0,0,0,0,0,1,0,0,1,0,0
69922030,22.996634,22.898132,24.3776,22.652456,0.0,282.59338,1.0,1.0,nan,4,5.724533,5.724533,5.724533,5.724533,0.0,0.0,0.0,0.0,0.0,0.0,0.0,0,0,0,0,0,0,0,0,0,1,0,0,1,0,0
70220664,22.996634,22.887596,19.9826,22.384188,0.0,284.44543,1.0,1.0,nan,4,5.721899,5.721899,5.721899,5.721899,0.0,0.0,0.0,0.0,0.0,0.0,0.0,0,0,0,0,0,0,0,0,0,1,0,0,1,0,0
70520489,22.748732,22.911753,19.7775,21.219498,0.0,286.09375,1.0,1.0,nan,4,5.727938,5.727938,5.727938,5.727938,0.0,0.0,0.0,0.0,0.0,0.0,0.0,0,0,0,0,0,0,0,0,0,1,0,0,1,0,0
70830658,22.544575,22.930773,21.330399,20.823568,0.0,287.84018,1.0,1.0,nan,4,5.732693,5.732693,5.732693,5.732693,0.0,0.0,0.0,0.0,0.0,0.0,0.0,0,0,0,0,0,0,0,0,0,1,0,0,1,0,0
71121034,22.879972,22.928904,24.4655,21.836432,0.0,289.6949,1.0,1.0,nan,4,5.732226,5.732226,5.732226,5.732226,0.0,0.0,0.0,0.0,0.0,0.0,0.0,0,0,0,0,0,0,0,0,0,1,0,0,1,0,0
71420548,22.821644,22.881577,24.4655,23.124672,0.0,291.752,1.0,1.0,nan,4,5.720394,5.720394,5.720394,5.720394,0.0,0.0,0.0,0.0,0.0,0.0,0.0,0,0,0,0,0,0,0,0,0,1,0,0,1,0,0
71731995,22.938303,22.864288,25.5203,23.5039,0.0,293.8291,1.0,1.0,nan,4,5.716072,5.716072,5.716072,5.716072,0.0,0.0,0.0,0.0,0.0,0.0,0.0,0,0,0,0,0,0,0,0,0,1,0,0,1,0,0
72020494,23.171623,22.843264,25.4324,24.448473,0.0,295.89056,1.0,1.0,nan,4,5.710816,5.710816,5.710816,5.710816,0.0,0.0,0.0,0.0,0.0,0.0,0.0,0,0,0,0,0,0,0,0,0,1,0,0,1,0,0
72331430,23.054962,22.831768,19.4552,23.58751,0.0,297.875,1.0,1.0,nan,4,5.707942,5.707942,5.707942,5.707942,0.0,0.0,0.0,0.0,0.0,0.0,0.0,0,0,0,0,0,0,0,0,0,1,0,0,1,0,0
72630688,22.98205,22.859304,18.810598,21.70974,0.0,299.49005,1.0,1.0,nan,4,5.714826,5.714826,5.714826,5.714826,0.0,0.0,0.0,0.0,0.0,0.0,0.0,0,0,0,0,0,0,0,0,0,1,0,0,1,0,0
72930497,22.909138,22.88702,19.689598,20.566652,0.0,301.0848,1.0,1.0,nan,4,5.721755,5.721755,5.721755,5.721755,0.0,0.0,0.0,0.0,0.0,0.0,0.0,0,0,0,0,0,0,0,0,0,1,0,0,1,0,0
73220575,22.86539,22.885326,19.8947,20.251795,0.0,302.68317,1.0,1.0,nan,4,5.7213316,5.7213316,5.7213316,5.7213316,0.0,0.0,0.0,0.0,0.0,0.0,0.0,0,0,0,0,0,0,0,0,0,1,0,0,1,0,0
73522016,22.719566,22.852224,27.249,22.42776,0.0,304.7583,1.0,1.0,nan,4,5.713056,5.713056,5.713056,5.713056,0.0,0.0,0.0,0.0,0.0,0.0,0.0,0,0,0,0,0,0,0,0,0,1,0,0,1,0,0
73820688,23.011215,22.818157,22.1215,23.574251,0.0,306.85205,1.0,1.0,nan,4,5.7045393,5.7045393,5.7045393,5.7045393,0.0,0.0,0.0,0.0,0.0,0.0,0.0,0,0,0,0,0,0,0,0,0,1,0,0,1,0,0
74130491,22.734148,22.831438,19.3087,22.038311,0.0,308.59842,1.0,1.0,nan,4,5.7078595,5.7078595,5.7078595,5.7078595,0.0,0.0,0.0,0.0,0.0,0.0,0.0,0,0,0,0,0,0,0,0,0,1,0,0,1,0,0
74420532,23.259119,22.850685,19.7482,21.017992,0.0,310.18637,1.0,1.0,nan,4,5.7126713,5.7126713,5.7126713,5.7126713,0.0,0.0,0.0,0.0,0.0,0.0,0.0,0,0,0,0,0,0,0,0,0,1,0,0,1,0,0
74730717,22.938303,22.85525,19.2794,20.271585,0.0,311.86136,1.0,1.0,nan,4,5.7138124,5.7138124,5.7138124,5.7138124,0.0,0.0,0.0,0.0,0.0,0.0,0.0,0,0,0,0,0,0,0,0,0,1,0,0,1,0,0
75030607,22.996634,22.87515,20.9788,19.81301,0.0,313.45938,1.0,1.0,nan,4,5.7187877,5.7187877,5.7187877,5.7187877,0.0,0.0,0.0,0.0,0.0,0.0,0.0,0,0,0,0,0,0,0,0,0,1,0,0,1,0,0
75320489,22.952885,22.865183,23.9967,21.058117,0.0,315.28336,1.0,1.0,nan,4,5.7162957,5.7162957,5.7162957,5.7162957,0.0,0.0,0.0,0.0,0.0,0.0,0.0,0,0,0,0,0,0,0,0,0,1,0,0,1,0,0
75620488,22.85081,22.838232,23.6744,22.455194,0.0,317.2982,1.0,1.0,nan,4,5.709558,5.709558,5.709558,5.709558,0.0,0.0,0.0,0.0,0.0,0.0,0.0,0,0,0,0,0,0,0,0,0,1,0,0,1,0,0
75920843,22.719566,22.83595,22.2094,22.214777,0.0,319.128,1.0,1.0,nan,4,5.7089877,5.7089877,5.7089877,5.7089877,0.0,0.0,0.0,0.0,0.0,0.0,0.0,0,0,0,0,0,0,0,0,0,1,0,0,1,0,0
76220488,22.63207,22.881538,18.927801,20.916533,0.0,320.74734,1.0,1.0,nan,4,5.7203846,5.7203846,5.7203846,5.7203846,0.0,0.0,0.0,0.0,0.0,0.0,0.0,0,0,0,0,0,0,0,0,0,1,0,0,1,0,0
76520615,22.617487,22.90057,20.8323,20.531338,0.0,322.40942,1.0,1.0,nan,4,5.7251425,5.7251425,5.7251425,5.7251425,0.0,0.0,0.0,0.0,0.0,0.0,0.0,0,0,0,0,0,0,0,0,0,1,0,0,1,0,0
76820497,22.325836,22.873346,26.545801,22.447004,0.0,324.45187,1.0,1.0,nan,4,5.7183366,5.7183366,5.7183366,5.7183366,0.0,0.0,0.0,0.0,0.0,0.0,0.0,0,0,0,0,0,0,0,0,0,1,0,0,1,0,0
77130497,22.894556,22.831423,22.062899,23.15107,0.0,326.54498,1.0,1.0,nan,4,5.7078557,5.7078557,5.7078557,5.7078557,0.0,0.0,0.0,0.0,0.0,0.0,0.0,0,0,0,0,0,0,0,0,0,1,0,0,1,0,0
77420847,22.894556,22.81386,23.5572,22.828325,0.0,328.35083,1.0,1.0,nan,4,5.703465,5.703465,5.703465,5.703465,0.0,0.0,0.0,0.0,0.0,0.0,0.0,0,0,0,0,0,0,0,0,0,1,0,0,1,0,0
77720799,22.98205,22.824,20.7151,22.028534,0.0,330.12558,1.0,1.0,nan,4,5.706,5.706,5.706,5.706,0.0,0.0,0.0,0.0,0.0,0.0,0.0,0,0,0,0,0,0,0,0,0,1,0,0,1,0,0
78030976,23.2737,22.841785,20.1584,21.190002,0.0,331.86444,1.0,1.0,nan,4,5.7104464,5.7104464,5.7104464,5.7104464,0.0,0.0,0.0,0.0,0.0,0.0,0.0,0,0,0,0,0,0,0,0,0,1,0,0,1,0,0
78330489,22.471663,22.80923,22.795399,21.730057,0.0,333.714,1.0,1.0,nan,4,5.7023077,5.7023077,5.7023077,5.7023077,0.0,0.0,0.0,0.0,0.0,0.0,0.0,0,0,0,0,0,0,0,0,0,1,0,0,1,0,0
78620487,22.777897,22.815277,21.975,21.897213,0.0,335.49466,1.0,1.0,nan,4,5.7038193,5.7038193,5.7038193,5.7038193,0.0,0.0,0.0,0.0,0.0,0.0,0.0,0,0,0,0,0,0,0,0,0,1,0,0,1,0,0
78920614,22.617487,22.796637,22.561,22.234758,0.0,337.38043,1.0,1.0,nan,4,5.699159,5.699159,5.699159,5.699159,0.0,0.0,0.0,0.0,0.0,0.0,0.0,0,0,0,0,0,0,0,0,0,1,0,0,1,0,0
79520489,22.311255,22.78539,21.008099,21.931965,0.0,341.00995,1.0,1.0,nan,4,5.6963477,5.6963477,5.6963477,5.6963477,0.0,0.0,0.0,0.0,0.0,0.0,0.0,0,0,0,0,0,0,0,0,0,1,0,0,1,0,0
79820545,22.923721,22.776146,22.5024,22.10439,0.0,342.86826,1.0,1.0,nan,4,5.6940365,5.6940365,5.6940365,5.6940365,0.0,0.0,0.0,0.0,0.0,0.0,0.0,0,0,0,0,0,0,0,0,0,1,0,0,1,0,0
80130489,22.544575,22.771908,21.975,21.779781,0.0,344.7081,1.0,1.0,nan,4,5.692977,5.692977,5.692977,5.692977,0.0,0.0,0.0,0.0,0.0,0.0,0.0,0,0,0,0,0,0,0,0,0,1,0,0,1,0,0
80430516,23.127876,22.777145,22.062899,22.014359,0.0,346.56897,1.0,1.0,nan,4,5.6942863,5.6942863,5.6942863,5.6942863,0.0,0.0,0.0,0.0,0.0,0.0,0.0,0,0,0,0,0,0,0,0,0,1,0,0,1,0,0
80720858,23.157042,22.76447,21.389,21.700686,0.0,348.2911,1.0,1.0,nan,4,5.6911173,5.6911173,5.6911173,5.6911173,0.0,0.0,0.0,0.0,0.0,0.0,0.0,0,0,0,0,0,0,0,0,0,1,0,0,1,0,0
81030670,22.763313,22.77704,21.330399,21.408325,0.0,350.10138,1.0,1.0,nan,4,5.69426,5.69426,5.69426,5.69426,0.0,0.0,0.0,0.0,0.0,0.0,0.0,0,0,0,0,0,0,0,0,0,1,0,0,1,0,0
81330669,22.427916,22.744492,23.322802,22.357529,0.0,352.0489,1.0,1.0,nan,4,5.686123,5.686123,5.686123,5.686123,0.0,0.0,0.0,0.0,0.0,0.0,0.0,0,0,0,0,0,0,0,0,0,1,0,0,1,0,0
81620492,22.63207,22.736252,18.986399,21.78112,0.0,353.76038,1.0,1.0,nan,4,5.684063,5.684063,5.684063,5.684063,0.0,0.0,0.0,0.0,0.0,0.0,0.0,0,0,0,0,0,0,0,0,0,1,0,0,1,0,0
81920513,22.45708,22.771048,19.3673,20.558262,0.0,355.346,1.0,1.0,nan,4,5.692762,5.692762,5.692762,5.692762,0.0,0.0,0.0,0.0,0.0,0.0,0.0,0,0,0,0,0,0,0,0,0,1,0,0,1,0,0
82230525,22.675817,22.784777,20.4807,20.110302,0.0,357.02722,1.0,1.0,nan,4,5.696194,5.696194,5.696194,5.696194,0.0,0.0,0.0,0.0,0.0,0.0,0.0,0,0,0,0,0,0,0,0,0,1,0,0,1,0,0
82520490,22.894556,22.779198,21.7113,20.37774,0.0,358.70374,1.0,1.0,nan,4,5.6947994,5.6947994,5.6947994,5.6947994,0.0,0.0,0.0,0.0,0.0,0.0,0.0,0,0,0,0,0,0,0,0,0,1,0,0,1,0,0
82821140,22.792479,22.762491,25.6082,21.460123,0.0,360.59726,1.0,1.0,nan,4,5.690623,5.690623,5.690623,5.690623,0.0,0.0,0.0,0.0,0.0,0.0,0.0,0,0,0,0,0,0,0,0,0,1,0,0,1,0,0
83120495,22.923721,22.740105,23.8502,23.389967,0.0,362.74908,1.0,1.0,nan,4,5.685026,5.685026,5.685026,5.685026,0.0,0.0,0.0,0.0,0.0,0.0,0.0,0,0,0,0,0,0,0,0,0,1,0,0,1,0,0
83430489,23.08413,22.728626,24.026001,23.240948,0.0,364.7284,1.0,1.0,nan,4,5.6821566,5.6821566,5.6821566,5.6821566,0.0,0.0,0.0,0.0,0.0,0.0,0.0,0,0,0,0,0,0,0,0,0,1,0,0,1,0,0
83721338,22.63207,22.723888,21.975,22.392193,0.0,366.45065,1.0,1.0,nan,4,5.680972,5.680972,5.680972,5.680972,0.0,0.0,0.0,0.0,0.0,0.0,0.0,0,0,0,0,0,0,0,0,0,1,0,0,1,0,0
84020851,22.559158,22.732841,19.2794,22.125395,0.0,368.27426,1.0,1.0,nan,4,5.6832104,5.6832104,5.6832104,5.6832104,0.0,0.0,0.0,0.0,0.0,0.0,0.0,0,0,0,0,0,0,0,0,0,1,0,0,1,0,0
84330716,23.011215,22.724985,21.594099,21.66663,0.0,370.0818,1.0,1.0,nan,4,5.6812463,5.6812463,5.6812463,5.6812463,0.0,0.0,0.0,0.0,0.0,0.0,0.0,0,0,0,0,0,0,0,0,0,1,0,0,1,0,0
84620524,22.544575,22.729065,21.887098,21.733122,0.0,371.836,1.0,1.0,nan,4,5.682266,5.682266,5.682266,5.682266,0.0,0.0,0.0,0.0,0.0,0.0,0.0,0,0,0,0,0,0,0,0,0,1,0,0,1,0,0
84920661,23.14246,22.712515,23.205599,21.988373,0.0,373.69568,1.0,1.0,nan,4,5.6781287,5.6781287,5.6781287,5.6781287,0.0,0.0,0.0,0.0,0.0,0.0,0.0,0,0,0,0,0,0,0,0,0,1,0,0,1,0,0
85220514,22.952885,22.70474,22.004301,21.99945,0.0,375.52878,1.0,1.0,nan,4,5.676185,5.676185,5.676185,5.676185,0.0,0.0,0.0,0.0,0.0,0.0,0.0,0,0,0,0,0,0,0,0,0,1,0,0,1,0,0
85530495,22.777897,22.70305,21.9457,21.773272,0.0,377.37125,1.0,1.0,nan,4,5.6757627,5.6757627,5.6757627,5.6757627,0.0,0.0,0.0,0.0,0.0,0.0,0.0,0,0,0,0,0,0,0,0,0,1,0,0,1,0,0
85820502,22.442497,22.717487,19.1036,21.458008,0.0,379.0758,1.0,1.0,nan,4,5.679372,5.679372,5.679372,5.679372,0.0,0.0,0.0,0.0,0.0,0.0,0.0,0,0,0,0,0,0,0,0,0,1,0,0,1,0,0
86120613,22.792479,22.689682,23.3814,21.868921,0.0,380.93323,1.0,1.0,nan,4,5.6724205,5.6724205,5.6724205,5.6724205,0.0,0.0,0.0,0.0,0.0,0.0,0.0,0,0,0,0,0,0,0,0,0,1,0,0,1,0,0
86430779,22.80706,22.695524,21.916399,21.687298,0.0,382.7861,1.0,1.0,nan,4,5.673881,5.673881,5.673881,5.673881,0.0,0.0,0.0,0.0,0.0,0.0,0.0,0,0,0,0,0,0,0,0,0,1,0,0,1,0,0
86730489,22.777897,22.701982,22.4438,21.889246,0.0,384.6261,1.0,1.0,nan,4,5.6754956,5.6754956,5.6754956,5.6754956,0.0,0.0,0.0,0.0,0.0,0.0,0.0,0,0,0,0,0,0,0,0,0,1,0,0,1,0,0
88220490,22.675817,22.699684,21.2132,22.067343,0.0,393.69382,1.0,1.0,nan,4,5.674921,5.674921,5.674921,5.674921,0.0,0.0,0.0,0.0,0.0,0.0,0.0,0,0,0,0,0,0,0,0,0,1,0,0,1,0,0
88520609,22.98205,22.723104,20.0412,21.078749,0.0,395.3544,1.0,1.0,nan,4,5.680776,5.680776,5.680776,5.680776,0.0,0.0,0.0,0.0,0.0,0.0,0.0,0,0,0,0,0,0,0,0,0,1,0,0,1,0,0
88820518,22.45708,22.718384,20.7444,20.689262,0.0,397.0324,1.0,1.0,nan,4,5.679596,5.679596,5.679596,5.679596,0.0,0.0,0.0,0.0,0.0,0.0,0.0,0,0,0,0,0,0,0,0,0,1,0,0,1,0,0
89120488,22.675817,22.677887,22.619598,21.394722,0.0,398.8875,1.0,1.0,nan,4,5.6694717,5.6694717,5.6694717,5.6694717,0.0,0.0,0.0,0.0,0.0,0.0,0.0,0,0,0,0,0,0,0,0,0,1,0,0,1,0,0
89420508,22.588322,22.643425,24.4948,22.39905,0.0,400.85062,1.0,1.0,nan,4,5.6608562,5.6608562,5.6608562,5.6608562,0.0,0.0,0.0,0.0,0.0,0.0,0.0,0,0,0,0,0,0,0,0,0,1,0,0,1,0,0
89730494,22.836226,22.633677,21.0374,22.563349,0.0,402.82687,1.0,1.0,nan,4,5.658419,5.658419,5.658419,5.658419,0.0,0.0,0.0,0.0,0.0,0.0,0.0,0,0,0,0,0,0,0,0,0,1,0,0,1,0,0
90020513,23.08413,22.636261,22.8833,22.351137,0.0,404.5998,1.0,1.0,nan,4,5.6590652,5.6590652,5.6590652,5.6590652,0.0,0.0,0.0,0.0,0.0,0.0,0.0,0,0,0,0,0,0,0,0,0,1,0,0,1,0,0
90321271,23.054962,22.649342,19.8068,21.784441,0.0,406.37515,1.0,1.0,nan,4,5.6623354,5.6623354,5.6623354,5.6623354,0.0,0.0,0.0,0.0,0.0,0.0,0.0,0,0,0,0,0,0,0,0,0,1,0,0,1,0,0
90630566,23.098711,22.673111,20.7151,21.056099,0.0,408.1074,1.0,1.0,nan,4,5.6682777,5.6682777,5.6682777,5.6682777,0.0,0.0,0.0,0.0,0.0,0.0,0.0,0,0,0,0,0,0,0,0,0,1,0,0,1,0,0
90930669,22.675817,22.693161,20.1584,20.849747,0.0,409.8224,1.0,1.0,nan,4,5.6732903,5.6732903,5.6732903,5.6732903,0.0,0.0,0.0,0.0,0.0,0.0,0.0,0,0,0,0,0,0,0,0,0,1,0,0,1,0,0
91520495,22.938303,22.67481,22.766098,21.825323,0.0,413.45157,1.0,1.0,nan,4,5.6687026,5.6687026,5.6687026,5.6687026,0.0,0.0,0.0,0.0,0.0,0.0,0.0,0,0,0,0,0,0,0,0,0,1,0,0,1,0,0
91830560,22.427916,22.658024,23.147,22.100103,0.0,415.38287,1.0,1.0,nan,4,5.664506,5.664506,5.664506,5.664506,0.0,0.0,0.0,0.0,0.0,0.0,0.0,0,0,0,0,0,0,0,0,0,1,0,0,1,0,0
92120488,22.6904,22.644356,23.205599,22.395216,0.0,417.21698,1.0,1.0,nan,4,5.661089,5.661089,5.661089,5.661089,0.0,0.0,0.0,0.0,0.0,0.0,0.0,0,0,0,0,0,0,0,0,0,1,0,0,1,0,0
92431355,22.442497,22.604288,22.4438,22.587887,0.0,419.1934,1.0,1.0,nan,4,5.651072,5.651072,5.651072,5.651072,0.0,0.0,0.0,0.0,0.0,0.0,0.0,0,0,0,0,0,0,0,0,0,1,0,0,1,0,0
92720495,22.369585,22.603544,22.2094,22.462732,0.0,420.98572,1.0,1.0,nan,4,5.650886,5.650886,5.650886,5.650886,0.0,0.0,0.0,0.0,0.0,0.0,0.0,0,0,0,0,0,0,0,0,0,1,0,0,1,0,0
93033782,21.946692,22.597275,21.7992,22.401222,0.0,422.92624,1.0,1.0,nan,4,5.6493187,5.6493187,5.6493187,5.6493187,0.0,0.0,0.0,0.0,0.0,0.0,0.0,0,0,0,0,0,0,0,0,0,1,0,0,1,0,0
93321250,22.209177,22.581736,21.8285,22.575933,0.0,424.74762,1.0,1.0,nan,4,5.645434,5.645434,5.645434,5.645434,0.0,0.0,0.0,0.0,0.0,0.0,0.0,0,0,0,0,0,0,0,0,0,1,0,0,1,0,0
93632990,22.704985,22.565216,22.736801,22.685442,0.0,426.72034,1.0,1.0,nan,4,5.641304,5.641304,5.641304,5.641304,0.0,0.0,0.0,0.0,0.0,0.0,0.0,0,0,0,0,0,0,0,0,0,1,0,0,1,0,0
93932277,22.355003,22.556026,22.238699,22.636475,0.0,428.59845,1.0,1.0,nan,4,5.6390066,5.6390066,5.6390066,5.6390066,0.0,0.0,0.0,0.0,0.0,0.0,0.0,0,0,0,0,0,0,0,0,0,1,0,0,1,0,0
94232097,22.340422,22.540127,22.268,22.521317,0.0,430.46393,1.0,1.0,nan,4,5.6350317,5.6350317,5.6350317,5.6350317,0.0,0.0,0.0,0.0,0.0,0.0,0.0,0,0,0,0,0,0,0,0,0,1,0,0,1,0,0
94533246,22.792479,22.580452,21.271801,22.069162,0.0,432.26993,1.0,1.0,nan,4,5.645113,5.645113,5.645113,5.645113,0.0,0.0,0.0,0.0,0.0,0.0,0.0,0,0,0,0,0,0,0,0,0,1,0,0,1,0,0
94820963,22.792479,22.603918,21.5355,21.671545,0.0,433.96182,1.0,1.0,nan,4,5.6509795,5.6509795,5.6509795,5.6509795,0.0,0.0,0.0,0.0,0.0,0.0,0.0,0,0,0,0,0,0,0,0,0,1,0,0,1,0,0
95130490,22.486246,22.602905,20.8323,21.423792,0.0,435.77917,1.0,1.0,nan,4,5.6507263,5.6507263,5.6507263,5.6507263,0.0,0.0,0.0,0.0,0.0,0.0,0.0,0,0,0,0,0,0,0,0,0,1,0,0,1,0,0
95420489,22.355003,22.604094,21.4476,21.548252,0.0,437.52625,1.0,1.0,nan,4,5.6510234,5.6510234,5.6510234,5.6510234,0.0,0.0,0.0,0.0,0.0,0.0,0.0,0,0,0,0,0,0,0,0,0,1,0,0,1,0,0
95730620,22.879972,22.571146,28.2452,23.369213,0.0,439.69077,1.0,1.0,nan,4,5.6427865,5.6427865,5.6427865,5.6427865,0.0,0.0,0.0,0.0,0.0,0.0,0.0,0,0,0,0,0,0,0,0,0,1,0,0,1,0,0
96030657,23.025797,22.535425,22.9126,24.942429,0.0,441.94162,1.0,1.0,nan,4,5.6338563,5.6338563,5.6338563,5.6338563,0.0,0.0,0.0,0.0,0.0,0.0,0.0,0,0,0,0,0,0,0,0,0,1,0,0,1,0,0
96320489,22.836226,22.532291,22.561,23.405739,0.0,443.65686,1.0,1.0,nan,4,5.633073,5.633073,5.633073,5.633073,0.0,0.0,0.0,0.0,0.0,0.0,0.0,0,0,0,0,0,0,0,0,0,1,0,0,1,0,0
96623065,22.704985,22.534983,22.971199,23.12148,0.0,445.56982,1.0,1.0,nan,4,5.6337457,5.6337457,5.6337457,5.6337457,0.0,0.0,0.0,0.0,0.0,0.0,0.0,0,0,0,0,0,0,0,0,0,1,0,0,1,0,0
96932982,22.763313,22.530125,23.0298,23.252205,0.0,447.58228,1.0,1.0,nan,4,5.632531,5.632531,5.632531,5.632531,0.0,0.0,0.0,0.0,0.0,0.0,0.0,0,0,0,0,0,0,0,0,0,1,0,0,1,0,0
97520511,22.777897,22.601467,18.957098,20.550575,0.0,450.75455,1.0,1.0,nan,4,5.650367,5.650367,5.650367,5.650367,0.0,0.0,0.0,0.0,0.0,0.0,0.0,0,0,0,0,0,0,0,0,0,1,0,0,1,0,0
97831321,22.063353,22.610266,23.8795,20.63704,0.0,452.51895,1.0,1.0,nan,4,5.6525664,5.6525664,5.6525664,5.6525664,0.0,0.0,0.0,0.0,0.0,0.0,0.0,0,0,0,0,0,0,0,0,0,1,0,0,1,0,0
98131036,22.544575,22.555481,26.4872,22.665478,0.0,454.60812,1.0,1.0,nan,4,5.6388702,5.6388702,5.6388702,5.6388702,0.0,0.0,0.0,0.0,0.0,0.0,0.0,0,0,0,0,0,0,0,0,0,1,0,0,1,0,0
98420494,22.223759,22.556026,21.682001,22.82632,0.0,456.47897,1.0,1.0,nan,4,5.6390066,5.6390066,5.6390066,5.6390066,0.0,0.0,0.0,0.0,0.0,0.0,0.0,0,0,0,0,0,0,0,0,0,1,0,0,1,0,0
98720488,23.04038,22.587631,18.6055,21.487986,0.0,458.1532,1.0,1.0,nan,4,5.646908,5.646908,5.646908,5.646908,0.0,0.0,0.0,0.0,0.0,0.0,0.0,0,0,0,0,0,0,0,0,0,1,0,0,1,0,0
99020575,22.836226,22.582657,23.2935,21.798025,0.0,459.9796,1.0,1.0,nan,4,5.645664,5.645664,5.645664,5.645664,0.0,0.0,0.0,0.0,0.0,0.0,0.0,0,0,0,0,0,0,0,0,0,1,0,0,1,0,0
99330489,22.704985,22.560282,21.9457,22.290329,0.0,461.94885,1.0,1.0,nan,4,5.6400704,5.6400704,5.6400704,5.6400704,0.0,0.0,0.0,0.0,0.0,0.0,0.0,0,0,0,0,0,0,0,0,0,1,0,0,1,0,0
99620555,21.961273,22.555834,22.3266,21.960197,0.0,463.6735,1.0,1.0,nan,4,5.6389585,5.6389585,5.6389585,5.6389585,0.0,0.0,0.0,0.0,0.0,0.0,0.0,0,0,0,0,0,0,0,0,0,1,0,0,1,0,0
99921237,23.011215,22.553877,24.8757,22.89384,0.0,465.6735,1.0,1.0,nan,4,5.638469,5.638469,5.638469,5.638469,0.0,0.0,0.0,0.0,0.0,0.0,0.0,0,0,0,0,0,0,0,0,0,1,0,0,1,0,0
100520512,22.57374,22.519606,22.004301,22.76698,0.0,469.5385,1.0,1.0,nan,4,5.6299014,5.6299014,5.6299014,5.6299014,0.0,0.0,0.0,0.0,0.0,0.0,0.0,0,0,0,0,0,0,0,0,0,1,0,0,1,0,0
100820494,22.63207,22.533426,21.7992,21.72677,0.0,471.2346,1.0,1.0,nan,4,5.6333566,5.6333566,5.6333566,5.6333566,0.0,0.0,0.0,0.0,0.0,0.0,0.0,0,0,0,0,0,0,0,0,0,1,0,0,1,0,0
101120490,22.777897,22.558083,20.422098,21.023714,0.0,472.92642,1.0,1.0,nan,4,5.6395206,5.6395206,5.6395206,5.6395206,0.0,0.0,0.0,0.0,0.0,0.0,0.0,0,0,0,0,0,0,0,0,0,1,0,0,1,0,0
101430563,22.51541,22.569935,21.4183,21.04009,0.0,474.73236,1.0,1.0,nan,4,5.6424837,5.6424837,5.6424837,5.6424837,0.0,0.0,0.0,0.0,0.0,0.0,0.0,0,0,0,0,0,0,0,0,0,1,0,0,1,0,0
101720530,22.39875,22.56123,23.498598,21.892555,0.0,476.58118,1.0,1.0,nan,4,5.6403074,5.6403074,5.6403074,5.6403074,0.0,0.0,0.0,0.0,0.0,0.0,0.0,0,0,0,0,0,0,0,0,0,1,0,0,1,0,0
102020489,22.209177,22.542797,22.2973,22.5558,0.0,478.52832,1.0,1.0,nan,4,5.6356993,5.6356993,5.6356993,5.6356993,0.0,0.0,0.0,0.0,0.0,0.0,0.0,0,0,0,0,0,0,0,0,0,1,0,0,1,0,0
102320488,22.16543,22.548244,21.008099,22.406712,0.0,480.38696,1.0,1.0,nan,4,5.637061,5.637061,5.637061,5.637061,0.0,0.0,0.0,0.0,0.0,0.0,0.0,0,0,0,0,0,0,0,0,0,1,0,0,1,0,0
102620517,22.559158,22.544018,21.8285,22.098032,0.0,482.1952,1.0,1.0,nan,4,5.6360044,5.6360044,5.6360044,5.6360044,0.0,0.0,0.0,0.0,0.0,0.0,0.0,0,0,0,0,0,0,0,0,0,1,0,0,1,0,0
102920491,22.588322,22.530792,21.5648,22.053017,0.0,484.02228,1.0,1.0,nan,4,5.632698,5.632698,5.632698,5.632698,0.0,0.0,0.0,0.0,0.0,0.0,0.0,0,0,0,0,0,0,0,0,0,1,0,0,1,0,0
103530779,22.486246,22.503592,21.4183,22.120274,0.0,487.79834,1.0,1.0,nan,4,5.625898,5.625898,5.625898,5.625898,0.0,0.0,0.0,0.0,0.0,0.0,0.0,0,0,0,0,0,0,0,0,0,1,0,0,1,0,0
103820670,22.45708,22.49917,22.619598,22.100716,0.0,489.57794,1.0,1.0,nan,4,5.6247926,5.6247926,5.6247926,5.6247926,0.0,0.0,0.0,0.0,0.0,0.0,0.0,0,0,0,0,0,0,0,0,0,1,0,0,1,0,0
104120729,22.486246,22.478783,23.0884,22.348297,0.0,491.4626,1.0,1.0,nan,4,5.6196957,5.6196957,5.6196957,5.6196957,0.0,0.0,0.0,0.0,0.0,0.0,0.0,0,0,0,0,0,0,0,0,0,1,0,0,1,0,0
104430522,22.704985,22.460823,25.871899,23.158237,0.0,493.52502,1.0,1.0,nan,4,5.615206,5.615206,5.615206,5.615206,0.0,0.0,0.0,0.0,0.0,0.0,0.0,0,0,0,0,0,0,0,0,0,1,0,0,1,0,0
104720489,22.252924,22.42181,24.6999,24.281103,0.0,495.598,1.0,1.0,nan,4,5.6054525,5.6054525,5.6054525,5.6054525,0.0,0.0,0.0,0.0,0.0,0.0,0.0,0,0,0,0,0,0,0,0,0,1,0,0,1,0,0
105020488,22.427916,22.405066,23.1177,24.047796,0.0,497.5794,1.0,1.0,nan,4,5.6012664,5.6012664,5.6012664,5.6012664,0.0,0.0,0.0,0.0,0.0,0.0,0.0,0,0,0,0,0,0,0,0,0,1,0,0,1,0,0
105320515,22.355003,22.422892,20.275599,23.11402,0.0,499.4191,1.0,1.0,nan,4,5.605723,5.605723,5.605723,5.605723,0.0,0.0,0.0,0.0,0.0,0.0,0.0,0,0,0,0,0,0,0,0,0,1,0,0,1,0,0
105630529,22.6904,22.46593,20.5393,21.75409,0.0,501.15262,1.0,1.0,nan,4,5.6164827,5.6164827,5.6164827,5.6164827,0.0,0.0,0.0,0.0,0.0,0.0,0.0,0,0,0,0,0,0,0,0,0,1,0,0,1,0,0
105920490,22.894556,22.497723,20.6858,21.056896,0.0,502.77396,1.0,1.0,nan,4,5.6244307,5.6244307,5.6244307,5.6244307,0.0,0.0,0.0,0.0,0.0,0.0,0.0,0,0,0,0,0,0,0,0,0,1,0,0,1,0,0
106530491,22.588322,22.46203,24.992899,22.177225,0.0,506.51196,1.0,1.0,nan,4,5.6155076,5.6155076,5.6155076,5.6155076,0.0,0.0,0.0,0.0,0.0,0.0,0.0,0,0,0,0,0,0,0,0,0,1,0,0,1,0,0
106820512,22.16543,22.449879,22.736801,23.168293,0.0,508.48703,1.0,1.0,nan,4,5.6124697,5.6124697,5.6124697,5.6124697,0.0,0.0,0.0,0.0,0.0,0.0,0.0,0,0,0,0,0,0,0,0,0,1,0,0,1,0,0
107120585,22.588322,22.452671,21.916399,22.634323,0.0,510.32593,1.0,1.0,nan,4,5.613168,5.613168,5.613168,5.613168,0.0,0.0,0.0,0.0,0.0,0.0,0.0,0,0,0,0,0,0,0,0,0,1,0,0,1,0,0
107420539,22.63207,22.477306,19.543098,21.43368,0.0,511.99173,1.0,1.0,nan,4,5.6193266,5.6193266,5.6193266,5.6193266,0.0,0.0,0.0,0.0,0.0,0.0,0.0,0,0,0,0,0,0,0,0,0,1,0,0,1,0,0
107730561,22.704985,22.479523,20.275599,20.755999,0.0,513.71075,1.0,1.0,nan,4,5.6198807,5.6198807,5.6198807,5.6198807,0.0,0.0,0.0,0.0,0.0,0.0,0.0,0,0,0,0,0,0,0,0,0,1,0,0,1,0,0
108020508,22.311255,22.490232,21.125301,20.54845,0.0,515.3398,1.0,1.0,nan,4,5.622558,5.622558,5.622558,5.622558,0.0,0.0,0.0,0.0,0.0,0.0,0.0,0,0,0,0,0,0,0,0,0,1,0,0,1,0,0
108320630,22.57374,22.461863,23.0005,21.040844,0.0,517.13715,1.0,1.0,nan,4,5.6154656,5.6154656,5.6154656,5.6154656,0.0,0.0,0.0,0.0,0.0,0.0,0.0,0,0,0,0,0,0,0,0,0,1,0,0,1,0,0
108620617,22.57374,22.452713,23.2349,21.915606,0.0,519.0521,1.0,1.0,nan,4,5.6131783,5.6131783,5.6131783,5.6131783,0.0,0.0,0.0,0.0,0.0,0.0,0.0,0,0,0,0,0,0,0,0,0,1,0,0,1,0,0
108920527,21.99044,22.443771,23.2642,22.396502,0.0,520.9654,1.0,1.0,nan,4,5.610943,5.610943,5.610943,5.610943,0.0,0.0,0.0,0.0,0.0,0.0,0.0,0,0,0,0,0,0,0,0,0,1,0,0,1,0,0
109520873,22.63207,22.49369,22.2973,21.750795,0.0,524.5434,1.0,1.0,nan,4,5.6234226,5.6234226,5.6234226,5.6234226,0.0,0.0,0.0,0.0,0.0,0.0,0.0,0,0,0,0,0,0,0,0,0,1,0,0,1,0,0
109830606,22.602905,22.46538,21.4476,22.190508,0.0,526.50366,1.0,1.0,nan,4,5.616345,5.616345,5.616345,5.616345,0.0,0.0,0.0,0.0,0.0,0.0,0.0,0,0,0,0,0,0,0,0,0,1,0,0,1,0,0
110120487,22.413334,22.487782,19.1329,21.373724,0.0,528.1481,1.0,1.0,nan,4,5.6219454,5.6219454,5.6219454,5.6219454,0.0,0.0,0.0,0.0,0.0,0.0,0.0,0,0,0,0,0,0,0,0,0,1,0,0,1,0,0
110420490,22.938303,22.499773,18.7227,20.209154,0.0,529.71783,1.0,1.0,nan,4,5.6249433,5.6249433,5.6249433,5.6249433,0.0,0.0,0.0,0.0,0.0,0.0,0.0,0,0,0,0,0,0,0,0,0,1,0,0,1,0,0
110730488,22.763313,22.539791,18.986399,19.420252,0.0,531.3096,1.0,1.0,nan,4,5.634948,5.634948,5.634948,5.634948,0.0,0.0,0.0,0.0,0.0,0.0,0.0,0,0,0,0,0,0,0,0,0,1,0,0,1,0,0
111020492,22.86539,22.550165,12.833401,18.651546,0.0,532.75006,1.0,1.0,nan,4,5.6375413,5.6375413,5.6375413,5.6375413,0.0,0.0,0.0,0.0,0.0,0.0,0.0,0,0,0,0,0,0,0,0,0,1,0,0,1,0,0
111320494,23.08413,22.677658,5.8307004,13.194045,0.0,533.30554,1.0,1.0,nan,4,5.6694145,5.6694145,5.6694145,5.6694145,0.0,0.0,0.0,0.0,0.0,0.0,0.0,0,0,0,0,0,0,0,0,0,1,0,0,1,0,0
111620492,23.244535,22.790745,6.2116,10.068348,0.0,533.82306,1.0,1.0,nan,4,5.697686,5.697686,5.697686,5.697686,0.0,0.0,0.0,0.0,0.0,0.0,0.0,0,0,0,0,0,0,0,0,0,1,0,0,1,0,0
111931275,23.098711,22.876348,6.153,8.311233,0.0,534.36255,1.0,1.0,nan,4,5.719087,5.719087,5.719087,5.719087,0.0,0.0,0.0,0.0,0.0,0.0,0.0,0,0,0,0,0,0,0,0,0,1,0,0,1,0,0
112520490,23.404943,22.990252,6.0065002,6.8638864,0.0,535.377,1.0,1.0,nan,4,5.747563,5.747563,5.747563,5.747563,0.0,0.0,0.0,0.0,0.0,0.0,0.0,0,0,0,0,0,0,0,0,0,1,0,0,1,0,0
112831265,23.2737,23.053007,5.86,6.5214906,0.0,535.9064,1.0,1.0,nan,4,5.763252,5.763252,5.763252,5.763252,0.0,0.0,0.0,0.0,0.0,0.0,0.0,0,0,0,0,0,0,0,0,0,1,0,0,1,0,0
113121281,23.740341,23.167524,0.1758,3.805006,0.0,535.9377,1.0,1.0,nan,4,5.791881,5.791881,5.791881,5.791881,0.0,0.0,0.0,0.0,0.0,0.0,0.0,0,0,0,0,0,0,0,0,0,1,0,0,1,0,0
113420524,23.448692,23.251646,0.0,2.1299777,0.0,535.94324,1.0,1.0,nan,4,5.8129115,5.8129115,5.8129115,5.8129115,0.0,0.0,0.0,0.0,0.0,0.0,0.0,0,0,0,0,0,0,0,0,0,1,0,0,1,0,0
113730494,23.667429,23.33573,0.0,1.1705139,0.0,535.9464,1.0,1.0,nan,4,5.8339324,5.8339324,5.8339324,5.8339324,0.0,0.0,0.0,0.0,0.0,0.0,0.0,0,0,0,0,0,0,0,0,0,1,0,0,1,0,0
