timestamp,timestamp_sample,gps_hvel[0],gps_hvel[1],gps_vvel,gps_hpos[0],gps_hpos[1],gps_vpos,ev_hvel[0],ev_hvel[1],ev_vvel,ev_hpos[0],ev_hpos[1],ev_vpos,rng_vpos,baro_vpos,aux_hvel[0],aux_hvel[1],aux_vvel,flow[0],flow[1],heading,mag_field[0],mag_field[1],mag_field[2],drag[0],drag[1],airspeed,beta,hagl
22220172,22219210,0.0,0.0,0.0,0.02561098,0.01989657,0.0,0.0,0.0,0.0,0.0,0.0,0.0,0.0,0.03223133,0.0,0.0,nan,0.0,0.0,-0.03239301,0.0,0.0,0.0,0.0,0.0,0.0,0.0,0.0
22729286,22728370,0.0,0.0,0.0,0.027449356,0.02338352,0.0,0.0,0.0,0.0,0.0,0.0,0.0,0.0,0.13026333,0.0,0.0,nan,0.0,0.0,-0.029283911,0.0,0.0,0.0,0.0,0.0,0.0,0.0,0.0
23228436,23227494,0.0,0.0,0.0,0.02806659,0.02455385,0.0,0.0,0.0,0.0,0.0,0.0,0.0,0.0,0.034474373,0.0,0.0,nan,0.0,0.0,-0.060868353,0.0,0.0,0.0,0.0,0.0,0.0,0.0,0.0
23727753,23726669,0.0,0.0,0.0,0.027566392,0.050502885,0.0,0.0,0.0,0.0,0.0,0.0,0.0,0.0,-0.16322136,0.0,0.0,nan,0.0,0.0,-0.069591776,0.0,0.0,0.0,0.0,0.0,0.0,0.0,0.0
24226768,24225845,0.0,0.0,0.0,0.01583472,0.04773918,0.0,0.0,0.0,0.0,0.0,0.0,0.0,0.0,-0.09215164,0.0,0.0,nan,0.0,0.0,-0.079718634,0.0,0.0,0.0,0.0,0.0,0.0,0.0,0.0
24726096,24725021,0.0,0.0,0.0,-0.008811903,0.028529001,0.0,0.0,0.0,0.0,0.0,0.0,0.0,0.0,0.048418045,0.0,0.0,nan,0.0,0.0,-0.11886799,0.0,0.0,0.0,0.0,0.0,0.0,0.0,0.0
25220230,25219208,0.0,0.0,0.0,-0.08418568,-0.012816666,0.0,0.0,0.0,0.0,0.0,0.0,0.0,0.0,0.048909187,0.0,0.0,nan,0.0,0.0,-0.0797213,0.0,0.0,0.0,0.0,0.0,0.0,0.0,0.0
25729452,25728370,0.0,0.0,0.0,-0.14862445,-0.045750268,0.0,0.0,0.0,0.0,0.0,0.0,0.0,0.0,0.14772224,0.0,0.0,nan,0.0,0.0,-0.084447965,0.0,0.0,0.0,0.0,0.0,0.0,0.0,0.0
26727628,26726727,0.0,0.0,0.0,-0.31358606,-0.11653942,0.0,0.0,0.0,0.0,0.0,0.0,0.0,0.0,0.03857708,0.0,0.0,nan,0.0,0.0,-0.11767052,0.0,0.0,0.0,0.0,0.0,0.0,0.0,0.0
27725950,27725109,0.0,0.0,0.0,-0.29404426,-0.13141443,0.0,0.0,0.0,0.0,0.0,0.0,0.0,0.0,0.27742767,0.0,0.0,nan,0.0,0.0,-0.09331107,0.0,0.0,0.0,0.0,0.0,0.0,0.0,0.0
28729328,28728430,0.0,0.0,0.0,-0.10220288,-0.013368679,0.0,0.0,0.0,0.0,0.0,0.0,0.0,0.0,0.03764057,0.0,0.0,nan,0.0,0.0,-0.07509154,0.0,0.0,0.0,0.0,0.0,0.0,0.0,0.0
29228693,29227656,0.0,0.0,0.0,0.012698849,0.10312242,0.0,0.0,0.0,0.0,0.0,0.0,0.0,0.0,-0.1540966,0.0,0.0,nan,0.0,0.0,-0.07314849,0.0,0.0,0.0,0.0,0.0,0.0,0.0,0.0
29727729,29726791,0.0,0.0,0.0,0.12656665,0.24227819,0.0,0.0,0.0,0.0,0.0,0.0,0.0,0.0,-0.08677769,0.0,0.0,nan,0.0,0.0,-0.048665643,0.0,0.0,0.0,0.0,0.0,0.0,0.0,0.0
30228813,30225970,0.0,0.0,0.0,0.245592,0.43997487,0.0,0.0,0.0,0.0,0.0,0.0,0.0,0.0,0.067442894,0.0,0.0,nan,0.0,0.0,-0.071008444,0.0033637807,0.008416593,0.013776809,0.0,0.0,0.0,0.0,0.0
30727695,30725151,0.0,0.0,0.0,0.31086072,0.53718525,0.0,0.0,0.0,0.0,0.0,0.0,0.0,0.0,0.05996895,0.0,0.0,nan,0.0,0.0,-0.071008444,-0.013576411,0.005402565,0.006132826,0.0,0.0,0.0,0.0,0.0
31220187,31219341,0.0,0.0,0.0,0.36885524,0.6276194,0.0,0.0,0.0,0.0,0.0,0.0,0.0,0.0,0.054512024,0.0,0.0,nan,0.0,0.0,-0.071008444,-0.0020847581,-0.003753662,-0.005548075,0.0,0.0,0.0,0.0,0.0
31729420,31728514,0.0,0.0,0.0,0.4381577,0.74222463,0.0,0.0,0.0,0.0,0.0,0.0,0.0,0.0,0.16326523,0.0,0.0,nan,0.0,0.0,-0.071008444,-0.005771553,0.0034370124,0.00075265765,0.0,0.0,0.0,0.0,0.0
32228594,32227689,0.0,0.0,0.0,0.48219857,0.80644345,0.0,0.0,0.0,0.0,0.0,0.0,0.0,0.0,0.2175293,0.0,0.0,nan,0.0,0.0,-0.071008444,0.0048116324,0.008305579,-0.0049290806,0.0,0.0,0.0,0.0,0.0
32729498,32726871,0.0,0.0,0.0,0.5339664,0.9041538,0.0,0.0,0.0,0.0,0.0,0.0,0.0,0.0,0.20565796,0.0,0.0,nan,0.0,0.0,-0.071008444,-0.010317251,0.01006487,-0.012599304,0.0,0.0,0.0,0.0,0.0
33226973,33226053,0.0,0.0,0.0,0.5655985,0.96979594,0.0,0.0,0.0,0.0,0.0,0.0,0.0,0.0,0.14369392,0.0,0.0,nan,0.0,0.0,-0.071008444,-0.031357568,0.0055955946,0.0125326365,0.0,0.0,0.0,0.0,0.0
33733019,33730228,0.0,0.0,0.0,0.58239394,1.0110754,0.0,0.0,0.0,0.0,0.0,0.0,0.0,0.0,0.061174393,0.0,0.0,nan,0.0,0.0,-0.071008444,-0.015429713,0.010148555,-0.004388705,0.0,0.0,0.0,0.0,0.0
34230415,34229434,0.0,0.0,0.0,0.58997357,1.0318918,0.0,0.0,0.0,0.0,0.0,0.0,0.0,0.0,0.06553841,0.0,0.0,nan,0.0,0.0,-0.071008444,-0.013721451,0.004408598,-0.00041934848,0.0,0.0,0.0,0.0,0.0
34719675,34718613,0.0,0.0,0.0,0.5932882,1.0214143,0.0,0.0,0.0,0.0,0.0,0.0,0.0,0.0,0.27224922,0.0,0.0,nan,0.0,0.0,-0.071008444,-0.026686326,0.0041890144,0.0014652461,0.0,0.0,0.0,0.0,0.0
35228829,35227836,0.0,0.0,0.0,0.6059141,0.99274886,0.0,0.0,0.0,0.0,0.0,0.0,0.0,0.0,0.18282795,0.0,0.0,nan,0.0,0.0,-0.071008444,-0.0038294122,-0.005309671,0.009845629,0.0,0.0,0.0,0.0,0.0
35727980,35726966,0.0,0.0,0.0,0.6080693,0.9769526,0.0,0.0,0.0,0.0,0.0,0.0,0.0,0.0,0.17529297,0.0,0.0,nan,0.0,0.0,0.022034883,0.0013924241,0.0032741725,0.014567435,0.0,0.0,0.0,0.0,0.0
36227164,36226151,0.0,0.0,0.0,0.6504762,0.9563572,0.0,0.0,0.0,0.0,0.0,0.0,0.0,0.0,0.22204971,0.0,0.0,nan,0.0,0.0,0.014418364,0.0013924241,0.0032741725,0.014567435,0.0,0.0,0.0,0.0,0.0
36721402,36720348,0.0,0.0,0.0,0.8151791,0.96703154,0.0,0.0,0.0,0.0,0.0,0.0,0.0,0.0,0.20998478,0.0,0.0,nan,0.0,0.0,0.017849922,0.0013924241,0.0032741725,0.014567435,0.0,0.0,0.0,0.0,0.0
37230625,37229515,0.0,0.0,0.0,0.9533239,0.97155666,0.0,0.0,0.0,0.0,0.0,0.0,0.0,0.0,0.047790527,0.0,0.0,nan,0.0,0.0,-0.0055321455,0.0013924241,0.0032741725,0.014567435,0.0,0.0,0.0,0.0,0.0
37729807,37728701,0.0,0.0,0.0,1.1403956,0.9537026,0.0,0.0,0.0,0.0,0.0,0.0,0.0,0.0,0.14661694,0.0,0.0,nan,0.0,0.0,0.036978602,0.0013924241,0.0032741725,0.014567435,0.0,0.0,0.0,0.0,0.0
38228922,38227888,0.0,0.0,0.0,1.2180043,0.920734,0.0,0.0,0.0,0.0,0.0,0.0,0.0,0.0,0.22269535,0.0,0.0,nan,0.0,0.0,0.07005501,0.0013924241,0.0032741725,0.014567435,0.0,0.0,0.0,0.0,0.0
38728080,38727075,0.0,0.0,0.0,1.2973801,0.82845205,0.0,0.0,0.0,0.0,0.0,0.0,0.0,0.0,0.25256824,0.0,0.0,nan,0.0,0.0,0.053031683,0.006428443,0.0052560866,-0.013305128,0.0,0.0,0.0,0.0,0.0
39229120,39226267,0.0,0.0,0.0,1.4956429,0.63728154,0.0,0.0,0.0,0.0,0.0,0.0,0.0,0.0,0.09067726,0.0,0.0,nan,0.0,0.0,0.053031683,0.0004598014,0.0019518733,0.011697158,0.0,0.0,0.0,0.0,0.0
39728053,39725451,0.0,0.0,0.0,1.622468,0.45456496,0.0,0.0,0.0,0.0,0.0,0.0,0.0,0.0,0.31715202,0.0,0.0,nan,0.0,0.0,0.053031683,0.0006563375,-0.008296162,-0.011256471,0.0,0.0,0.0,0.0,0.0
40232611,40229631,0.0,0.0,0.0,1.7457442,0.27372202,0.0,0.0,0.0,0.0,0.0,0.0,0.0,0.0,0.1594963,0.0,0.0,nan,0.0,0.0,0.053031683,-0.020522647,-0.0018264353,-0.013361737,0.0,0.0,0.0,0.0,0.0
40729785,40728819,0.0,0.0,0.0,1.8877193,0.028194819,0.0,0.0,0.0,0.0,0.0,0.0,0.0,0.0,0.1522522,0.0,0.0,nan,0.0,0.0,0.053031683,-0.013507895,-0.007339865,0.009178683,0.0,0.0,0.0,0.0,0.0
41228923,41228008,0.0,0.0,0.0,1.9257079,-0.16256431,0.0,0.0,0.0,0.0,0.0,0.0,0.0,0.0,0.19327545,0.0,0.0,nan,0.0,0.0,0.053031683,0.001792118,-0.0035963655,0.0016145706,0.0,0.0,0.0,0.0,0.0
41729800,41727209,0.0,0.0,0.0,1.861913,-0.4517352,0.0,0.0,0.0,0.0,0.0,0.0,0.0,0.0,-0.03476715,0.0,0.0,nan,0.0,0.0,0.053031683,-0.0052627325,0.0035664886,0.0031739771,0.0,0.0,0.0,0.0,0.0
42227283,42226388,0.0,0.0,0.0,1.7593784,-0.62259936,0.0,0.0,0.0,0.0,0.0,0.0,0.0,0.0,-0.061468124,0.0,0.0,nan,0.0,0.0,0.053031683,0.0042319596,0.0056112856,0.011085033,0.0,0.0,0.0,0.0,0.0
42721430,42720587,0.0,0.0,0.0,1.6335881,-0.7469397,0.0,0.0,0.0,0.0,0.0,0.0,0.0,0.0,0.23080826,0.0,0.0,nan,0.0,0.0,0.053031683,-0.0038188398,0.010129005,0.00546889,0.0,0.0,0.0,0.0,0.0
43222380,43219777,0.0,0.0,0.0,1.4019213,-0.8532085,0.0,0.0,0.0,0.0,0.0,0.0,0.0,0.0,0.055936813,0.0,0.0,nan,0.0,0.0,0.053031683,0.013026446,0.012782864,0.0032954812,0.0,0.0,0.0,0.0,0.0
43731548,43728952,0.0,0.0,0.0,1.2032511,-0.8430609,0.0,0.0,0.0,0.0,0.0,0.0,0.0,0.0,0.13059711,0.0,0.0,nan,0.0,0.0,0.053031683,0.024820775,0.018296622,0.016618893,0.0,0.0,0.0,0.0,0.0
44229093,44228143,0.0,0.0,0.0,0.8759999,-0.71291804,0.0,0.0,0.0,0.0,0.0,0.0,0.0,0.0,0.046645164,0.0,0.0,nan,0.0,0.0,0.053031683,0.02833049,0.014455453,0.0012935996,0.0,0.0,0.0,0.0,0.0
44729984,44727335,0.0,0.0,0.0,0.6772043,-0.6011968,0.0,0.0,0.0,0.0,0.0,0.0,0.0,0.0,0.033906937,0.0,0.0,nan,0.0,0.0,0.053031683,0.020383328,0.017898098,0.0017249137,0.0,0.0,0.0,0.0,0.0
45229083,45226527,0.0,0.0,0.0,0.49832863,-0.45745486,0.0,0.0,0.0,0.0,0.0,0.0,0.0,0.0,0.07170677,0.0,0.0,nan,0.0,0.0,0.053031683,0.018510804,0.02615337,0.007558748,0.0,0.0,0.0,0.0,0.0
45726673,45725720,0.0,0.0,0.0,0.24336399,-0.16173601,0.0,0.0,0.0,0.0,0.0,0.0,0.0,0.0,0.0017137527,0.0,0.0,nan,0.0,0.0,0.053031683,0.041171767,0.022315413,0.0058131963,0.0,0.0,0.0,0.0,0.0
46227349,46224912,0.0,0.0,0.0,0.062218055,0.06206725,0.0,0.0,0.0,0.0,0.0,0.0,0.0,0.0,-0.08771801,0.0,0.0,nan,0.0,0.0,0.053031683,0.038635258,0.022132069,0.004650548,0.0,0.0,0.0,0.0,0.0
46724997,46724105,0.0,0.0,0.0,-0.13819788,0.33398342,0.0,0.0,0.0,0.0,0.0,0.0,0.0,0.0,0.21618652,0.0,0.0,nan,0.0,0.0,0.053031683,0.03444932,0.026113227,-0.010257974,0.0,0.0,0.0,0.0,0.0
47230887,47228291,0.0,0.0,0.0,-0.4130267,0.84668326,0.0,0.0,0.0,0.0,0.0,0.0,0.0,0.0,-0.023082733,0.0,0.0,nan,0.0,0.0,0.053031683,0.04173173,0.022999555,0.0066543072,0.0,0.0,0.0,0.0,0.0
47728416,47727490,0.0,0.0,0.0,-0.59238297,1.2184044,0.0,0.0,0.0,0.0,0.0,0.0,0.0,0.0,-0.16114807,0.0,0.0,nan,0.0,0.0,0.053031683,0.026989534,0.018293202,0.006241262,0.0,0.0,0.0,0.0,0.0
48229496,48226679,0.0,0.0,0.0,-0.82740146,1.8052924,0.0,0.0,0.0,0.0,0.0,0.0,0.0,0.0,0.15683174,0.0,0.0,nan,0.0,0.0,0.053031683,0.03259875,0.022955984,0.0069831014,0.0,0.0,0.0,0.0,0.0
48723423,48720882,0.0,0.0,0.0,-0.894422,2.139353,0.0,0.0,0.0,0.0,0.0,0.0,0.0,0.0,-0.08886242,0.0,0.0,nan,0.0,0.0,0.053031683,0.029491648,0.015090629,-0.0040730834,0.0,0.0,0.0,0.0,0.0
49722066,49719272,0.0,0.0,0.0,-0.91959435,2.9060962,0.0,0.0,0.0,0.0,0.0,0.0,0.0,0.0,-0.16268921,0.0,0.0,nan,0.0,0.0,0.053031683,0.023026854,-0.004189141,-0.001693517,0.0,0.0,0.0,0.0,0.0
50229310,50228452,0.0,0.0,0.0,-0.8740518,3.1114292,0.0,0.0,0.0,0.0,0.0,0.0,0.0,0.0,-0.1440525,0.0,0.0,nan,0.0,0.0,0.053031683,0.012603372,-0.006428536,-0.0019912869,0.0,0.0,0.0,0.0,0.0
50730237,50727653,0.0,0.0,0.0,-0.71124977,3.3280284,0.0,0.0,0.0,0.0,0.0,0.0,0.0,0.0,-0.119605064,0.0,0.0,nan,0.0,0.0,0.053031683,0.0077441633,-0.004560046,0.013914064,0.0,0.0,0.0,0.0,0.0
51227804,51226844,0.0,0.0,0.0,-0.6287556,3.3917327,0.0,0.0,0.0,0.0,0.0,0.0,0.0,0.0,-0.115961075,0.0,0.0,nan,0.0,0.0,0.053031683,0.008211553,-0.013839936,-0.005284786,0.0,0.0,0.0,0.0,0.0
51728681,51726042,0.0,0.0,0.0,-0.54819757,3.4235325,0.0,0.0,0.0,0.0,0.0,0.0,0.0,0.0,0.059879303,0.0,0.0,nan,0.0,0.0,0.053031683,0.006447047,-0.017605692,-8.505583e-05,0.0,0.0,0.0,0.0,0.0
52226225,52225238,0.0,0.0,0.0,-0.45208654,3.4592955,0.0,0.0,0.0,0.0,0.0,0.0,0.0,0.0,-0.14380932,0.0,0.0,nan,0.0,0.0,0.053031683,0.0003671944,-0.020504918,0.0049414337,0.0,0.0,0.0,0.0,0.0
52720352,52719445,0.0,0.0,0.0,-0.42827043,3.4285638,0.0,0.0,0.0,0.0,0.0,0.0,0.0,0.0,0.10376835,0.0,0.0,nan,0.0,0.0,0.053031683,0.0056060255,-0.0080839135,0.012174264,0.0,0.0,0.0,0.0,0.0
53229554,53228626,0.0,0.0,0.0,-0.43683362,3.3428915,0.0,0.0,0.0,0.0,0.0,0.0,0.0,0.0,0.043114662,0.0,0.0,nan,0.0,0.0,0.053031683,-0.005122453,-0.0106952265,0.013046235,0.0,0.0,0.0,0.0,0.0
53729029,53727824,0.0,0.0,0.0,-0.45835894,3.30179,0.0,0.0,0.0,0.0,0.0,0.0,0.0,0.0,0.3167019,0.0,0.0,nan,0.0,0.0,-0.055956364,-0.014046043,-0.007367827,0.013363317,0.0,0.0,0.0,0.0,0.0
54227947,54227023,0.0,0.0,0.0,-0.47754902,3.2523363,0.0,0.0,0.0,0.0,0.0,0.0,0.0,0.0,0.27930832,0.0,0.0,nan,0.0,0.0,-0.04840803,-0.014046043,-0.007367827,0.013363317,0.0,0.0,0.0,0.0,0.0
54727131,54726221,0.0,0.0,0.0,-0.46830565,3.177604,0.0,0.0,0.0,0.0,0.0,0.0,0.0,0.0,0.26000118,0.0,0.0,nan,0.0,0.0,-0.034343243,-0.014046043,-0.007367827,0.013363317,0.0,0.0,0.0,0.0,0.0
55226593,55225421,0.0,0.0,0.0,-0.43469834,3.1621146,0.0,0.0,0.0,0.0,0.0,0.0,0.0,0.0,0.1662941,0.0,0.0,nan,0.0,0.0,-0.054215908,-0.014046043,-0.007367827,0.013363317,0.0,0.0,0.0,0.0,0.0
55725522,55724621,0.0,0.0,0.0,-0.42256624,3.137361,0.0,0.0,0.0,0.0,0.0,0.0,0.0,0.0,0.28248024,0.0,0.0,nan,0.0,0.0,-0.032369137,-0.014046043,-0.007367827,0.013363317,0.0,0.0,0.0,0.0,0.0
56219784,56218830,0.0,0.0,0.0,-0.44040343,3.0864325,0.0,0.0,0.0,0.0,0.0,0.0,0.0,0.0,0.3654909,0.0,0.0,nan,0.0,0.0,-0.05135107,-0.014046043,-0.007367827,0.013363317,0.0,0.0,0.0,0.0,0.0
56729086,56728013,0.0,0.0,0.0,-0.4733877,3.0424063,0.0,0.0,0.0,0.0,0.0,0.0,0.0,0.0,0.22347164,0.0,0.0,nan,0.0,0.0,-0.065749645,-0.014046043,-0.007367827,0.013363317,0.0,0.0,0.0,0.0,0.0
57228225,57227214,0.0,0.0,0.0,-0.5539016,2.9262612,0.0,0.0,0.0,0.0,0.0,0.0,0.0,0.0,0.40481186,0.0,0.0,nan,0.0,0.0,-0.04216671,-0.014046043,-0.007367827,0.013363317,0.0,0.0,0.0,0.0,0.0
57727260,57726416,0.0,0.0,0.0,-0.6464796,2.7754512,0.0,0.0,0.0,0.0,0.0,0.0,0.0,0.0,0.23956776,0.0,0.0,nan,0.0,0.0,-0.05167246,-0.014046043,-0.007367827,0.013363317,0.0,0.0,0.0,0.0,0.0
58226753,58225616,0.0,0.0,0.0,-0.7557185,2.558201,0.0,0.0,0.0,0.0,0.0,0.0,0.0,0.0,0.23585892,0.0,0.0,nan,0.0,0.0,-0.08984208,-0.014046043,-0.007367827,0.013363317,0.0,0.0,0.0,0.0,0.0
58722420,58719826,0.0,0.0,0.0,-0.9215877,2.064701,0.0,0.0,0.0,0.0,0.0,0.0,0.0,0.0,0.17197704,0.0,0.0,nan,0.0,0.0,-0.06610346,-0.010235757,-0.013787147,-0.0064798146,0.0,0.0,0.0,0.0,0.0
59729196,59728215,0.0,0.0,0.0,-1.1591235,1.4992617,0.0,0.0,0.0,0.0,0.0,0.0,0.0,0.0,0.27592278,0.0,0.0,nan,0.0,0.0,-0.06610346,-0.023624778,0.03059119,-0.004715711,0.0,0.0,0.0,0.0,0.0
60228353,60227418,0.0,0.0,0.0,-1.374753,1.2949337,0.0,0.0,0.0,0.0,0.0,0.0,0.0,0.0,0.237916,0.0,0.0,nan,0.0,0.0,-0.06610346,-0.016487658,0.041938975,0.004665792,0.0,0.0,0.0,0.0,0.0
60724579,60721632,0.0,0.0,0.0,-1.6270553,1.0790516,0.0,0.0,0.0,0.0,0.0,0.0,0.0,0.0,0.2804098,0.0,0.0,nan,0.0,0.0,-0.06610346,-0.022868127,0.04469849,0.002448827,0.0,0.0,0.0,0.0,0.0
61221758,61220832,0.0,0.0,0.0,-2.0107841,0.68456954,0.0,0.0,0.0,0.0,0.0,0.0,0.0,0.0,0.28419304,0.0,0.0,nan,0.0,0.0,-0.06610346,-0.0026210696,0.049150527,0.0006816536,0.0,0.0,0.0,0.0,0.0
61732552,61730020,0.0,0.0,0.0,-2.1547518,0.4448304,0.0,0.0,0.0,0.0,0.0,0.0,0.0,0.0,0.14660835,0.0,0.0,nan,0.0,0.0,-0.06610346,-0.005479872,0.03425248,-0.013415247,0.0,0.0,0.0,0.0,0.0
62230141,62229224,0.0,0.0,0.0,-2.3160872,0.03522427,0.0,0.0,0.0,0.0,0.0,0.0,0.0,0.0,0.26033592,0.0,0.0,nan,0.0,0.0,-0.06610346,-0.022868767,0.030657679,-0.006549537,0.0,0.0,0.0,0.0,0.0
62719350,62718445,0.0,0.0,0.0,-2.5023131,-0.2301437,0.0,0.0,0.0,0.0,0.0,0.0,0.0,0.0,0.17036438,0.0,0.0,nan,0.0,0.0,-0.06610346,-0.0014618039,0.055572033,-0.01718989,0.0,0.0,0.0,0.0,0.0
63228537,63227633,0.0,0.0,0.0,-2.7433255,-0.46186963,0.0,0.0,0.0,0.0,0.0,0.0,0.0,0.0,0.014942169,0.0,0.0,nan,0.0,0.0,-0.06610346,0.018089406,0.05442518,-0.01171948,0.0,0.0,0.0,0.0,0.0
63729639,63726839,0.0,0.0,0.0,-3.118826,-0.7355634,0.0,0.0,0.0,0.0,0.0,0.0,0.0,0.0,0.08258724,0.0,0.0,nan,0.0,0.0,-0.06610346,0.011390857,0.047176763,-0.0241853,0.0,0.0,0.0,0.0,0.0
64228686,64226045,0.0,0.0,0.0,-3.3392897,-0.85822207,0.0,0.0,0.0,0.0,0.0,0.0,0.0,0.0,0.040215492,0.0,0.0,nan,0.0,0.0,-0.06610346,0.02502621,0.03683439,-0.017376512,0.0,0.0,0.0,0.0,0.0
64726182,64725249,0.0,0.0,0.0,-3.5912757,-0.9179526,0.0,0.0,0.0,0.0,0.0,0.0,0.0,0.0,0.19456482,0.0,0.0,nan,0.0,0.0,-0.06610346,0.016456753,0.031308323,-0.0071150213,0.0,0.0,0.0,0.0,0.0
65227106,65224456,0.0,0.0,0.0,-4.183974,-0.84710985,0.0,0.0,0.0,0.0,0.0,0.0,0.0,0.0,0.18663597,0.0,0.0,nan,0.0,0.0,-0.06610346,0.038803503,0.033402234,-0.01775664,0.0,0.0,0.0,0.0,0.0
65729673,65728657,0.0,0.0,0.0,-4.6569314,-0.7087085,0.0,0.0,0.0,0.0,0.0,0.0,0.0,0.0,0.04814911,0.0,0.0,nan,0.0,0.0,-0.06610346,0.03140498,0.018515438,0.00015832484,0.0,0.0,0.0,0.0,0.0
66230390,66227862,0.0,0.0,0.0,-5.244191,-0.41360092,0.0,0.0,0.0,0.0,0.0,0.0,0.0,0.0,0.1273489,0.0,0.0,nan,0.0,0.0,-0.06610346,0.040787235,0.0017160624,-0.015319645,0.0,0.0,0.0,0.0,0.0
66728029,66727069,0.0,0.0,0.0,-5.6177382,-0.13814746,0.0,0.0,0.0,0.0,0.0,0.0,0.0,0.0,0.060515404,0.0,0.0,nan,0.0,0.0,-0.06610346,0.034467638,-0.0065857545,-0.0035193563,0.0,0.0,0.0,0.0,0.0
67229194,67226277,0.0,0.0,0.0,-5.9816813,0.1541787,0.0,0.0,0.0,0.0,0.0,0.0,0.0,0.0,0.034007072,0.0,0.0,nan,0.0,0.0,-0.06610346,0.01584898,-0.038298573,-0.0071085542,0.0,0.0,0.0,0.0,0.0
67723112,67720493,0.0,0.0,0.0,-6.408837,0.6624257,0.0,0.0,0.0,0.0,0.0,0.0,0.0,0.0,0.03685665,0.0,0.0,nan,0.0,0.0,-0.06610346,0.009655982,-0.04685177,0.0051903874,0.0,0.0,0.0,0.0,0.0
68232279,68229686,0.0,0.0,0.0,-6.888376,1.0456649,0.0,0.0,0.0,0.0,0.0,0.0,0.0,0.0,0.077703476,0.0,0.0,nan,0.0,0.0,-0.06610346,0.02229549,-0.054337353,-0.005791202,0.0,0.0,0.0,0.0,0.0
68729850,68728893,0.0,0.0,0.0,-7.890502,1.6831249,0.0,0.0,0.0,0.0,0.0,0.0,0.0,0.0,0.054185867,0.0,0.0,nan,0.0,0.0,-0.06610346,0.004373811,-0.059949502,0.009539902,0.0,0.0,0.0,0.0,0.0
69219075,69218118,0.0,0.0,0.0,-8.758023,2.0201123,0.0,0.0,0.0,0.0,0.0,0.0,0.0,0.0,-0.3423853,0.0,0.0,nan,0.0,0.0,-0.06610346,0.00093142875,-0.05366984,0.014679477,0.0,0.0,0.0,0.0,0.0
69729891,69727311,0.0,0.0,0.0,-9.683467,2.199801,0.0,0.0,0.0,0.0,0.0,0.0,0.0,0.0,-0.18658543,0.0,0.0,nan,0.0,0.0,-0.06610346,0.001922667,-0.04583764,0.016628906,0.0,0.0,0.0,0.0,0.0
70227493,70226539,0.0,0.0,0.0,-11.003633,2.1708171,0.0,0.0,0.0,0.0,0.0,0.0,0.0,0.0,-0.114479065,0.0,0.0,nan,0.0,0.0,-0.06610346,0.004793778,-0.03731543,0.035689667,0.0,0.0,0.0,0.0,0.0
70728299,70725733,0.0,0.0,0.0,-11.712142,1.9826763,0.0,0.0,0.0,0.0,0.0,0.0,0.0,0.0,-0.1946001,0.0,0.0,nan,0.0,0.0,-0.06610346,0.003455907,-0.03013052,0.03505881,0.0,0.0,0.0,0.0,0.0
71225995,71224941,0.0,0.0,0.0,-12.386146,1.4276657,0.0,0.0,0.0,0.0,0.0,0.0,0.0,0.0,0.10994148,0.0,0.0,nan,0.0,0.0,-0.06610346,0.024575844,-0.02050586,0.034477264,0.0,0.0,0.0,0.0,0.0
71731690,71729144,0.0,0.0,0.0,-12.561443,0.96883893,0.0,0.0,0.0,0.0,0.0,0.0,0.0,0.0,0.0823555,0.0,0.0,nan,0.0,0.0,-0.06610346,0.013540328,-0.012611315,0.033745617,0.0,0.0,0.0,0.0,0.0
72229329,72228353,0.0,0.0,0.0,-12.657078,0.53602993,0.0,0.0,0.0,0.0,0.0,0.0,0.0,0.0,-0.13792038,0.0,0.0,nan,0.0,0.0,-0.06610346,0.035583824,-0.011118323,0.038743123,0.0,0.0,0.0,0.0,0.0
72730204,72727565,0.0,0.0,0.0,-12.667232,0.062934674,0.0,0.0,0.0,0.0,0.0,0.0,0.0,0.0,0.09965229,0.0,0.0,nan,0.0,0.0,-0.06610346,0.015635222,-0.022144854,0.029400602,0.0,0.0,0.0,0.0,0.0
73227754,73226776,0.0,0.0,0.0,-12.647857,-0.12940213,0.0,0.0,0.0,0.0,0.0,0.0,0.0,0.0,-0.23246098,0.0,0.0,nan,0.0,0.0,-0.06610346,0.030311346,-0.018237725,0.039226055,0.0,0.0,0.0,0.0,0.0
73726921,73725988,0.0,0.0,0.0,-12.530501,-0.23252934,0.0,0.0,0.0,0.0,0.0,0.0,0.0,0.0,0.030330658,0.0,0.0,nan,0.0,0.0,-0.06610346,0.042632237,-0.00011831522,0.031308815,0.0,0.0,0.0,0.0,0.0
74226286,74225199,0.0,0.0,0.0,-12.651746,-0.18260252,0.0,0.0,0.0,0.0,0.0,0.0,0.0,0.0,0.034654617,0.0,0.0,nan,0.0,0.0,-0.07265544,0.042632237,-0.00011831522,0.031308815,0.0,0.0,0.0,0.0,0.0
74730317,74729406,0.0,0.0,0.0,-12.867056,-0.18331686,0.0,0.0,0.0,0.0,0.0,0.0,0.0,0.0,-0.2690029,0.0,0.0,nan,0.0,0.0,-0.06523228,0.042632237,-0.00011831522,0.031308815,0.0,0.0,0.0,0.0,0.0
75229660,75228617,0.0,0.0,0.0,-13.099458,-0.14220795,0.0,0.0,0.0,0.0,0.0,0.0,0.0,0.0,-0.015201569,0.0,0.0,nan,0.0,0.0,-0.06330514,0.042632237,-0.00011831522,0.031308815,0.0,0.0,0.0,0.0,0.0
75728771,75727829,0.0,0.0,0.0,-13.140144,-0.10079109,0.0,0.0,0.0,0.0,0.0,0.0,0.0,0.0,-0.062067986,0.0,0.0,nan,0.0,0.0,-0.06086731,0.042632237,-0.00011831522,0.031308815,0.0,0.0,0.0,0.0,0.0
76228172,76227042,0.0,0.0,0.0,-13.153914,-0.05526621,0.0,0.0,0.0,0.0,0.0,0.0,0.0,0.0,-0.19625092,0.0,0.0,nan,0.0,0.0,-0.03359127,0.042632237,-0.00011831522,0.031308815,0.0,0.0,0.0,0.0,0.0
76727236,76726262,0.0,0.0,0.0,-12.974447,-0.022121858,0.0,0.0,0.0,0.0,0.0,0.0,0.0,0.0,-0.07097721,0.0,0.0,nan,0.0,0.0,-0.026610613,0.042632237,-0.00011831522,0.031308815,0.0,0.0,0.0,0.0,0.0
77226632,77225470,0.0,0.0,0.0,-12.685387,-0.018136691,0.0,0.0,0.0,0.0,0.0,0.0,0.0,0.0,-0.07825661,0.0,0.0,nan,0.0,0.0,-0.021290302,0.042632237,-0.00011831522,0.031308815,0.0,0.0,0.0,0.0,0.0
77720666,77719691,0.0,0.0,0.0,-12.110025,-0.05628377,0.0,0.0,0.0,0.0,0.0,0.0,0.0,0.0,-0.15768528,0.0,0.0,nan,0.0,0.0,-0.030498028,0.042632237,-0.00011831522,0.031308815,0.0,0.0,0.0,0.0,0.0
78230107,78228890,0.0,0.0,0.0,-11.706283,-0.10944398,0.0,0.0,0.0,0.0,0.0,0.0,0.0,0.0,-0.28856087,0.0,0.0,nan,0.0,0.0,-0.013203859,0.042632237,-0.00011831522,0.031308815,0.0,0.0,0.0,0.0,0.0
78729011,78728105,0.0,0.0,0.0,-11.245266,-0.20537536,0.0,0.0,0.0,0.0,0.0,0.0,0.0,0.0,-0.18790627,0.0,0.0,nan,0.0,0.0,-0.009231329,0.042632237,-0.00011831522,0.031308815,0.0,0.0,0.0,0.0,0.0
79727688,79726534,0.0,0.0,0.0,-10.035264,-0.53078485,0.0,0.0,0.0,0.0,0.0,0.0,0.0,0.0,-0.18189812,0.0,0.0,nan,0.0,0.0,-0.013698101,0.042632237,-0.00011831522,0.031308815,0.0,0.0,0.0,0.0,0.0
80226778,80225795,0.0,0.0,0.0,-9.35227,-0.7685287,0.0,0.0,0.0,0.0,0.0,0.0,0.0,0.0,-0.0035305023,0.0,0.0,nan,0.0,0.0,-0.026336908,0.042632237,-0.00011831522,0.031308815,0.0,0.0,0.0,0.0,0.0
80726033,80724970,0.0,0.0,0.0,-8.912334,-0.90377784,0.0,0.0,0.0,0.0,0.0,0.0,0.0,0.0,-0.23693752,0.0,0.0,nan,0.0,0.0,-0.048948526,0.042632237,-0.00011831522,0.031308815,0.0,0.0,0.0,0.0,0.0
81729375,81728404,0.0,0.0,0.0,-7.83363,-1.1300452,0.0,0.0,0.0,0.0,0.0,0.0,0.0,0.0,-0.23717785,0.0,0.0,nan,0.0,0.0,0.0044310093,0.042632237,-0.00011831522,0.031308815,0.0,0.0,0.0,0.0,0.0
82228635,82227607,0.0,0.0,0.0,-7.426509,-1.1777042,0.0,0.0,0.0,0.0,0.0,0.0,0.0,0.0,-0.4375639,0.0,0.0,nan,0.0,0.0,-0.016748905,0.042632237,-0.00011831522,0.031308815,0.0,0.0,0.0,0.0,0.0
82727903,82726824,0.0,0.0,0.0,-7.0167456,-1.2069703,0.0,0.0,0.0,0.0,0.0,0.0,0.0,0.0,-0.25975323,0.0,0.0,nan,0.0,0.0,-0.012107134,0.042632237,-0.00011831522,0.031308815,0.0,0.0,0.0,0.0,0.0
83226956,83226044,0.0,0.0,0.0,-6.403544,-1.2104491,0.0,0.0,0.0,0.0,0.0,0.0,0.0,0.0,-0.27601814,0.0,0.0,nan,0.0,0.0,-0.024355888,0.042632237,-0.00011831522,0.031308815,0.0,0.0,0.0,0.0,0.0
83721250,83720266,0.0,0.0,0.0,-5.964198,-1.1520997,0.0,0.0,0.0,0.0,0.0,0.0,0.0,0.0,-0.2571478,0.0,0.0,nan,0.0,0.0,-0.00075149536,0.042632237,-0.00011831522,0.031308815,0.0,0.0,0.0,0.0,0.0
84220533,84219485,0.0,0.0,0.0,-5.2962346,-0.9960014,0.0,0.0,0.0,0.0,0.0,0.0,0.0,0.0,-0.2256031,0.0,0.0,nan,0.0,0.0,0.005376339,0.042632237,-0.00011831522,0.031308815,0.0,0.0,0.0,0.0,0.0
84729591,84728687,0.0,0.0,0.0,-4.8572016,-0.89221406,0.0,0.0,0.0,0.0,0.0,0.0,0.0,0.0,-0.43318558,0.0,0.0,nan,0.0,0.0,0.02027917,0.042632237,-0.00011831522,0.031308815,0.0,0.0,0.0,0.0,0.0
85228991,85227906,0.0,0.0,0.0,-4.450591,-0.7882547,0.0,0.0,0.0,0.0,0.0,0.0,0.0,0.0,-0.019726753,0.0,0.0,nan,0.0,0.0,0.023036242,0.042632237,-0.00011831522,0.031308815,0.0,0.0,0.0,0.0,0.0
85728066,85727124,0.0,0.0,0.0,-3.853463,-0.6422537,0.0,0.0,0.0,0.0,0.0,0.0,0.0,0.0,0.042734146,0.0,0.0,nan,0.0,0.0,0.036735773,0.042632237,-0.00011831522,0.031308815,0.0,0.0,0.0,0.0,0.0
86227524,86226343,0.0,0.0,0.0,-3.480732,-0.578608,0.0,0.0,0.0,0.0,0.0,0.0,0.0,0.0,-0.03479576,0.0,0.0,nan,0.0,0.0,0.006156683,0.042632237,-0.00011831522,0.031308815,0.0,0.0,0.0,0.0,0.0
86726522,86725562,0.0,0.0,0.0,-2.9719243,-0.47389874,0.0,0.0,0.0,0.0,0.0,0.0,0.0,0.0,-0.04851818,0.0,0.0,nan,0.0,0.0,0.022307038,0.042632237,-0.00011831522,0.031308815,0.0,0.0,0.0,0.0,0.0
87720134,87719010,0.0,0.0,0.0,-2.3943927,-0.32157198,0.0,0.0,0.0,0.0,0.0,0.0,0.0,0.0,-0.17128372,0.0,0.0,nan,0.0,0.0,0.059352756,0.042632237,-0.00011831522,0.031308815,0.0,0.0,0.0,0.0,0.0
88229241,88228214,0.0,0.0,0.0,-1.9026351,-0.18916649,0.0,0.0,0.0,0.0,0.0,0.0,0.0,0.0,-0.2092123,0.0,0.0,nan,0.0,0.0,0.039508343,0.042632237,-0.00011831522,0.031308815,0.0,0.0,0.0,0.0,0.0
88728469,88727434,0.0,0.0,0.0,-1.582685,-0.11752071,0.0,0.0,0.0,0.0,0.0,0.0,0.0,0.0,-0.038701057,0.0,0.0,nan,0.0,0.0,0.042147994,0.042632237,-0.00011831522,0.031308815,0.0,0.0,0.0,0.0,0.0
89227674,89226658,0.0,0.0,0.0,-1.3128161,-0.05982522,0.0,0.0,0.0,0.0,0.0,0.0,0.0,0.0,-0.005171776,0.0,0.0,nan,0.0,0.0,0.071597815,0.042632237,-0.00011831522,0.031308815,0.0,0.0,0.0,0.0,0.0
89726944,89725877,0.0,0.0,0.0,-0.97292835,0.027033485,0.0,0.0,0.0,0.0,0.0,0.0,0.0,0.0,-0.12057686,0.0,0.0,nan,0.0,0.0,0.10675597,0.042632237,-0.00011831522,0.031308815,0.0,0.0,0.0,0.0,0.0
90230990,90230089,0.0,0.0,0.0,-0.7746466,0.08224258,0.0,0.0,0.0,0.0,0.0,0.0,0.0,0.0,-0.053157806,0.0,0.0,nan,0.0,0.0,0.08967519,0.042632237,-0.00011831522,0.031308815,0.0,0.0,0.0,0.0,0.0
90720231,90719339,0.0,0.0,0.0,-0.52519643,0.18619128,0.0,0.0,0.0,0.0,0.0,0.0,0.0,0.0,-0.16936302,0.0,0.0,nan,0.0,0.0,0.12799287,0.042632237,-0.00011831522,0.031308815,0.0,0.0,0.0,0.0,0.0
91229407,91228532,0.0,0.0,0.0,-0.37217456,0.2101354,0.0,0.0,0.0,0.0,0.0,0.0,0.0,0.0,0.09402275,0.0,0.0,nan,0.0,0.0,0.13739169,0.042632237,-0.00011831522,0.031308815,0.0,0.0,0.0,0.0,0.0
91728782,91727792,0.0,0.0,0.0,-0.22035381,0.18625706,0.0,0.0,0.0,0.0,0.0,0.0,0.0,0.0,-0.08082676,0.0,0.0,nan,0.0,0.0,0.17626011,0.042632237,-0.00011831522,0.031308815,0.0,0.0,0.0,0.0,0.0
92227939,92226977,0.0,0.0,0.0,0.05820394,0.15517114,0.0,0.0,0.0,0.0,0.0,0.0,0.0,0.0,-0.06978226,0.0,0.0,nan,0.0,0.0,0.20177805,-0.043892995,-0.00017482042,-0.009401396,0.0,0.0,0.0,0.0,0.0
92722306,92721207,0.0,0.0,0.0,0.26275882,1.2543306,0.0,0.0,0.0,0.0,0.0,0.0,0.0,0.0,-0.06139183,0.0,0.0,nan,0.0,0.0,0.20177805,-0.05241546,-0.005444765,0.00819625,0.0,0.0,0.0,0.0,0.0
93223233,93220429,0.0,0.0,0.0,0.85740227,2.7466955,0.0,0.0,0.0,0.0,0.0,0.0,0.0,0.0,-0.03567314,0.0,0.0,nan,0.0,0.0,0.20177805,-0.05218692,-0.0055577457,-0.0028162897,0.0,0.0,0.0,0.0,0.0
93732443,93729637,0.0,0.0,0.0,1.4036227,3.5045228,0.0,0.0,0.0,0.0,0.0,0.0,0.0,0.0,-0.035930634,0.0,0.0,nan,0.0,0.0,0.20177805,-0.050798163,-0.0051362067,-0.004694864,0.0,0.0,0.0,0.0,0.0
94231341,94228860,0.0,0.0,0.0,2.0040848,4.140987,0.0,0.0,0.0,0.0,0.0,0.0,0.0,0.0,-0.060570717,0.0,0.0,nan,0.0,0.0,0.20177805,-0.043101743,-0.007848248,0.0070903897,0.0,0.0,0.0,0.0,0.0
94729008,94728084,0.0,0.0,0.0,2.9676397,4.941005,0.0,0.0,0.0,0.0,0.0,0.0,0.0,0.0,-0.077960014,0.0,0.0,nan,0.0,0.0,0.20177805,-0.054524705,-0.009324297,-0.019827873,0.0,0.0,0.0,0.0,0.0
95229844,95227308,0.0,0.0,0.0,3.7737615,5.4264836,0.0,0.0,0.0,0.0,0.0,0.0,0.0,0.0,-0.06981754,0.0,0.0,nan,0.0,0.0,0.20177805,-0.053296223,-0.008453101,-0.0034927726,0.0,0.0,0.0,0.0,0.0
95727605,95726571,0.0,0.0,0.0,4.7257156,5.7253056,0.0,0.0,0.0,0.0,0.0,0.0,0.0,0.0,-0.1225729,0.0,0.0,nan,0.0,0.0,0.20177805,-0.025310919,-0.0027581267,-0.0009983778,0.0,0.0,0.0,0.0,0.0
96228709,96225756,0.0,0.0,0.0,5.0117865,5.742474,0.0,0.0,0.0,0.0,0.0,0.0,0.0,0.0,-0.07588673,0.0,0.0,nan,0.0,0.0,0.20177805,-0.040178627,-0.012742329,0.0053983033,0.0,0.0,0.0,0.0,0.0
96730960,96729973,0.0,0.0,0.0,5.4145565,5.928191,0.0,0.0,0.0,0.0,0.0,0.0,0.0,0.0,-0.31584835,0.0,0.0,nan,0.0,0.0,0.20177805,-0.031502828,-0.00083702616,0.011728719,0.0,0.0,0.0,0.0,0.0
97232060,97229198,0.0,0.0,0.0,5.822556,6.2810087,0.0,0.0,0.0,0.0,0.0,0.0,0.0,0.0,-0.18071365,0.0,0.0,nan,0.0,0.0,0.20177805,-0.03438562,-0.008679725,0.0060661435,0.0,0.0,0.0,0.0,0.0
97721355,97718439,0.0,0.0,0.0,5.9703,6.54625,0.0,0.0,0.0,0.0,0.0,0.0,0.0,0.0,-0.14629555,0.0,0.0,nan,0.0,0.0,0.20177805,-0.021198437,0.0021579373,0.0024457723,0.0,0.0,0.0,0.0,0.0
98228587,98227652,0.0,0.0,0.0,5.947801,6.730196,0.0,0.0,0.0,0.0,0.0,0.0,0.0,0.0,-0.18916893,0.0,0.0,nan,0.0,0.0,-0.0443073,-0.01134333,0.007897098,-0.00068606436,0.0,0.0,0.0,0.0,0.0
98727960,98726873,0.0,0.0,0.0,5.602763,7.0796385,0.0,0.0,0.0,0.0,0.0,0.0,0.0,0.0,0.0922842,0.0,0.0,nan,0.0,0.0,-0.023324057,-0.01134333,0.007897098,-0.00068606436,0.0,0.0,0.0,0.0,0.0
99227001,99226100,0.0,0.0,0.0,5.4469004,7.3855443,0.0,0.0,0.0,0.0,0.0,0.0,0.0,0.0,-0.18153858,0.0,0.0,nan,0.0,0.0,-0.06222956,-0.01134333,0.007897098,-0.00068606436,0.0,0.0,0.0,0.0,0.0
99721301,99720333,0.0,0.0,0.0,5.271934,7.931791,0.0,0.0,0.0,0.0,0.0,0.0,0.0,0.0,0.025943756,0.0,0.0,nan,0.0,0.0,-0.052033924,-0.01134333,0.007897098,-0.00068606436,0.0,0.0,0.0,0.0,0.0
100230375,100229544,0.0,0.0,0.0,5.2254086,8.295799,0.0,0.0,0.0,0.0,0.0,0.0,0.0,0.0,0.055547714,0.0,0.0,nan,0.0,0.0,-0.060955256,-0.01134333,0.007897098,-0.00068606436,0.0,0.0,0.0,0.0,0.0
100729800,100728770,0.0,0.0,0.0,5.2421503,8.633564,0.0,0.0,0.0,0.0,0.0,0.0,0.0,0.0,0.1784668,0.0,0.0,nan,0.0,0.0,-0.00925836,-0.01134333,0.007897098,-0.00068606436,0.0,0.0,0.0,0.0,0.0
101228952,101227998,0.0,0.0,0.0,5.262697,8.976553,0.0,0.0,0.0,0.0,0.0,0.0,0.0,0.0,0.12976933,0.0,0.0,nan,0.0,0.0,-0.01253248,-0.01134333,0.007897098,-0.00068606436,0.0,0.0,0.0,0.0,0.0
101728286,101727225,0.0,0.0,0.0,5.231053,9.151794,0.0,0.0,0.0,0.0,0.0,0.0,0.0,0.0,-0.12065029,0.0,0.0,nan,0.0,0.0,-0.017431006,-0.01134333,0.007897098,-0.00068606436,0.0,0.0,0.0,0.0,0.0
102227547,102226451,0.0,0.0,0.0,5.173405,9.30175,0.0,0.0,0.0,0.0,0.0,0.0,0.0,0.0,0.06772423,0.0,0.0,nan,0.0,0.0,-0.007480435,-0.01134333,0.007897098,-0.00068606436,0.0,0.0,0.0,0.0,0.0
102726607,102725680,0.0,0.0,0.0,5.1031837,9.312838,0.0,0.0,0.0,0.0,0.0,0.0,0.0,0.0,0.21744347,0.0,0.0,nan,0.0,0.0,-0.015597582,-0.01134333,0.007897098,-0.00068606436,0.0,0.0,0.0,0.0,0.0
103225931,103224907,0.0,0.0,0.0,5.0260434,9.310023,0.0,0.0,0.0,0.0,0.0,0.0,0.0,0.0,0.24332523,0.0,0.0,nan,0.0,0.0,-0.02704642,-0.01134333,0.007897098,-0.00068606436,0.0,0.0,0.0,0.0,0.0
103730055,103729127,0.0,0.0,0.0,4.8958387,9.244868,0.0,0.0,0.0,0.0,0.0,0.0,0.0,0.0,0.15881252,0.0,0.0,nan,0.0,0.0,-0.011131942,-0.01134333,0.007897098,-0.00068606436,0.0,0.0,0.0,0.0,0.0
104229321,104228356,0.0,0.0,0.0,4.8168626,9.187373,0.0,0.0,0.0,0.0,0.0,0.0,0.0,0.0,0.013701439,0.0,0.0,nan,0.0,0.0,-0.015310854,-0.01134333,0.007897098,-0.00068606436,0.0,0.0,0.0,0.0,0.0
104728683,104727584,0.0,0.0,0.0,4.677508,9.07268,0.0,0.0,0.0,0.0,0.0,0.0,0.0,0.0,0.112005234,0.0,0.0,nan,0.0,0.0,-0.031553745,-0.01134333,0.007897098,-0.00068606436,0.0,0.0,0.0,0.0,0.0
105227866,105226814,0.0,0.0,0.0,4.573496,8.993394,0.0,0.0,0.0,0.0,0.0,0.0,0.0,0.0,0.10539436,0.0,0.0,nan,0.0,0.0,0.012026481,-0.01134333,0.007897098,-0.00068606436,0.0,0.0,0.0,0.0,0.0
105726881,105726042,0.0,0.0,0.0,4.4285126,8.858596,0.0,0.0,0.0,0.0,0.0,0.0,0.0,0.0,-0.056308746,0.0,0.0,nan,0.0,0.0,0.022325993,-0.01134333,0.007897098,-0.00068606436,0.0,0.0,0.0,0.0,0.0
106226230,106225271,0.0,0.0,0.0,4.087689,8.582102,0.0,0.0,0.0,0.0,0.0,0.0,0.0,0.0,0.107289314,0.0,0.0,nan,0.0,0.0,0.021233603,-0.01134333,0.007897098,-0.00068606436,0.0,0.0,0.0,0.0,0.0
106725523,106724501,0.0,0.0,0.0,3.7934585,8.367677,0.0,0.0,0.0,0.0,0.0,0.0,0.0,0.0,-0.009952545,0.0,0.0,nan,0.0,0.0,-0.00895489,-0.01134333,0.007897098,-0.00068606436,0.0,0.0,0.0,0.0,0.0
107229770,107228723,0.0,0.0,0.0,3.4915903,8.095109,0.0,0.0,0.0,0.0,0.0,0.0,0.0,0.0,-0.048171997,0.0,0.0,nan,0.0,0.0,-0.011721879,-0.01134333,0.007897098,-0.00068606436,0.0,0.0,0.0,0.0,0.0
107728912,107727953,0.0,0.0,0.0,3.1794925,7.666537,0.0,0.0,0.0,0.0,0.0,0.0,0.0,0.0,0.06860733,0.0,0.0,nan,0.0,0.0,-0.005824223,-0.01134333,0.007897098,-0.00068606436,0.0,0.0,0.0,0.0,0.0
108228179,108227184,0.0,0.0,0.0,3.0375853,7.3497386,0.0,0.0,0.0,0.0,0.0,0.0,0.0,0.0,0.14907837,0.0,0.0,nan,0.0,0.0,-0.016422763,-0.01134333,0.007897098,-0.00068606436,0.0,0.0,0.0,0.0,0.0
108727426,108726430,0.0,0.0,0.0,2.950421,6.89106,0.0,0.0,0.0,0.0,0.0,0.0,0.0,0.0,0.111439705,0.0,0.0,nan,0.0,0.0,-0.05785928,-0.01134333,0.007897098,-0.00068606436,0.0,0.0,0.0,0.0,0.0
109226609,109225645,0.0,0.0,0.0,2.944998,6.6073594,0.0,0.0,0.0,0.0,0.0,0.0,0.0,0.0,-0.06032276,0.0,0.0,nan,0.0,0.0,-0.051952183,-0.01134333,0.007897098,-0.00068606436,0.0,0.0,0.0,0.0,0.0
109725967,109724876,0.0,0.0,0.0,2.9554396,6.3358746,0.0,0.0,0.0,0.0,0.0,0.0,0.0,0.0,-0.12501144,0.0,0.0,nan,0.0,0.0,-0.070243075,-0.01134333,0.007897098,-0.00068606436,0.0,0.0,0.0,0.0,0.0
110724301,110723339,0.0,0.0,0.0,2.9769766,5.753347,0.0,0.0,0.0,0.0,0.0,0.0,0.0,0.0,0.041344643,0.0,0.0,nan,0.0,0.0,-0.009988815,-0.01134333,0.007897098,-0.00068606436,0.0,0.0,0.0,0.0,0.0
111727734,111726795,0.0,0.0,0.0,2.7489705,5.0783086,0.0,0.0,0.0,0.0,0.0,0.0,0.0,0.0,0.50951195,0.0,0.0,nan,0.0,0.0,0.09096052,-0.01134333,0.007897098,-0.00068606436,0.0,0.0,0.0,0.0,0.0
112227118,112226027,0.0,0.0,0.0,2.5879993,4.694222,0.0,0.0,0.0,0.0,0.0,0.0,0.0,0.0,0.5625706,0.0,0.0,nan,0.0,0.0,0.098849535,-0.01134333,0.007897098,-0.00068606436,0.0,0.0,0.0,0.0,0.0
112721250,112720267,0.0,0.0,0.0,2.3460603,4.1168995,0.0,0.0,0.0,0.0,0.0,0.0,0.0,0.0,1.1370182,0.0,0.0,nan,0.0,0.0,0.09151493,-0.01134333,0.007897098,-0.00068606436,0.0,0.0,0.0,0.0,0.0
113230640,113229486,0.0,0.0,0.0,2.1933625,3.7448776,0.0,0.0,0.0,0.0,0.0,0.0,0.0,0.0,1.1874876,0.0,0.0,nan,0.0,0.0,0.17214997,-0.01134333,0.007897098,-0.00068606436,0.0,0.0,0.0,0.0,0.0
113729764,113728718,0.0,0.0,0.0,0.033348996,-0.011038209,0.0,0.0,0.0,0.0,0.0,0.0,0.0,0.0,1.1941471,0.0,0.0,nan,0.0,0.0,0.1701881,-0.01134333,0.007897098,-0.00068606436,0.0,0.0,0.0,0.0,0.0
