timestamp,timestamp_sample,ref_timestamp,ref_lat,ref_lon,x,y,z,delta_xy[0],delta_xy[1],delta_z,vx,vy,vz,z_deriv,delta_vxy[0],delta_vxy[1],delta_vz,ax,ay,az,heading,delta_heading,ref_alt,dist_bottom,eph,epv,evh,evv,vxy_max,vz_max,hagl_min,hagl_max,xy_valid,z_valid,v_xy_valid,v_z_valid,xy_reset_counter,z_reset_counter,vxy_reset_counter,vz_reset_counter,heading_reset_counter,xy_global,z_global,dist_bottom_valid,dist_bottom_sensor_bitfield
22227445,22226924,0,nan,nan,-0.03197993,0.013828404,0.37524983,0.0,0.0,-0.00012689829,-0.058549862,0.019780617,0.013495932,-0.025851745,-0.0063445233,0.013964439,-0.020002015,0.11008448,0.10026185,0.26106527,-0.3007994,0.005229924,nan,0.10143408,0.39541677,0.6974556,0.3353214,0.26893526,inf,inf,inf,inf,0,1,0,1,1,3,1,3,2,0,0,1,0
22727594,22726938,0,nan,nan,-0.05779345,0.015914973,0.3792061,0.0,0.0,-0.00012689829,-0.1151695,0.023866544,0.017067945,-0.008861966,-0.0063445233,0.013964439,-0.020002015,0.3194398,-0.013723727,-0.17105319,-0.2986751,0.005229924,nan,0.10812816,0.35917446,0.6768163,0.300474,0.25270507,inf,inf,inf,inf,0,1,0,1,1,3,1,3,2,0,0,1,0
23223367,23222777,0,nan,nan,-0.10079118,0.022086006,0.36868215,0.0,0.0,-0.00012689829,-0.1814305,0.048546486,-0.016361337,-0.0460583,-0.0063445233,0.013964439,-0.020002015,-0.6598505,0.8942676,-0.0193996,-0.29601648,0.005229924,nan,0.10977751,0.4368595,0.66949666,0.34089965,0.2412099,inf,inf,inf,inf,0,1,0,1,1,3,1,3,2,0,0,1,0
23728352,23727374,0,nan,nan,-0.22322568,0.041890334,0.2966528,0.0,0.0,-0.00012689829,-0.2995678,0.0024768515,-0.2317389,-0.25348863,-0.0063445233,0.013964439,-0.020002015,-0.07929941,-0.23694967,0.077151075,-0.2804524,0.005229924,nan,0.18180686,0.6080095,0.6622366,0.4595703,0.23066242,inf,inf,inf,inf,0,1,0,1,1,3,1,3,2,0,0,1,0
24227950,24227610,0,nan,nan,-0.3839988,0.028134083,0.21417531,0.0,0.0,-0.00012689829,-0.40085244,-0.04384612,-0.0527363,-0.047695614,-0.0063445233,0.013964439,-0.020002015,-0.51486075,-0.44516203,1.1775943,-0.25160906,0.005229924,nan,0.26428434,0.8374566,0.64410007,0.5965169,0.21825212,inf,inf,inf,inf,0,1,0,1,1,3,1,3,2,0,0,1,0
24723854,24723359,0,nan,nan,-0.6128941,-0.0014962852,0.23225702,0.0,0.0,-0.00012689829,-0.53899485,-0.06718834,-0.1286657,-0.11442317,-0.0063445233,0.013964439,-0.020002015,-0.46390668,-0.83263236,-0.45285925,-0.2729789,0.005229924,nan,0.24620263,1.1354231,0.6377979,0.74527085,0.20963007,inf,inf,inf,inf,0,1,0,1,1,3,1,3,2,0,0,1,0
25729970,25728641,0,nan,nan,-1.2203542,-0.097948775,-0.14591318,0.0,0.0,-0.00012689829,-0.7412562,-0.09945117,-0.25047556,-0.23848449,-0.0063445233,0.013964439,-0.020002015,-0.19975956,-0.12057592,-0.012934739,-0.14686641,0.005229924,nan,0.62437284,1.9366835,0.61600715,1.0478266,0.19226705,inf,inf,inf,inf,0,1,0,1,1,3,1,3,2,0,0,1,0
26724830,26724495,0,nan,nan,-1.8169012,-0.19162925,-0.34309244,0.0,0.0,-0.00012689829,-0.75120395,-0.086734675,-0.30190253,-0.29927766,-0.0063445233,0.013964439,-0.020002015,0.17883968,-0.14140007,-0.7661207,0.30323306,0.005229924,nan,0.8215521,2.8900821,0.60544884,1.2873487,0.1796689,inf,inf,inf,inf,0,1,0,1,1,3,1,3,2,0,0,1,0
27721189,27720361,0,nan,nan,-2.0456321,-0.24264547,-0.62927485,0.0,0.0,-0.00012689829,-0.6713755,-0.06681248,-0.24572112,-0.23759714,-0.0063445233,0.013964439,-0.020002015,-0.09010274,0.16105443,0.36129403,0.57132614,0.005229924,nan,1.1077344,3.7190862,0.58605796,1.3874367,0.16736525,inf,inf,inf,inf,0,1,0,1,1,3,1,3,2,0,0,1,0
28721513,28720758,0,nan,nan,-1.8414223,-0.11957864,-0.81667775,0.0,0.0,-0.00012689829,-0.4497052,0.1836071,-0.1952799,-0.17624582,-0.0063445233,0.013964439,-0.020002015,0.109268874,0.1201126,0.055166867,0.81741095,0.005229924,nan,1.2951374,4.232221,0.5700422,1.3583649,0.15797755,inf,inf,inf,inf,0,1,0,1,1,3,1,3,2,0,0,0,0
29216979,29216635,0,nan,nan,-1.6173241,0.032248702,-0.97896457,0.0,0.0,-0.00012689829,-0.3577133,0.30059344,-0.50197864,-0.47732985,-0.0063445233,0.013964439,-0.020002015,-0.15400511,0.17590575,0.1778405,0.948632,0.005229924,nan,1.4574242,4.468605,0.56656915,1.3454511,0.15510973,inf,inf,inf,inf,0,1,0,1,1,3,1,3,2,0,0,0,0
29728541,29725816,0,nan,nan,-1.4080343,0.20721322,-1.2307034,0.0,0.0,-0.00012689829,-0.36703974,0.37466896,-0.5192401,-0.47855088,-0.0063445233,0.013964439,-0.020002015,0.11614922,0.029615378,0.70866674,1.0867501,-0.009342181,nan,1.709163,4.432719,0.5646165,1.2565747,0.15291254,inf,inf,inf,inf,0,1,0,1,1,3,1,3,3,0,0,0,0
30230881,30226235,0,nan,nan,-1.2333729,0.34246823,-1.4383796,0.0,0.0,-0.00012689829,-0.3543911,0.342156,-0.49031833,-0.43692648,-0.0063445233,0.013964439,-0.020002015,-0.35830185,-0.009607374,-0.5840778,1.2365522,-0.009342181,nan,1.9168394,4.547772,0.5546819,1.2011609,0.14932269,inf,inf,inf,inf,0,1,0,1,1,3,1,3,3,0,0,0,0
30728164,30726232,0,nan,nan,-1.1059526,0.44921455,-1.6401925,0.0,0.0,-0.00012689829,-0.3459761,0.37676942,-0.4134342,-0.35591263,-0.0063445233,0.013964439,-0.020002015,-0.33415344,-0.027842266,0.53841555,1.3657821,-0.009342181,nan,2.118652,4.6204433,0.55243284,1.1666441,0.14788616,inf,inf,inf,inf,0,1,0,1,1,3,1,3,3,0,0,0,0
31222458,31222097,0,nan,nan,-1.0094113,0.5288654,-1.7517743,0.0,0.0,-0.00012689829,-0.36698928,0.3719688,-0.15742885,-0.09837516,-0.0063445233,0.013964439,-0.020002015,-0.27160516,-0.051717695,0.41122952,1.4593021,-0.009342181,nan,2.230234,4.4356313,0.5504863,1.1073452,0.14702143,inf,inf,inf,inf,0,1,0,1,1,3,1,3,3,0,0,0,0
31722838,31722253,0,nan,nan,-0.962743,0.60374546,-1.7382816,0.0,0.0,-0.00012689829,-0.37102744,0.37610805,0.018314188,0.085518286,-0.0063445233,0.013964439,-0.020002015,-0.16195843,0.250929,0.5432707,1.5349963,-0.009342181,nan,2.2167413,4.4562006,0.54109854,1.1130792,0.14540082,inf,inf,inf,inf,0,1,0,1,1,3,1,3,3,0,0,0,0
32222840,32222451,0,nan,nan,-0.93595624,0.655416,-1.7222306,0.0,0.0,-0.00012689829,-0.40857738,0.3805214,-0.1378592,-0.07653238,-0.0063445233,0.013964439,-0.020002015,-0.13866085,0.08090662,-0.44711515,1.6128631,-0.009342181,nan,2.2006903,4.2754045,0.54025304,1.1034827,0.14570813,inf,inf,inf,inf,0,1,0,1,1,3,1,3,3,0,0,0,0
32724994,32722735,0,nan,nan,-0.9380442,0.70438325,-1.8427969,0.0,0.0,-0.00012689829,-0.442597,0.3915031,-0.39357096,-0.3362863,-0.0063445233,0.013964439,-0.020002015,-0.26769873,-0.038465854,-0.6301678,1.6928989,-0.009342181,nan,2.3212566,4.317378,0.5411335,1.1450437,0.14670278,inf,inf,inf,inf,0,1,0,1,1,3,1,3,3,0,0,0,0
33228174,33227572,0,nan,nan,-0.97298795,0.74924386,-1.9673089,0.0,0.0,-0.00012689829,-0.4940952,0.3413119,-0.20889725,-0.14971545,-0.0063445233,0.013964439,-0.020002015,-0.2601259,-0.5533946,-0.1425162,1.7453895,-0.009342181,nan,2.4457686,4.1673965,0.5348975,1.1551286,0.14642361,inf,inf,inf,inf,0,1,0,1,1,3,1,3,3,0,0,0,0
33733454,33732196,0,nan,nan,-1.0231804,0.7649809,-2.0285242,0.0,0.0,-0.00012689829,-0.550805,0.29045817,-0.1403967,-0.087993786,-0.0063445233,0.013964439,-0.020002015,0.047937684,0.17377041,0.14385797,1.7754354,-0.009342181,nan,2.5069838,4.224398,0.53565925,1.2028679,0.14759049,inf,inf,inf,inf,0,1,0,1,1,3,1,3,3,0,0,0,0
34228600,34227939,0,nan,nan,-1.0944824,0.7431903,-2.0648873,0.0,0.0,-0.00012689829,-0.5824457,0.21847,-0.060840677,-0.017001284,-0.0063445233,0.013964439,-0.020002015,-0.17481434,-0.0072336984,0.47910002,1.8204904,-0.009342181,nan,2.543347,4.297061,0.5307592,1.2495112,0.14791782,inf,inf,inf,inf,0,1,0,1,1,3,1,3,3,0,0,0,0
34720002,34719208,0,nan,nan,-1.1519221,0.67586756,-2.0616167,0.0,0.0,-0.00012689829,-0.61409485,0.16453832,0.08030509,0.109105095,-0.0063445233,0.013964439,-0.020002015,-0.4100908,0.04597359,0.3004065,1.8593982,-0.009342181,nan,2.5400763,4.1946573,0.53258085,1.2616713,0.1493445,inf,inf,inf,inf,0,1,0,1,1,3,1,3,3,0,0,0,0
35224539,35223913,0,nan,nan,-1.2316463,0.6166761,-1.9503994,0.0,0.0,-0.00012689829,-0.6324039,0.15819995,0.37901297,0.39212516,-0.0063445233,0.013964439,-0.020002015,0.047900308,0.27158564,1.2508057,1.8901138,-0.009342181,nan,2.428859,4.2825084,0.5335933,1.2980462,0.15049466,inf,inf,inf,inf,0,1,0,1,1,3,1,3,3,0,0,0,0
36229475,36228952,0,nan,nan,-1.202731,0.48289773,-1.7021351,0.0,0.0,-0.00012689829,-0.32062882,0.16428383,0.13814971,0.119789116,-0.0063445233,0.013964439,-0.020002015,0.23740655,0.5235947,0.18489748,2.0201805,-0.009342181,nan,2.1805947,4.3192887,0.5339771,1.3336807,0.15174137,inf,inf,inf,inf,0,1,0,1,1,3,1,3,3,0,0,0,0
36729985,36729345,0,nan,nan,-1.0667746,0.4608268,-1.6674423,0.0,0.0,-0.00012689829,-0.20488046,0.14468642,0.07050656,0.04974399,-0.0063445233,0.013964439,-0.020002015,0.029639445,-0.06755558,-0.060451027,2.007125,-0.009342181,nan,2.145902,4.242512,0.53791404,1.3223337,0.1527551,inf,inf,inf,inf,0,1,0,1,1,3,1,3,3,0,0,0,0
37230904,37229397,0,nan,nan,-0.8974163,0.4131484,-1.6499267,0.0,0.0,-0.00012689829,-0.1109871,0.097808465,0.015037111,-0.001597872,-0.0063445233,0.013964439,-0.020002015,-0.16465631,-0.41498956,-0.07110238,1.9511389,-0.009342181,nan,2.1283863,4.3456407,0.53966975,1.3407952,0.15331772,inf,inf,inf,inf,0,1,0,1,1,3,1,3,3,0,0,0,0
37725564,37725229,0,nan,nan,-0.7483698,0.36867315,-1.6312685,0.0,0.0,-0.00012689829,-0.13085027,0.08545258,0.120372154,0.097746745,-0.0063445233,0.013964439,-0.020002015,-0.3538013,0.34185013,0.8976933,1.9266626,-0.009342181,nan,2.109728,4.4593835,0.53623074,1.3535641,0.15277658,inf,inf,inf,inf,0,1,0,1,1,3,1,3,3,0,0,0,0
38221271,38220876,0,nan,nan,-0.63092285,0.29088673,-1.5768507,0.0,0.0,-0.00012689829,-0.06992649,-0.073628776,0.18353249,0.15412022,-0.0063445233,0.013964439,-0.020002015,0.3631988,-0.28600094,0.13497499,1.9017875,-0.009342181,nan,2.0553102,4.3449016,0.5379159,1.3190713,0.1530557,inf,inf,inf,inf,0,1,0,1,1,3,1,3,3,0,0,0,0
39222187,39221535,0,nan,nan,-0.21208364,-0.0005554808,-1.4555062,0.0,0.0,-0.00012689829,0.30840465,-0.36527017,0.021237582,-0.020885523,-0.0063445233,0.013964439,-0.020002015,0.22773457,-0.13122603,-0.37795082,1.6198356,-0.009342181,nan,1.9339659,4.332281,0.5370414,1.2812625,0.15256456,inf,inf,inf,inf,0,1,0,1,1,3,1,3,3,0,0,0,0
39723764,39721658,0,nan,nan,0.037187263,-0.19852947,-1.5430484,0.0,0.0,-0.00012689829,0.44571277,-0.4844201,-0.22289377,-0.26437795,-0.0063445233,0.013964439,-0.020002015,0.09764027,-0.41403443,-0.15741363,1.4570596,-0.009342181,nan,2.021508,4.4261384,0.539753,1.2822417,0.15296207,inf,inf,inf,inf,0,1,0,1,1,3,1,3,3,0,0,0,0
40722509,40717857,0,nan,nan,0.47929403,-0.44659016,-1.7829822,0.0,0.0,-0.00012689829,0.50782484,-0.5332635,-0.037003256,-0.078322135,-0.0063445233,0.013964439,-0.020002015,0.06629653,-0.25272524,0.6303577,1.1087979,-0.009342181,nan,2.261442,4.382745,0.5380481,1.2287325,0.15191366,inf,inf,inf,inf,0,1,0,1,1,3,1,3,3,0,0,0,0
41227380,41227025,0,nan,nan,0.618802,-0.53559303,-1.7970707,0.0,0.0,-0.00012689829,0.45336998,-0.53382784,0.066914976,0.014212134,-0.0063445233,0.013964439,-0.020002015,0.072338894,-0.024484294,-0.18384396,0.89679295,-0.009342181,nan,2.2755303,4.4719634,0.5415188,1.225446,0.15207371,inf,inf,inf,inf,0,1,0,1,1,3,1,3,3,0,0,0,0
41731784,41727150,0,nan,nan,0.6522223,-0.6209224,-1.8343389,0.0,0.0,-0.00012689829,0.34275576,-0.5211511,-0.10459791,-0.15393452,-0.0063445233,0.013964439,-0.020002015,-0.032917652,-0.025265757,0.27983668,0.6979027,-0.009342181,nan,2.3127985,4.3322506,0.54352385,1.1916858,0.15193695,inf,inf,inf,inf,0,1,0,1,1,3,1,3,3,0,0,0,0
42227941,42227354,0,nan,nan,0.62794954,-0.69879794,-1.9058536,0.0,0.0,-0.00012689829,0.29977182,-0.4569017,-0.07027133,-0.11481631,-0.0063445233,0.013964439,-0.020002015,-0.19716898,0.09526942,-0.41942483,0.49171588,-0.009342181,nan,2.3843133,4.40206,0.538826,1.2051611,0.15050104,inf,inf,inf,inf,0,1,0,1,1,3,1,3,3,0,0,0,0
42725394,42723358,0,nan,nan,0.5900625,-0.72336966,-1.9403884,0.0,0.0,-0.00012689829,0.24973972,-0.380712,0.017361315,-0.019316155,-0.0063445233,0.013964439,-0.020002015,-0.09917292,0.03682812,-0.5199365,0.26530832,-0.009342181,nan,2.418848,4.264604,0.5404394,1.1946661,0.1501665,inf,inf,inf,inf,0,1,0,1,1,3,1,3,3,0,0,0,0
43223850,43223341,0,nan,nan,0.5077995,-0.67042655,-1.9045124,0.0,0.0,-0.00012689829,0.13855235,-0.26407763,0.18420662,0.14876297,-0.0063445233,0.013964439,-0.020002015,0.0312986,0.08980975,0.115768924,0.021738537,-0.009342181,nan,2.382972,4.3367395,0.54207206,1.2311937,0.14987428,inf,inf,inf,inf,0,1,0,1,1,3,1,3,3,0,0,0,0
43720351,43719235,0,nan,nan,0.4050531,-0.5159974,-1.9014587,0.0,0.0,-0.00012689829,0.1151075,-0.11580233,-0.10806114,-0.15237947,-0.0063445233,0.013964439,-0.020002015,0.26933655,-0.017516835,-0.571999,-0.20861739,-0.009342181,nan,2.3799183,4.405292,0.5359341,1.2866688,0.14831963,inf,inf,inf,inf,0,1,0,1,1,3,1,3,3,0,0,0,0
44732370,44728850,0,nan,nan,0.1354065,0.060532924,-2.1718237,0.0,0.0,-0.00012689829,0.08105529,0.16620584,-0.027157165,-0.08271108,-0.0063445233,0.013964439,-0.020002015,0.41684473,-0.12040956,0.93870515,-0.6422751,-0.009342181,nan,2.6502833,4.4180202,0.53488487,1.397875,0.14729232,inf,inf,inf,inf,0,1,0,1,1,3,1,3,3,0,0,0,0
45231219,45228842,0,nan,nan,0.07345146,0.35674784,-2.1622636,0.0,0.0,-0.00012689829,0.11360163,0.29439753,0.05433457,0.0040954063,-0.0063445233,0.013964439,-0.020002015,0.11551827,-0.09549425,-0.8819133,-0.8605832,-0.009342181,nan,2.6407232,4.3190126,0.53520256,1.4282644,0.14702322,inf,inf,inf,inf,0,1,0,1,1,3,1,3,3,0,0,0,0
45725080,45724733,0,nan,nan,0.008843362,0.7242797,-2.2494388,0.0,0.0,-0.00012689829,0.060695816,0.50963175,-0.27512494,-0.33177823,-0.0063445233,0.013964439,-0.020002015,-0.02109755,0.3734745,-0.5617201,-1.0923198,-0.009342181,nan,2.7278984,4.4503446,0.5367896,1.5061566,0.1472109,inf,inf,inf,inf,0,1,0,1,1,3,1,3,3,0,0,0,0
46229293,46224831,0,nan,nan,-0.10457853,1.088495,-2.391579,0.0,0.0,-0.00012689829,0.0013052189,0.7185522,-0.13916132,-0.18503219,-0.0063445233,0.013964439,-0.020002015,-0.10892906,0.23457833,0.52656823,-1.3289614,-0.009342181,nan,2.8700385,4.3717074,0.53833157,1.5243293,0.14741492,inf,inf,inf,inf,0,1,0,1,1,3,1,3,3,0,0,0,0
46725462,46725082,0,nan,nan,-0.24726276,1.442075,-2.4149585,0.0,0.0,-0.00012689829,-0.03345783,0.96265775,-0.03574456,-0.06429111,-0.0063445233,0.013964439,-0.020002015,0.3733143,0.5649224,-0.64595926,-1.560455,-0.009342181,nan,2.893418,4.516723,0.5336821,1.5737453,0.14677785,inf,inf,inf,inf,0,1,0,1,1,3,1,3,3,0,0,0,0
47730721,47730241,0,nan,nan,-0.5542713,2.1944203,-2.6276236,0.0,0.0,-0.00012689829,-0.18265209,1.3201644,-0.13505152,-0.15759334,-0.0063445233,0.013964439,-0.020002015,-0.123969495,0.2650543,0.58782065,-1.9827386,-0.009342181,nan,3.1060832,4.5761924,0.53115696,1.5857986,0.14707482,inf,inf,inf,inf,0,1,0,1,1,3,1,3,3,0,0,0,0
48218293,48216966,0,nan,nan,-0.68275356,2.5464752,-2.6337326,0.0,0.0,-0.00012689829,-0.1456,1.429596,-0.02287446,-0.017525155,-0.0063445233,0.013964439,-0.020002015,0.37966627,0.4103738,-0.38721558,-2.161376,-0.009342181,nan,3.1121922,4.705333,0.5320175,1.590793,0.14760922,inf,inf,inf,inf,0,1,0,1,1,3,1,3,3,0,0,0,0
48728444,48726142,0,nan,nan,-0.71498144,2.808641,-2.632657,0.0,0.0,-0.00012689829,-0.13412283,1.5499557,-0.079106025,-0.05790751,-0.0063445233,0.013964439,-0.020002015,-0.37498474,0.7683712,0.80530083,-2.349451,-0.009342181,nan,3.1111166,4.5992227,0.535176,1.5356132,0.1486428,inf,inf,inf,inf,0,1,0,1,1,3,1,3,3,0,0,0,0
49727175,49726628,0,nan,nan,-0.64478105,3.1285462,-2.767126,0.0,0.0,-0.00012689829,-0.06901057,1.5600705,-0.12478128,-0.079134345,-0.0063445233,0.013964439,-0.020002015,0.4092128,0.077055976,0.10266434,-2.7131388,-0.009342181,nan,3.2455857,4.577637,0.5334412,1.4472328,0.14906754,inf,inf,inf,inf,0,1,0,1,1,3,1,3,3,0,0,0,0
50224761,50222474,0,nan,nan,-0.5826119,3.2285016,-2.7357461,0.0,0.0,-0.00012689829,-0.00082032406,1.5761787,0.032582216,0.099202126,-0.0063445233,0.013964439,-0.020002015,-0.09649115,0.3197771,0.8178166,-2.8656452,-0.009342181,nan,3.2142057,4.655798,0.53452545,1.4135633,0.14947653,inf,inf,inf,inf,0,1,0,1,1,3,1,3,3,0,0,0,0
50723572,50722576,0,nan,nan,-0.46095562,3.2181962,-2.6663659,0.0,0.0,-0.00012689829,-0.016430097,1.41553,0.0016775433,0.07736091,-0.0063445233,0.013964439,-0.020002015,0.19613448,-0.15145595,-0.7128281,-3.0004702,-0.009342181,nan,3.1448255,4.489403,0.5367933,1.3276886,0.1496806,inf,inf,inf,inf,0,1,0,1,1,3,1,3,3,0,0,0,0
51228146,51227353,0,nan,nan,-0.3893746,3.1046996,-2.66148,0.0,0.0,-0.00012689829,-0.0050625657,1.3117201,-0.16152573,-0.083140284,-0.0063445233,0.013964439,-0.020002015,0.07493252,0.46985522,-0.72345275,-3.088883,-0.009342181,nan,3.1399395,4.5673776,0.53396106,1.2946995,0.14897121,inf,inf,inf,inf,0,1,0,1,1,3,1,3,3,0,0,0,0
52228426,52227990,0,nan,nan,-0.3403497,2.9828146,-2.6481206,0.0,0.0,-0.00012689829,-0.10639364,1.2004429,0.21879473,0.2920232,-0.0063445233,0.013964439,-0.020002015,-0.14875476,-0.101805724,0.97072774,3.1383681,-0.009342181,nan,3.1265802,4.4490056,0.5320259,1.180801,0.1476503,inf,inf,inf,inf,0,1,0,1,1,3,1,3,3,0,0,0,0
52728655,52728094,0,nan,nan,-0.41385517,2.9298959,-2.4629595,0.0,0.0,-0.00012689829,-0.21381074,1.1096687,0.35296667,0.41594914,-0.0063445233,0.013964439,-0.020002015,-0.3430203,0.22032343,-0.12736045,3.1385152,-0.009342181,nan,2.9414191,4.491205,0.533892,1.1497452,0.1472436,inf,inf,inf,inf,0,1,0,1,1,3,1,3,3,0,0,0,0
53729846,53728596,0,nan,nan,-0.6029852,2.7128356,-2.2558293,0.0,0.0,-0.00012689829,-0.38765252,0.9394961,0.19169553,0.22140749,-0.0063445233,0.013964439,-0.020002015,0.18693516,0.1054659,-0.5488719,3.1280777,-0.009342181,nan,2.734289,4.3529477,0.5308688,1.0656004,0.14532346,inf,inf,inf,inf,0,1,0,1,1,3,1,3,3,0,0,0,0
54224896,54224387,0,nan,nan,-0.6670319,2.6514492,-2.1152577,0.0,0.0,-0.00012689829,-0.3665224,0.91719204,0.36866033,0.38004452,-0.0063445233,0.013964439,-0.020002015,-0.11961837,0.30097687,0.30021915,3.128173,-0.009342181,nan,2.5937173,4.1910477,0.5322347,1.0112709,0.14479546,inf,inf,inf,inf,0,1,0,1,1,3,1,3,3,0,0,0,0
54729485,54729144,0,nan,nan,-0.68400055,2.6320286,-1.9543201,0.0,0.0,-0.00012689829,-0.29313102,1.0779053,0.30683506,0.29467836,-0.0063445233,0.013964439,-0.020002015,-0.1721341,0.5820188,-0.33921093,3.1335237,-0.009342181,nan,2.4327798,4.226412,0.53362167,0.99587375,0.14442818,inf,inf,inf,inf,0,1,0,1,1,3,1,3,3,0,0,0,0
55229956,55229428,0,nan,nan,-0.6984875,2.6836317,-1.9030998,0.0,0.0,-0.00012689829,-0.35210827,1.0568302,0.13210844,0.09376376,-0.0063445233,0.013964439,-0.020002015,-0.37341624,0.044345878,0.2758423,3.136677,-0.009342181,nan,2.3815594,4.260208,0.5287822,0.98358375,0.14304662,inf,inf,inf,inf,0,1,0,1,1,3,1,3,3,0,0,0,0
55725822,55725099,0,nan,nan,-0.73634726,2.6561353,-1.9444549,0.0,0.0,-0.00012689829,-0.41463596,1.0458509,-0.058053125,-0.12339024,-0.0063445233,0.013964439,-0.020002015,-0.196928,0.15349889,-0.24843873,3.136532,-0.009342181,nan,2.4229145,4.114376,0.53014797,0.94461113,0.1427477,inf,inf,inf,inf,0,1,0,1,1,3,1,3,3,0,0,0,0
56217012,56216595,0,nan,nan,-0.8032228,2.6798801,-2.0149732,0.0,0.0,-0.00012689829,-0.48188874,1.0292882,-0.0035838122,-0.07829342,-0.0063445233,0.013964439,-0.020002015,-0.39959258,0.12835284,1.5514747,3.1361125,-0.009342181,nan,2.4934328,4.1441216,0.5303225,0.9361768,0.14230077,inf,inf,inf,inf,0,1,0,1,1,3,1,3,3,0,0,0,0
56726164,56725787,0,nan,nan,-0.9008551,2.6679902,-1.9970546,0.0,0.0,-0.00012689829,-0.55863386,0.9457637,0.3401313,0.2597318,-0.0063445233,0.013964439,-0.020002015,-0.11756091,0.14282957,0.300203,3.1370802,-0.009342181,nan,2.4755142,4.0132504,0.5316718,0.9033027,0.14201365,inf,inf,inf,inf,0,1,0,1,1,3,1,3,3,0,0,0,0
57226586,57225859,0,nan,nan,-1.0168781,2.6225126,-1.8338112,0.0,0.0,-0.00012689829,-0.66022617,0.8045643,0.40566087,0.31401795,-0.0063445233,0.013964439,-0.020002015,-0.43366617,-0.18300314,-0.1867101,3.1336274,-0.009342181,nan,2.3122709,4.060007,0.52807164,0.89987713,0.14093895,inf,inf,inf,inf,0,1,0,1,1,3,1,3,3,0,0,0,0
57722465,57721700,0,nan,nan,-1.1930425,2.4818761,-1.7518,0.0,0.0,-0.00012689829,-0.7989849,0.5615598,0.19008733,0.094928876,-0.0063445233,0.013964439,-0.020002015,0.27526322,-0.31903195,0.012201323,3.1302743,-0.009342181,nan,2.2302597,3.939922,0.5293351,0.8754845,0.14077422,inf,inf,inf,inf,0,1,0,1,1,3,1,3,3,0,0,0,0
58227508,58226371,0,nan,nan,-1.3256565,2.230799,-1.6965363,0.0,0.0,-0.00012689829,-0.6227762,0.28896025,0.27414316,0.1746667,-0.0063445233,0.013964439,-0.020002015,-0.17031729,0.024908336,-2.1035638,-3.1142359,-0.009342181,nan,2.174996,3.9827058,0.5245186,0.8772901,0.13954118,inf,inf,inf,inf,0,1,0,1,1,3,1,3,3,0,0,0,0
58722925,58722164,0,nan,nan,-1.4125762,1.9384862,-1.5782311,0.0,0.0,-0.00012689829,-0.47852364,0.22854127,0.461277,0.35897413,-0.0063445233,0.013964439,-0.020002015,0.26574174,-0.1505295,0.8301467,-2.9357374,-0.009342181,nan,2.0566907,3.8664165,0.52459145,0.85594463,0.13917124,inf,inf,inf,inf,0,1,0,1,1,3,1,3,3,0,0,0,0
59730115,59727223,0,nan,nan,-1.6302403,1.4755359,-1.5086105,0.0,0.0,-0.00012689829,-0.38552064,0.19961548,-0.1654797,-0.28335384,-0.0063445233,0.013964439,-0.020002015,-0.4588516,0.16491054,0.5670645,-2.3950365,-0.009342181,nan,1.9870701,3.966774,0.5225345,0.8724463,0.1383505,inf,inf,inf,inf,0,1,0,1,1,3,1,3,3,0,0,0,0
60228703,60227689,0,nan,nan,-1.8791741,1.3010921,-1.5568132,0.0,0.0,-0.00012689829,-0.52175504,0.10068319,0.14282008,0.037021972,-0.0063445233,0.013964439,-0.020002015,-0.19143218,-0.052842062,0.76277024,-2.2236686,-0.009342181,nan,2.0352728,3.8688416,0.5238809,0.8547237,0.13829924,inf,inf,inf,inf,0,1,0,1,1,3,1,3,3,0,0,0,0
60728021,60727642,0,nan,nan,-2.2628784,1.0893161,-1.5221725,0.0,0.0,-0.00012689829,-0.66911054,-0.028920716,0.15904287,0.06415279,-0.0063445233,0.013964439,-0.020002015,0.84569895,-0.30418885,-2.749389,-2.1743977,-0.009342181,nan,2.000632,3.9208376,0.52524835,0.860716,0.13829614,inf,inf,inf,inf,0,1,0,1,1,3,1,3,3,0,0,0,0
61219368,61218931,0,nan,nan,-2.6305773,0.8277893,-1.4202778,0.0,0.0,-0.00012689829,-0.7307074,-0.16083631,0.3154195,0.23220927,-0.0063445233,0.013964439,-0.020002015,0.4672434,-0.11502141,-0.6564517,-2.1973913,-0.009342181,nan,1.8987374,3.827562,0.5207283,0.84438896,0.13732585,inf,inf,inf,inf,0,1,0,1,1,3,1,3,3,0,0,0,0
61734771,61732791,0,nan,nan,-2.892706,0.5699766,-1.4111096,0.0,0.0,-0.00012689829,-0.730679,-0.2797115,-0.14533229,-0.22138463,-0.0063445233,0.013964439,-0.020002015,0.10322997,-0.039403178,-0.89530826,-2.1461253,-0.009342181,nan,1.8895693,3.8808877,0.52208674,0.85643446,0.13739537,inf,inf,inf,inf,0,1,0,1,1,3,1,3,3,0,0,0,0
62228760,62228411,0,nan,nan,-3.085017,0.33264983,-1.4908712,0.0,0.0,-0.00012689829,-0.8011116,-0.33911207,0.10845982,0.04743021,-0.0063445233,0.013964439,-0.020002015,0.037458442,-0.31484076,1.5952166,-1.9432555,-0.009342181,nan,1.9693308,3.7937942,0.523667,0.8438903,0.13747263,inf,inf,inf,inf,0,1,0,1,1,3,1,3,3,0,0,0,0
62720202,62719657,0,nan,nan,-3.318796,0.07850028,-1.4351509,0.0,0.0,-0.00012689829,-0.8659486,-0.37290913,0.014151818,-0.027516246,-0.0063445233,0.013964439,-0.020002015,-0.088240184,-0.15017506,-0.4344987,-1.7584047,-0.009342181,nan,1.9136105,3.8429322,0.52409303,0.8498594,0.13736977,inf,inf,inf,inf,0,1,0,1,1,3,1,3,3,0,0,0,0
63224805,63224461,0,nan,nan,-3.7228715,-0.12436339,-1.4588014,0.0,0.0,-0.00012689829,-1.0452192,-0.38756305,-0.0044082147,-0.037635084,-0.0063445233,0.013964439,-0.020002015,0.1375865,-0.026084406,-0.5417532,-1.6261985,-0.009342181,nan,1.9372611,3.9072955,0.5208882,0.8608575,0.13667849,inf,inf,inf,inf,0,1,0,1,1,3,1,3,3,0,0,0,0
63731714,63729179,0,nan,nan,-4.1095757,-0.26337695,-1.5319315,0.0,0.0,-0.00012689829,-1.2231582,-0.35383514,-0.21965484,-0.25358045,-0.0063445233,0.013964439,-0.020002015,-0.35070953,-0.06697987,0.18972279,-1.5221021,-0.009342181,nan,2.0103912,3.8288429,0.5234607,0.8513402,0.13692251,inf,inf,inf,inf,0,1,0,1,1,3,1,3,3,0,0,0,0
64225506,64225074,0,nan,nan,-4.553595,-0.28864235,-1.628003,0.0,0.0,-0.00012689829,-1.5195109,-0.20570984,-0.06999371,-0.08997369,-0.0063445233,0.013964439,-0.020002015,-0.70785946,-0.20979597,0.7807717,-1.3976424,-0.009342181,nan,2.1064627,3.8802602,0.5181082,0.86010385,0.13586465,inf,inf,inf,inf,0,1,0,1,1,3,1,3,3,0,0,0,0
64732230,64729693,0,nan,nan,-5.00207,-0.21243261,-1.585908,0.0,0.0,-0.00012689829,-1.898373,-0.03936994,0.14345023,0.13816528,-0.0063445233,0.013964439,-0.020002015,-0.7124899,0.088431716,0.5245206,-1.2521944,-0.009342181,nan,2.0643678,3.7967615,0.5196663,0.84749484,0.13593821,inf,inf,inf,inf,0,1,0,1,1,3,1,3,3,0,0,0,0
65227543,65225443,0,nan,nan,-5.618521,-0.0207053,-1.5428059,0.0,0.0,-0.00012689829,-2.357263,0.13848758,-0.05295166,-0.04836333,-0.0063445233,0.013964439,-0.020002015,-0.25919628,0.40389925,-0.41713637,-1.1089762,-0.009342181,nan,2.0212655,3.8552995,0.5213326,0.85921144,0.13612427,inf,inf,inf,inf,0,1,0,1,1,3,1,3,3,0,0,0,0
66232615,66230682,0,nan,nan,-6.815909,0.6653128,-1.4264375,0.0,0.0,-0.00012689829,-2.5641716,0.612343,0.19269742,0.2051426,-0.0063445233,0.013964439,-0.020002015,-0.49577427,0.3929402,1.0754867,-0.6718752,-0.009342181,nan,1.9048972,3.8328998,0.51871735,0.86163133,0.13553198,inf,inf,inf,inf,0,1,0,1,1,3,1,3,3,0,0,0,0
66721982,66717345,0,nan,nan,-7.2955365,1.105792,-1.3565447,0.0,0.0,-0.00012689829,-2.7182274,0.8104629,0.019279875,0.033248585,-0.0063445233,0.013964439,-0.020002015,-0.49726135,-0.022028862,-0.68893164,-0.34273255,-0.009342181,nan,1.8350043,3.747335,0.519294,0.8550286,0.13558763,inf,inf,inf,inf,0,1,0,1,1,3,1,3,3,0,0,0,0
67229628,67226548,0,nan,nan,-7.7108994,1.5873885,-1.3640348,0.0,0.0,-0.00012689829,-2.8518572,1.0424336,-0.022568397,-0.0016753105,-0.0063445233,0.013964439,-0.020002015,0.03637358,-0.036044315,-0.8732854,0.008763598,-0.009342181,nan,1.8424945,3.8136663,0.5162486,0.8721816,0.13508286,inf,inf,inf,inf,0,1,0,1,1,3,1,3,3,0,0,0,0
67727224,67726735,0,nan,nan,-8.112003,2.1172137,-1.3039885,0.0,0.0,-0.00012689829,-2.9922507,1.2144083,0.10881103,0.13472931,-0.0063445233,0.013964439,-0.020002015,-0.90913284,0.21167901,-0.8962055,0.3756544,-0.009342181,nan,1.782448,3.8742774,0.5179279,0.88618076,0.13537104,inf,inf,inf,inf,0,1,0,1,1,3,1,3,3,0,0,0,0
68229273,68227036,0,nan,nan,-8.587177,2.6505895,-1.2654787,0.0,0.0,-0.00012689829,-3.2825491,1.4510963,-0.0142566245,0.014052008,-0.0063445233,0.013964439,-0.020002015,-1.101762,0.35319474,-0.7351277,0.744954,-0.009342181,nan,1.7439384,3.7950892,0.5195912,0.882506,0.13572824,inf,inf,inf,inf,0,1,0,1,1,3,1,3,3,0,0,0,0
68723418,68722929,0,nan,nan,-9.383648,3.230759,-1.2606293,0.0,0.0,-0.00012689829,-3.6909778,1.5677485,-0.0073578455,0.027949352,-0.0063445233,0.013964439,-0.020002015,-0.98003304,-0.26067576,-0.15107858,1.1158867,-0.009342181,nan,1.739089,3.8577325,0.5156907,0.896947,0.13533306,inf,inf,inf,inf,0,1,0,1,1,3,1,3,3,0,0,0,0
69227856,69227516,0,nan,nan,-10.452129,3.6688867,-1.2637875,0.0,0.0,-0.00012689829,-4.255621,1.5117782,-0.14473785,-0.10062246,-0.0063445233,0.013964439,-0.020002015,-1.3954641,-0.5892263,-0.3038382,1.4689958,-0.009342181,nan,1.7422471,3.7817845,0.5175182,0.89068335,0.13589343,inf,inf,inf,inf,0,1,0,1,1,3,1,3,3,0,0,0,0
69731985,69727766,0,nan,nan,-11.68668,3.8278058,-1.3469225,0.0,0.0,-0.00012689829,-4.783119,1.2624507,-0.27987322,-0.23638052,-0.0063445233,0.013964439,-0.020002015,-0.77063894,-0.15567005,-0.09349817,1.8107512,-0.009342181,nan,1.8253822,3.8471742,0.5194385,0.89993846,0.1365414,inf,inf,inf,inf,0,1,0,1,1,3,1,3,3,0,0,0,0
70224002,70223527,0,nan,nan,-12.824468,3.703652,-1.4812205,0.0,0.0,-0.00012689829,-4.9863234,0.9462453,-0.3280889,-0.28838184,-0.0063445233,0.013964439,-0.020002015,-0.65130967,-0.3324749,0.6987946,2.0259027,-0.009342181,nan,1.9596801,3.7734315,0.5157169,0.8869575,0.13600238,inf,inf,inf,inf,0,1,0,1,1,3,1,3,3,0,0,0,0
70730621,70728503,0,nan,nan,-13.689754,3.318549,-1.5377519,0.0,0.0,-0.00012689829,-5.2355204,0.4668544,0.024841595,0.06770122,-0.0063445233,0.013964439,-0.020002015,-0.9305557,-1.076898,0.1296492,2.1686745,-0.009342181,nan,2.0162115,3.8388176,0.51759803,0.8879202,0.13643427,inf,inf,inf,inf,0,1,0,1,1,3,1,3,3,0,0,0,0
71229101,71228545,0,nan,nan,-14.376343,2.7516327,-1.482307,0.0,0.0,-0.00012689829,-5.4131904,0.05719441,-0.005007584,0.039646376,-0.0063445233,0.013964439,-0.020002015,-1.0638812,-0.51264006,-0.29882365,2.3235135,-0.009342181,nan,1.9607666,3.9034622,0.51955813,0.889438,0.13696882,inf,inf,inf,inf,0,1,0,1,1,3,1,3,3,0,0,0,0
71726999,71724477,0,nan,nan,-14.523969,2.053456,-1.5600163,0.0,0.0,-0.00012689829,-5.3243027,-0.27775753,-0.31821662,-0.28117052,-0.0063445233,0.013964439,-0.020002015,-0.44985476,0.06625223,-0.1794473,2.456053,-0.009342181,nan,2.038476,3.8231337,0.51596004,0.87201995,0.13648917,inf,inf,inf,inf,0,1,0,1,1,3,1,3,3,0,0,0,0
72229676,72229068,0,nan,nan,-14.529347,1.489856,-1.7976315,0.0,0.0,-0.00012689829,-5.143754,-0.24876368,-0.6948517,-0.657044,-0.0063445233,0.013964439,-0.020002015,-0.74096566,0.47729832,-0.5294798,2.4684772,-0.009342181,nan,2.276091,3.883859,0.5179764,0.87386864,0.13660255,inf,inf,inf,inf,0,1,0,1,1,3,1,3,3,0,0,0,0
72726921,72724824,0,nan,nan,-14.289558,1.1016251,-2.0640662,0.0,0.0,-0.00012689829,-4.9422536,-0.17404878,-0.35949436,-0.32407135,-0.0063445233,0.013964439,-0.020002015,-0.99656636,-0.43692732,0.66257304,2.4428356,-0.009342181,nan,2.5425258,3.8008132,0.5199974,0.8508094,0.1367247,inf,inf,inf,inf,0,1,0,1,1,3,1,3,3,0,0,0,0
73223130,73220798,0,nan,nan,-14.083622,0.8469001,-2.1300468,0.0,0.0,-0.00012689829,-4.8781238,-0.12859195,0.016830567,0.049877252,-0.0063445233,0.013964439,-0.020002015,-0.87180066,0.06777231,1.3254018,2.40748,-0.009342181,nan,2.6085064,3.851076,0.51522964,0.8475758,0.1358635,inf,inf,inf,inf,0,1,0,1,1,3,1,3,3,0,0,0,0
73721904,73720833,0,nan,nan,-13.8935175,0.74650645,-2.1527634,0.0,0.0,-0.00012689829,-5.024505,-0.01658244,-0.34643164,-0.3165776,-0.0063445233,0.013964439,-0.020002015,-1.4068402,0.005524048,-1.0447965,2.3895552,-0.009342181,nan,2.631223,3.766166,0.51709723,0.82904476,0.13624527,inf,inf,inf,inf,0,1,0,1,1,3,1,3,3,0,0,0,0
74217069,74216736,0,nan,nan,-13.764965,0.8054955,-2.342974,0.0,0.0,-0.00012689829,-5.1368856,0.04280372,-0.3014757,-0.274139,-0.0063445233,0.013964439,-0.020002015,-1.203254,0.16330898,0.5546894,2.4226916,-0.009342181,nan,2.8214335,3.8216145,0.51901555,0.83193713,0.13673846,inf,inf,inf,inf,0,1,0,1,1,3,1,3,3,0,0,0,0
74726454,74725928,0,nan,nan,-14.002308,0.85866576,-2.3955033,0.0,0.0,-0.00012689829,-5.0229816,0.14196192,0.048413135,0.07830583,-0.0063445233,0.013964439,-0.020002015,-0.28603122,0.050333735,1.3333414,2.42993,-0.009342181,nan,2.8739629,3.8839855,0.51632863,0.8329804,0.1362298,inf,inf,inf,inf,0,1,0,1,1,3,1,3,3,0,0,0,0
75226731,75226383,0,nan,nan,-13.936665,0.9243499,-2.2596483,0.0,0.0,-0.00012689829,-4.681593,0.24250932,0.32549524,0.36059675,-0.0063445233,0.013964439,-0.020002015,-0.55993706,-0.062900476,-0.015800914,2.3990755,-0.009342181,nan,2.738108,3.7986004,0.5180775,0.8143577,0.13608402,inf,inf,inf,inf,0,1,0,1,1,3,1,3,3,0,0,0,0
75727018,75726384,0,nan,nan,-13.905021,1.0042733,-2.1500325,0.0,0.0,-0.00012689829,-4.5810413,0.29270646,0.038724232,0.06853959,-0.0063445233,0.013964439,-0.020002015,-0.46700445,0.26728857,-0.44813013,2.373129,-0.009342181,nan,2.628492,3.8534236,0.5199763,0.82171327,0.13633376,inf,inf,inf,inf,0,1,0,1,1,3,1,3,3,0,0,0,0
76223140,76222320,0,nan,nan,-13.716463,1.0857306,-2.1439128,0.0,0.0,-0.00012689829,-4.2371993,0.35678682,0.07663272,0.09492532,-0.0063445233,0.013964439,-0.020002015,-0.07348009,0.08665402,2.5666573,2.3658988,-0.009342181,nan,2.6223724,3.7702484,0.51609707,0.80768716,0.13552481,inf,inf,inf,inf,0,1,0,1,1,3,1,3,3,0,0,0,0
76723109,76722450,0,nan,nan,-13.41334,1.1385436,-2.038494,0.0,0.0,-0.00012689829,-3.6806834,0.3351509,0.20208816,0.21919885,-0.0063445233,0.013964439,-0.020002015,0.032839473,0.1331724,-0.9558758,2.3779743,-0.009342181,nan,2.5169537,3.8180182,0.5167369,0.81134766,0.13523543,inf,inf,inf,inf,0,1,0,1,1,3,1,3,3,0,0,0,0
77723253,77722924,0,nan,nan,-12.221435,1.1445639,-2.1756306,0.0,0.0,-0.00012689829,-2.9696178,0.29382664,-0.31688204,-0.2661867,-0.0063445233,0.013964439,-0.020002015,0.018620055,-0.114100195,0.09006251,2.4180954,-0.009342181,nan,2.6540902,3.7990994,0.5156074,0.8105645,0.1348467,inf,inf,inf,inf,0,1,0,1,1,3,1,3,3,0,0,0,0
78223533,78223186,0,nan,nan,-11.625642,1.1003107,-2.2118862,0.0,0.0,-0.00012689829,-2.635122,0.1658928,-0.071142815,-0.00044902472,-0.0063445233,0.013964439,-0.020002015,0.15920101,-0.3970743,-0.46443203,2.4153302,-0.009342181,nan,2.6903458,3.855409,0.5173053,0.81546974,0.13503456,inf,inf,inf,inf,0,1,0,1,1,3,1,3,3,0,0,0,0
78729253,78728001,0,nan,nan,-10.828656,0.98540217,-2.222815,0.0,0.0,-0.00012689829,-2.3417385,0.090873316,-0.17027448,-0.08716469,-0.0063445233,0.013964439,-0.020002015,-0.2572402,-0.30472124,-0.31352356,2.4191096,-0.009342181,nan,2.7012746,3.7745395,0.5189707,0.80438644,0.13528603,inf,inf,inf,inf,0,1,0,1,1,3,1,3,3,0,0,0,0
79719907,79719513,0,nan,nan,-9.380948,0.7138422,-2.3062189,0.0,0.0,-0.00012689829,-1.9146491,-0.066539355,-0.1981815,-0.092889555,-0.0063445233,0.013964439,-0.020002015,-0.50757086,0.15303576,-0.47017592,2.4139297,-0.009342181,nan,2.7846785,3.7469544,0.5157992,0.8023918,0.13481683,inf,inf,inf,inf,0,1,0,1,1,3,1,3,3,0,0,0,0
80224615,80224237,0,nan,nan,-8.697792,0.554348,-2.3474226,0.0,0.0,-0.00012689829,-1.7408425,-0.087857775,-0.17322437,-0.06770127,-0.0063445233,0.013964439,-0.020002015,0.0011586035,-0.18772076,-0.1976902,2.4114718,-0.009342181,nan,2.8258822,3.811794,0.51877284,0.8135296,0.13533987,inf,inf,inf,inf,0,1,0,1,1,3,1,3,3,0,0,0,0
80726166,80724500,0,nan,nan,-8.089218,0.44457215,-2.3794696,0.0,0.0,-0.00012689829,-1.5343188,-0.043367192,-0.16171765,-0.053682204,-0.0063445233,0.013964439,-0.020002015,0.061018404,-0.91056514,-1.0279781,2.4144578,-0.009342181,nan,2.8579292,3.7343423,0.5149704,0.8046979,0.13472794,inf,inf,inf,inf,0,1,0,1,1,3,1,3,3,0,0,0,0
81730220,81729534,0,nan,nan,-6.839105,0.34271142,-2.3823643,0.0,0.0,-0.00012689829,-1.1926389,0.06575168,-0.07583067,0.034946196,-0.0063445233,0.013964439,-0.020002015,-0.3241433,-0.20086369,0.6933551,2.412538,-0.009342181,nan,2.8608239,3.717134,0.5187527,0.8082609,0.13534698,inf,inf,inf,inf,0,1,0,1,1,3,1,3,3,0,0,0,0
82230224,82229798,0,nan,nan,-6.1869674,0.345347,-2.2723842,0.0,0.0,-0.00012689829,-0.98245406,0.12741539,0.30699882,0.40976804,-0.0063445233,0.013964439,-0.020002015,-0.08592689,0.021274107,-0.39871812,2.4074414,-0.009342181,nan,2.7508438,3.7771158,0.5150652,0.8185712,0.13474788,inf,inf,inf,inf,0,1,0,1,1,3,1,3,3,0,0,0,0
82726035,82725554,0,nan,nan,-5.6364064,0.37593684,-2.036668,0.0,0.0,-0.00012689829,-0.81267947,0.17786394,0.44304243,0.5370346,-0.0063445233,0.013964439,-0.020002015,0.0706549,0.4804367,0.4879322,2.363932,-0.009342181,nan,2.5151277,3.8371944,0.51694834,0.829036,0.1350227,inf,inf,inf,inf,0,1,0,1,1,3,1,3,3,0,0,0,0
83226182,83225819,0,nan,nan,-5.021222,0.44584763,-1.8646723,0.0,0.0,-0.00012689829,-0.55792695,0.34020337,0.03240862,0.11979921,-0.0063445233,0.013964439,-0.020002015,0.16547112,0.30858245,-0.9114741,2.3109028,-0.009342181,nan,2.343132,3.7610931,0.51880825,0.8273392,0.13529538,inf,inf,inf,inf,0,1,0,1,1,3,1,3,3,0,0,0,0
83722247,83721796,0,nan,nan,-4.380536,0.6119667,-1.8414406,0.0,0.0,-0.00012689829,-0.2954251,0.53028095,-0.034934904,0.051241755,-0.0063445233,0.013964439,-0.020002015,0.24331944,0.3639588,0.87992626,2.2265182,-0.009342181,nan,2.3199003,3.8244038,0.5149795,0.843718,0.13467443,inf,inf,inf,inf,0,1,0,1,1,3,1,3,3,0,0,0,0
84726958,84726613,0,nan,nan,-3.0873415,0.98539877,-1.7572474,0.0,0.0,-0.00012689829,0.012151967,0.6565039,0.02986497,0.115420155,-0.0063445233,0.013964439,-0.020002015,0.020525366,0.45622343,-0.34769616,2.0890007,-0.009342181,nan,2.235707,3.8202994,0.5186315,0.8550658,0.1352257,inf,inf,inf,inf,0,1,0,1,1,3,1,3,3,0,0,0,0
85223583,85222370,0,nan,nan,-2.5359006,1.166347,-1.7201538,0.0,0.0,-0.00012689829,0.17346075,0.7158605,-0.044708077,0.04135268,-0.0063445233,0.013964439,-0.020002015,0.37040251,0.38699216,-0.26616186,2.0699835,-0.009342181,nan,2.1986134,3.7450457,0.51384,0.85189277,0.13445744,inf,inf,inf,inf,0,1,0,1,1,3,1,3,3,0,0,0,0
85728364,85727395,0,nan,nan,-1.9441866,1.3003054,-1.7172061,0.0,0.0,-0.00012689829,0.303899,0.66423786,-0.076641545,-0.0062575084,-0.0063445233,0.013964439,-0.020002015,-0.2104169,-0.2384194,-0.033648252,2.0469,-0.009342181,nan,2.1956658,3.8232794,0.5167905,0.86972755,0.13487978,inf,inf,inf,inf,0,1,0,1,1,3,1,3,3,0,0,0,0
86228163,86227410,0,nan,nan,-1.4500835,1.4079245,-1.7315,0.0,0.0,-0.00012689829,0.39589652,0.70241445,-0.07767964,-0.021542853,-0.0063445233,0.013964439,-0.020002015,0.11714635,0.22446615,0.50290036,2.0288258,-0.009342181,nan,2.2099597,3.8971567,0.5186419,0.8859247,0.13513537,inf,inf,inf,inf,0,1,0,1,1,3,1,3,3,0,0,0,0
86723735,86723325,0,nan,nan,-0.98233604,1.5076079,-1.7517977,0.0,0.0,-0.00012689829,0.46575516,0.73170495,-0.08340894,-0.034048274,-0.0063445233,0.013964439,-0.020002015,0.0057312003,-0.24509417,-0.29693818,2.0294576,-0.009342181,nan,2.2302573,3.8281355,0.51487696,0.880743,0.1345115,inf,inf,inf,inf,0,1,0,1,1,3,1,3,3,0,0,0,0
87728551,87728204,0,nan,nan,-0.16105686,1.7315553,-1.7335649,0.0,0.0,-0.00012689829,0.7901622,0.84079796,0.021480931,0.056767344,-0.0063445233,0.013964439,-0.020002015,0.5385313,-0.052866083,-0.17131601,1.967297,-0.009342181,nan,2.2120245,3.8299515,0.5186487,0.8884243,0.13504767,inf,inf,inf,inf,0,1,0,1,1,3,1,3,3,0,0,0,0
88229912,88228487,0,nan,nan,0.3043917,1.8266435,-1.7452165,0.0,0.0,-0.00012689829,0.9366656,0.83773077,-0.015118141,0.0016171824,-0.0063445233,0.013964439,-0.020002015,-0.29563078,-0.012453091,0.4266529,1.9137458,-0.009342181,nan,2.2236762,3.903673,0.51484215,0.9055007,0.13440123,inf,inf,inf,inf,0,1,0,1,1,3,1,3,3,0,0,0,0
88724701,88724229,0,nan,nan,0.71206486,1.9107455,-1.698926,0.0,0.0,-0.00012689829,0.9338646,0.8127626,0.23067805,0.24632442,-0.0063445233,0.013964439,-0.020002015,0.17386137,0.012044822,0.8176817,1.8547864,-0.009342181,nan,2.1773856,3.9781966,0.51670355,0.91698027,0.13464746,inf,inf,inf,inf,0,1,0,1,1,3,1,3,3,0,0,0,0
89229671,89229047,0,nan,nan,1.0456735,1.942119,-1.5746144,0.0,0.0,-0.00012689829,0.9486208,0.81377333,0.19502403,0.20290461,-0.0063445233,0.013964439,-0.020002015,0.31782466,0.22233301,-0.5611937,1.8134984,-0.009342181,nan,2.0530741,3.9085748,0.51952606,0.9075992,0.13504495,inf,inf,inf,inf,0,1,0,1,1,3,1,3,3,0,0,0,0
89725389,89724917,0,nan,nan,1.3433837,1.9959327,-1.5773966,0.0,0.0,-0.00012689829,0.9975594,0.82709664,-0.10181975,-0.11027828,-0.0063445233,0.013964439,-0.020002015,-0.18718824,0.10888186,-0.03855632,1.7983795,-0.009342181,nan,2.0558562,3.9755166,0.51460016,0.92471766,0.13423301,inf,inf,inf,inf,0,1,0,1,1,3,1,3,3,0,0,0,0
90721239,90720846,0,nan,nan,1.7998037,2.0699697,-1.6829859,0.0,0.0,-0.00012689829,1.0344871,0.79659796,0.10949313,0.09059515,-0.0063445233,0.013964439,-0.020002015,0.26978323,-0.17969619,0.59064186,1.6859186,-0.009342181,nan,2.1614456,3.9662762,0.51719487,0.9245934,0.13460155,inf,inf,inf,inf,0,1,0,1,1,3,1,3,3,0,0,0,0
91721836,91721321,0,nan,nan,2.20736,1.8933247,-1.498835,0.0,0.0,-0.00012689829,1.284152,0.47369623,0.21458076,0.16430464,-0.0063445233,0.013964439,-0.020002015,0.526535,-0.32178968,-0.7913249,1.4687208,-0.009342181,nan,1.9772947,3.9602034,0.51532125,0.9228617,0.13423438,inf,inf,inf,inf,0,1,0,1,1,3,1,3,3,0,0,0,0
92220438,92217255,0,nan,nan,2.4417298,1.7814293,-1.4445679,0.0,0.0,-0.00012689829,1.3215541,0.33127353,0.11237802,0.06143217,-0.0063445233,0.013964439,-0.020002015,0.42984465,-0.0061431346,0.004066746,1.3471615,-0.009342181,nan,1.9230275,3.8732178,0.5171673,0.9070048,0.13452649,inf,inf,inf,inf,0,1,0,1,1,3,1,3,3,0,0,0,0
92728793,92726461,0,nan,nan,2.5588758,2.7384741,-1.4297299,0.0,0.0,-0.00012689829,1.3612276,0.61748874,0.039944362,0.0031980553,-0.0063445233,0.013964439,-0.020002015,0.15486111,-0.25134948,0.5038619,1.1938545,-0.009342181,nan,1.9081895,3.9249995,0.5144727,0.9065239,0.13413897,inf,inf,inf,inf,0,1,0,1,1,3,1,3,3,0,0,0,0
93228772,93226630,0,nan,nan,2.8748984,4.024132,-1.4342701,0.0,0.0,-0.00012689829,1.3579099,0.97913283,0.024577977,-0.014013267,-0.0063445233,0.013964439,-0.020002015,0.0117688505,0.10086863,0.95447433,1.0224526,-0.009342181,nan,1.9127297,3.976832,0.5162702,0.90538335,0.13445204,inf,inf,inf,inf,0,1,0,1,1,3,1,3,3,0,0,0,0
93727281,93726898,0,nan,nan,3.3692389,5.050568,-1.4641573,0.0,0.0,-0.00012689829,1.3811474,1.305231,-0.036374602,-0.0808378,-0.0063445233,0.013964439,-0.020002015,0.091654554,0.42595327,0.030345857,0.8396562,-0.009342181,nan,1.9426169,3.8803053,0.51809037,0.8857374,0.13477863,inf,inf,inf,inf,0,1,0,1,1,3,1,3,3,0,0,0,0
94231755,94227166,0,nan,nan,4.036318,5.8974404,-1.5135721,0.0,0.0,-0.00012689829,1.5178523,1.6113681,-0.08192934,-0.123375915,-0.0063445233,0.013964439,-0.020002015,-0.0535558,0.11334893,0.08828198,0.65414596,-0.009342181,nan,1.9920318,3.9344592,0.51434004,0.8892242,0.13427386,inf,inf,inf,inf,0,1,0,1,1,3,1,3,3,0,0,0,0
94723774,94722927,0,nan,nan,4.7789273,6.536486,-1.5515578,0.0,0.0,-0.00012689829,1.7222075,1.7785534,0.04435507,0.004782551,-0.0063445233,0.013964439,-0.020002015,0.13328396,-0.40097633,-0.07158562,0.4704244,-0.009342181,nan,2.0300174,3.843025,0.5162685,0.87088233,0.13471909,inf,inf,inf,inf,0,1,0,1,1,3,1,3,3,0,0,0,0
95219179,95218840,0,nan,nan,5.674389,7.064174,-1.502087,0.0,0.0,-0.00012689829,1.8870122,1.8619676,0.22213778,0.18358864,-0.0063445233,0.013964439,-0.020002015,-0.03187989,0.37075704,0.04678476,0.26165605,-0.009342181,nan,1.9805467,3.89709,0.5181622,0.8732555,0.13515553,inf,inf,inf,inf,0,1,0,1,1,3,1,3,3,0,0,0,0
95730121,95728050,0,nan,nan,6.5870633,7.391984,-1.4074937,0.0,0.0,-0.00012689829,2.18201,2.073196,0.06402567,0.028624097,-0.0063445233,0.013964439,-0.020002015,0.1147063,0.52470577,-2.2104251,0.049673293,-0.009342181,nan,1.8859534,3.806281,0.5144716,0.85784346,0.1347646,inf,inf,inf,inf,0,1,0,1,1,3,1,3,3,0,0,0,0
96229073,96228241,0,nan,nan,7.0089545,7.338872,-1.5541028,0.0,0.0,-0.00012689829,2.2283986,2.2001433,-0.41398498,-0.44574785,-0.0063445233,0.013964439,-0.020002015,0.40995044,0.89326966,-0.33577815,0.020052943,-0.009342181,nan,2.0325625,3.8627195,0.5164174,0.87070334,0.13532388,inf,inf,inf,inf,0,1,0,1,1,3,1,3,3,0,0,0,0
96724360,96724000,0,nan,nan,7.4132614,7.4699373,-1.7563175,0.0,0.0,-0.00012689829,2.1577709,2.4634516,-0.42565933,-0.4474212,-0.0063445233,0.013964439,-0.020002015,-0.17294997,0.7530696,-0.24202865,0.08187974,-0.009342181,nan,2.2347772,3.9207625,0.5184642,0.87775517,0.13595876,inf,inf,inf,inf,0,1,0,1,1,3,1,3,3,0,0,0,0
97225068,97224475,0,nan,nan,7.6128,7.591075,-1.9676447,0.0,0.0,-0.00012689829,2.1145563,2.5353644,-0.3169372,-0.3235426,-0.0063445233,0.013964439,-0.020002015,0.48230922,0.12188459,1.2710642,0.09322017,-0.009342181,nan,2.4461043,3.8349962,0.5148799,0.86193484,0.13565308,inf,inf,inf,inf,0,1,0,1,1,3,1,3,3,0,0,0,0
97726690,97724585,0,nan,nan,7.795602,7.830418,-1.9621341,0.0,0.0,-0.00012689829,2.138052,2.7846382,0.2274691,0.2464371,-0.0063445233,0.013964439,-0.020002015,0.3106202,1.5280635,1.0977875,0.00017059073,-0.009342181,nan,2.4405937,3.8931093,0.5170557,0.8630884,0.13624597,inf,inf,inf,inf,0,1,0,1,1,3,1,3,3,0,0,0,0
98220931,98220440,0,nan,nan,7.680335,8.031344,-1.830378,0.0,0.0,-0.00012689829,2.0606868,3.0983117,0.024948455,0.06046079,-0.0063445233,0.013964439,-0.020002015,0.23452434,0.33154288,-0.40729892,-0.11068151,-0.009342181,nan,2.3088377,3.804339,0.51814216,0.84963924,0.13691549,inf,inf,inf,inf,0,1,0,1,1,3,1,3,3,0,0,0,0
98721255,98720572,0,nan,nan,7.370081,8.221307,-1.7936624,0.0,0.0,-0.00012689829,2.1453464,3.3251595,0.089561395,0.14332908,-0.0063445233,0.013964439,-0.020002015,0.30743012,1.1996723,2.680187,-0.14640339,-0.009342181,nan,2.2721221,3.8666637,0.5147843,0.86073977,0.13676009,inf,inf,inf,inf,0,1,0,1,1,3,1,3,3,0,0,0,0
99225685,99225350,0,nan,nan,7.134104,8.544023,-1.6571888,0.0,0.0,-0.00012689829,2.1516252,3.5707052,0.20376386,0.25823516,-0.0063445233,0.013964439,-0.020002015,0.6891143,0.6904131,-0.41494793,-0.12535083,-0.009342181,nan,2.1356485,3.7920778,0.5181573,0.84602845,0.13769831,inf,inf,inf,inf,0,1,0,1,1,3,1,3,3,0,0,0,0
99717189,99716857,0,nan,nan,6.922874,8.861153,-1.5296414,0.0,0.0,-0.00012689829,2.2061064,3.6345613,0.20712614,0.26332504,-0.0063445233,0.013964439,-0.020002015,0.8596755,0.51736414,-0.31419298,-0.1079506,-0.009342181,nan,2.008101,3.8441336,0.51937056,0.85228616,0.13810562,inf,inf,inf,inf,0,1,0,1,1,3,1,3,3,0,0,0,0
100226473,100226067,0,nan,nan,6.828839,9.206008,-1.4515463,0.0,0.0,-0.00012689829,2.3360662,3.7092886,-0.083500646,-0.02477233,-0.0063445233,0.013964439,-0.020002015,0.7300034,0.4823076,-0.21472816,-0.10004345,-0.009342181,nan,1.930006,3.9108553,0.5170867,0.86107063,0.13787992,inf,inf,inf,inf,0,1,0,1,1,3,1,3,3,0,0,0,0
100722035,100721697,0,nan,nan,6.742951,9.396209,-1.4814599,0.0,0.0,-0.00012689829,2.278905,3.5761404,-0.009147113,0.033926707,-0.0063445233,0.013964439,-0.020002015,-0.087138,0.21839465,-0.023234058,-0.09659727,-0.009342181,nan,1.9599195,3.820487,0.51833206,0.8457788,0.13797435,inf,inf,inf,inf,0,1,0,1,1,3,1,3,3,0,0,0,0
101222355,101222019,0,nan,nan,6.6311903,9.499738,-1.4265532,0.0,0.0,-0.00012689829,2.1073377,3.528363,0.255914,0.28226748,-0.0063445233,0.013964439,-0.020002015,0.36827263,0.19538568,0.10714542,-0.09949124,-0.009342181,nan,1.9050128,3.8863199,0.5216147,0.8496614,0.13832845,inf,inf,inf,inf,0,1,0,1,1,3,1,3,3,0,0,0,0
101727158,101726700,0,nan,nan,6.4988666,9.544779,-1.2670531,0.0,0.0,-0.00012689829,2.051268,3.378662,0.3188842,0.3299367,-0.0063445233,0.013964439,-0.020002015,0.3026945,0.4429376,-0.08673559,-0.100725934,-0.009342181,nan,1.7455127,3.801601,0.5179036,0.83228743,0.13747607,inf,inf,inf,inf,0,1,0,1,1,3,1,3,3,0,0,0,0
102223165,102222463,0,nan,nan,6.3378005,9.465751,-1.1612692,0.0,0.0,-0.00012689829,1.9170665,3.1245062,0.14775456,0.1514714,-0.0063445233,0.013964439,-0.020002015,0.4554291,-0.34177348,0.33714643,-0.10027869,-0.009342181,nan,1.6397288,3.858681,0.5199104,0.83801985,0.13749084,inf,inf,inf,inf,0,1,0,1,1,3,1,3,3,0,0,0,0
102718972,102718454,0,nan,nan,6.1834817,9.369092,-1.0826409,0.0,0.0,-0.00012689829,1.8256602,3.028954,0.22013521,0.21824883,-0.0063445233,0.013964439,-0.020002015,0.34357417,0.057371836,1.0448335,-0.09940518,-0.009342181,nan,1.5611005,3.7684324,0.52071863,0.82096153,0.13739933,inf,inf,inf,inf,0,1,0,1,1,3,1,3,3,0,0,0,0
103228211,103227683,0,nan,nan,5.9712753,9.173605,-0.96710765,0.0,0.0,-0.00012689829,1.7341104,2.9027808,0.224981,0.22363025,-0.0063445233,0.013964439,-0.020002015,0.21166846,0.21643128,0.14789513,-0.09871023,-0.009342181,nan,1.4455674,3.8305683,0.51799494,0.82659346,0.13682252,inf,inf,inf,inf,0,1,0,1,1,3,1,3,3,0,0,0,0
103728325,103727785,0,nan,nan,5.8133755,9.044998,-0.84473133,0.0,0.0,-0.00012689829,1.671961,2.7879112,0.25646594,0.2611737,-0.0063445233,0.013964439,-0.020002015,0.47908565,0.6524398,0.08321917,-0.102704436,-0.009342181,nan,1.3231909,3.8865423,0.51991045,0.8311639,0.13698567,inf,inf,inf,inf,0,1,0,1,1,3,1,3,3,0,0,0,0
104224391,104223636,0,nan,nan,5.58682,8.767051,-0.72122,0.0,0.0,-0.00012689829,1.5827194,2.6346006,0.20142426,0.2078681,-0.0063445233,0.013964439,-0.020002015,0.1839051,0.31971696,-0.43134472,-0.1070038,-0.009342181,nan,1.1996796,3.8013625,0.5216937,0.8164628,0.13712296,inf,inf,inf,inf,0,1,0,1,1,3,1,3,3,0,0,0,0
104729144,104728330,0,nan,nan,5.4105163,8.577497,-0.6817566,0.0,0.0,-0.00012689829,1.4893116,2.54584,-0.18001924,-0.16238274,-0.0063445233,0.013964439,-0.020002015,0.068318285,-0.4175687,-0.0041318336,-0.103966825,-0.009342181,nan,1.1602163,3.856022,0.5177439,0.8251499,0.13636582,inf,inf,inf,inf,0,1,0,1,1,3,1,3,3,0,0,0,0
105224774,105224092,0,nan,nan,5.1670866,8.311112,-0.80245644,0.0,0.0,-0.00012689829,1.3046954,2.378298,-0.34413204,-0.31044173,-0.0063445233,0.013964439,-0.020002015,-0.5389075,0.18056512,-0.4989287,-0.099839374,-0.009342181,nan,1.2809161,3.7730434,0.51955086,0.8136651,0.1365278,inf,inf,inf,inf,0,1,0,1,1,3,1,3,3,0,0,0,0
105720459,105720105,0,nan,nan,4.857665,7.988697,-0.9046117,0.0,0.0,-0.00012689829,1.0159639,2.1499598,-0.055876214,-0.02669731,-0.0063445233,0.013964439,-0.020002015,0.01338189,-0.20426711,1.5454587,-0.11006372,-0.009342181,nan,1.3830714,3.8281078,0.52137476,0.8180675,0.13656403,inf,inf,inf,inf,0,1,0,1,1,3,1,3,3,0,0,0,0
106229821,106229275,0,nan,nan,4.4737988,7.6347823,-0.8266222,0.0,0.0,-0.00012689829,0.73707956,1.9512377,0.29311585,0.3221088,-0.0063445233,0.013964439,-0.020002015,-0.10603241,0.15097757,0.10903466,-0.1204069,-0.009342181,nan,1.3050818,3.751595,0.5184212,0.80306065,0.13590424,inf,inf,inf,inf,0,1,0,1,1,3,1,3,3,0,0,0,0
106730224,106729414,0,nan,nan,4.0231643,7.2154,-0.67418855,0.0,0.0,-0.00012689829,0.5840715,1.6859072,0.15452686,0.1813563,-0.0063445233,0.013964439,-0.020002015,0.48797452,0.108203016,-0.8327364,-0.10911132,-0.009342181,nan,1.1526482,3.7993143,0.519094,0.8104078,0.13588464,inf,inf,inf,inf,0,1,0,1,1,3,1,3,3,0,0,0,0
107225840,107225244,0,nan,nan,3.6534028,6.775609,-0.6141236,0.0,0.0,-0.00012689829,0.65183854,1.4407465,0.105933845,0.13814218,-0.0063445233,0.013964439,-0.020002015,0.21117628,-0.115090474,-0.15319614,-0.098651916,-0.009342181,nan,1.0925832,3.8559022,0.5151646,0.820982,0.13520528,inf,inf,inf,inf,0,1,0,1,1,3,1,3,3,0,0,0,0
107730390,107730005,0,nan,nan,3.3325891,6.217469,-0.46487004,0.0,0.0,-0.00012689829,0.7021451,1.2226505,0.417571,0.45083934,-0.0063445233,0.013964439,-0.020002015,0.63950026,0.30486348,0.08464734,-0.10060476,-0.009342181,nan,0.9433297,3.7822547,0.5179444,0.80902666,0.13561997,inf,inf,inf,inf,0,1,0,1,1,3,1,3,3,0,0,0,0
108221571,108221215,0,nan,nan,3.1743875,5.768616,-0.17620984,0.0,0.0,-0.00012689829,0.84241456,1.0629796,0.6667427,0.6990815,-0.0063445233,0.013964439,-0.020002015,0.56928176,0.4774441,0.078983575,-0.10118884,-0.009342181,nan,0.6546695,3.8317056,0.5186022,0.81525904,0.13572739,inf,inf,inf,inf,0,1,0,1,1,3,1,3,3,0,0,0,0
108722464,108721694,0,nan,nan,3.0795577,5.2842,0.1534685,0.0,0.0,-0.00012689829,0.9518835,0.96777254,0.5677656,0.59358835,-0.0063445233,0.013964439,-0.020002015,0.1469728,0.31171268,-0.33247098,-0.09403919,-0.009342181,nan,0.32499117,3.7518926,0.52039784,0.8068211,0.13605943,inf,inf,inf,inf,0,1,0,1,1,3,1,3,3,0,0,0,0
109222575,109221764,0,nan,nan,3.0471025,4.855866,0.4079898,0.0,0.0,-0.00012689829,0.9850733,0.85921526,0.4703643,0.49178544,-0.0063445233,0.013964439,-0.020002015,0.414513,0.20695727,0.06750914,-0.08496352,-0.009342181,nan,0.1,3.803374,0.5155009,0.81858486,0.1352775,inf,inf,inf,inf,0,1,0,1,1,3,1,3,3,0,0,0,0
109726950,109726602,0,nan,nan,3.0016742,4.4309072,0.6671227,0.0,0.0,-0.00012689829,0.941171,0.7851475,0.4265593,0.44695264,-0.0063445233,0.013964439,-0.020002015,-0.06900947,0.017786102,-0.42009526,-0.08393377,-0.009342181,nan,0.1,3.7353966,0.5185136,0.81301415,0.13573577,inf,inf,inf,inf,0,1,0,1,1,3,1,3,3,0,0,0,0
110727831,110727357,0,nan,nan,2.937297,3.7551987,1.0955495,0.0,0.0,-0.00012689829,0.96226776,0.7260136,0.64331526,0.6552808,-0.0063445233,0.013964439,-0.020002015,0.14565675,0.3223156,1.024368,-0.12514086,-0.009342181,nan,0.1,3.726476,0.5167016,0.8183777,0.13543148,inf,inf,inf,inf,0,1,0,1,1,3,1,3,3,0,0,0,0
111723955,111723312,0,nan,nan,2.5631332,2.8767302,1.3276325,0.0,0.0,-0.00012689829,0.48900774,0.0060146684,0.3504618,0.3622323,-0.0063445233,0.013964439,-0.020002015,1.1142089,-0.8502083,-5.0905457,-0.20678772,-0.009342181,nan,0.1,3.72215,0.5126729,0.82596403,0.12605703,inf,inf,inf,inf,0,1,0,1,1,3,1,3,3,0,0,0,0
112224015,112223409,0,nan,nan,2.354325,2.3344145,1.4778628,0.0,0.0,-0.00012689829,0.4333862,-0.14377406,0.34966654,0.334712,-0.0063445233,0.013964439,-0.020002015,-0.20886691,-0.176927,-0.11923676,-0.21921976,-0.009342181,nan,0.1,3.7801366,0.5103882,0.83785486,0.12192586,inf,inf,inf,inf,0,1,0,1,1,3,1,3,3,0,0,0,0
112728571,112728188,0,nan,nan,2.1628199,1.8196789,1.586486,0.0,0.0,-0.00012689829,0.37787098,-0.29226327,0.3381483,0.2780818,-0.0063445233,0.013964439,-0.020002015,0.2314815,-0.023134258,0.32904804,-0.23137437,-0.009342181,nan,0.1,3.8525484,0.50925773,0.85356927,0.119755276,inf,inf,inf,inf,0,1,0,1,1,3,1,3,3,0,0,0,0
113224447,113223955,0,nan,nan,1.6074282,1.0393689,1.6745507,0.0,0.0,-0.00012689829,0.25107905,-0.48271805,0.32822424,0.2325485,-0.0063445233,0.013964439,-0.020002015,0.053101726,-0.044759415,-0.3734401,-0.23707287,-0.009342181,nan,0.1,0.70100224,0.5058753,0.52502066,0.119180985,inf,inf,inf,inf,0,1,0,1,1,3,1,3,3,0,0,1,0
113724696,113724277,0,nan,nan,-0.1068943,-0.5459814,1.7427601,0.0,0.0,-0.00012689829,-0.07853193,-0.7727052,0.32143885,0.19185305,-0.0063445233,0.013964439,-0.020002015,0.09205712,-0.17290701,-0.03756922,-0.24425973,-0.009342181,nan,0.1,0.46442547,0.4993841,0.535208,0.11986439,inf,inf,inf,inf,0,1,0,1,1,3,1,3,3,0,0,1,0
