timestamp,timestamp_sample,device_id,x,y,z,temperature,error_count,clip_counter[0],clip_counter[1],clip_counter[2],samples
22218187,22217920,3932170,-0.44005427,-0.11252748,-10.571358,32.980415,0,0,0,0,5
23221514,23221260,3932170,-0.6449979,-3.31166,-11.744516,33.078335,0,0,0,0,5
26221563,26221308,3932170,-1.3254302,0.9830592,0.79726917,33.274174,0,0,0,0,5
28219525,28219266,3932170,2.1763294,-0.50469774,-17.042885,33.51897,0,0,0,0,5
29220373,29220122,3932170,-1.0673351,-0.5295974,-11.156022,33.71481,0,0,0,0,5
30222480,30222226,3932170,-0.109654434,-1.7899053,-1.2363658,33.61689,0,0,0,0,5
31219595,31219341,3932170,-0.9744401,1.6160861,-10.873028,33.81273,0,0,0,0,5
32220479,32220215,3932170,2.348233,-3.152206,-8.660786,33.71481,0,0,0,0,5
33221315,33221062,3932170,2.9645007,-1.4762648,-2.9223626,33.61689,0,0,0,0,5
34222186,34221931,3932170,2.183033,-1.9503168,-2.9472623,33.71481,0,0,0,0,5
35220552,35220294,3932170,-3.592739,-0.4012682,-3.371515,33.86169,0,0,0,0,5
36220214,36219955,3932170,2.765303,-1.4551958,-8.123048,33.86169,0,0,0,0,5
38220694,38220433,3932170,0.44580036,-2.087265,-13.228922,33.71481,0,0,0,0,5
39220282,39220023,3932170,0.33423057,2.1370645,-11.917858,33.86169,0,0,0,0,5
41222021,41221769,3932170,-1.0113108,1.1214441,-10.3783865,34.008568,0,0,0,0,5
42219156,42218902,3932170,-3.572628,3.212061,-21.347181,34.155445,0,0,0,0,5
43220034,43219777,3932170,1.502601,-0.12354081,-10.854353,34.400246,0,0,0,0,5
44222171,44221908,3932170,-0.26192567,2.5637114,-12.314816,34.351284,0,0,0,0,5
45223041,45222783,3932170,-1.1903971,2.273055,-3.5051112,34.253365,0,0,0,0,5
46220179,46219920,3932170,-1.7712303,-0.008140286,-6.5950685,34.547123,0,0,0,0,5
47222308,47222051,3932170,-0.9983821,3.1191661,-14.149732,34.449203,0,0,0,0,5
48220694,48220438,3932170,0.42664674,-0.6052542,-10.181103,34.449203,0,0,0,0,5
50219969,50219716,3932170,-3.0913935,0.21308395,-19.459114,34.400246,0,0,0,0,5
51219617,51219357,3932170,0.4390966,0.31986538,-6.2637105,34.596085,0,0,0,0,5
52219271,52219001,3932170,-2.871127,1.2038046,-14.46433,34.74296,0,0,0,0,5
54221036,54220784,3932170,-2.4938004,-0.62392896,-14.668796,34.9388,0,0,0,0,5
55221937,55221679,3932170,-1.4441825,1.6256629,-2.9539661,34.9388,0,0,0,0,5
57219985,57219726,3932170,-0.13599065,0.86957407,-14.619474,34.88984,0,0,0,0,5
58220883,58220625,3932170,-3.3169272,4.525041,0.008619127,35.08568,0,0,0,0,5
59219288,59219028,3932170,0.8470686,-2.0116084,-2.7035327,35.13464,0,0,0,0,5
60220238,60219987,3932170,0.14077906,0.062249243,-10.419087,35.13464,0,0,0,0,5
61221095,61220832,3932170,-3.2805355,2.8869286,-11.036792,35.08568,0,0,0,0,5
62222005,62221738,3932170,1.2181699,-1.8157626,-9.834423,35.08568,0,0,0,0,5
63219164,63218899,3932170,2.4602816,0.067995325,-0.71969706,35.23256,0,0,0,0,5
64220064,64219805,3932170,-3.2685642,1.9771317,-9.69125,35.23256,0,0,0,0,5
65218474,65218216,3932170,-0.5568913,3.2953792,-7.6389403,35.281517,0,0,0,0,5
66224373,66224118,3932170,-1.8282125,0.22601265,1.9062635,35.526318,0,0,0,0,5
67220296,67220037,3932170,-2.1021092,0.6066907,-15.152425,35.477356,0,0,0,0,5
68223706,68223445,3932170,-1.7506403,-0.5152322,-16.254236,35.4284,0,0,0,0,5
70219337,70219075,3932170,-2.2562957,1.0879252,-8.264784,35.477356,0,0,0,0,5
71220213,71219952,3932170,-2.5292346,0.090979666,-8.406042,35.13464,0,0,0,0,5
72221132,72220874,3932170,1.017057,-5.4458513,-3.6396656,35.4284,0,0,0,0,5
73219554,73219290,3932170,-0.97252476,2.162922,1.2378023,35.526318,0,0,0,0,5
74220475,74220207,3932170,-2.156218,4.120421,-6.692752,35.771114,0,0,0,0,5
75221383,75221128,3932170,-1.379539,-1.1166557,-16.065094,35.673195,0,0,0,0,5
76219806,76219554,3932170,-0.45585603,0.12785037,-0.022505498,35.771114,0,0,0,0,5
77219482,77219229,3932170,1.487757,-1.5480909,-11.9374895,35.966953,0,0,0,0,5
78221667,78221405,3932170,-1.3800179,0.21404164,-8.000943,35.771114,0,0,0,0,5
82221678,82221412,3932170,0.062728085,-0.074220255,-22.381956,36.01591,0,0,0,0,5
83221312,83221049,3932170,3.9398983,-0.5018247,-5.3974886,36.01591,0,0,0,0,5
85220678,85220420,3932170,-2.8543675,2.4281993,-13.741281,36.01591,0,0,0,0,5
86219107,86218855,3932170,0.019632453,0.58657944,-4.8338933,36.162792,0,0,0,0,5
88220990,88220727,3932170,-0.5554548,2.5292346,-4.531266,35.966953,0,0,0,0,5
89220684,89220422,3932170,2.1495142,-0.34715924,-15.828068,36.35863,0,0,0,0,5
90221614,90221354,3932170,0.62249243,0.1661576,-10.888351,36.21175,0,0,0,0,5
92220999,92220741,3932170,0.42760444,-2.1906946,0.24851814,36.40759,0,0,0,0,5
93219434,93219181,3932170,1.3441049,-1.829649,-11.234074,36.35863,0,0,0,0,5
94222876,94222620,3932170,1.9388245,-0.36727056,-11.675564,36.554466,0,0,0,0,5
95221331,95221067,3932170,-1.4609419,1.9302055,-15.105497,36.21175,0,0,0,0,5
96219783,96219522,3932170,0.77667904,2.6848578,-6.889555,36.554466,0,0,0,0,5
97223206,97222957,3932170,-0.20254946,-1.1243172,-9.085996,36.701347,0,0,0,0,5
98219184,98218912,3932170,0.69383967,1.1913548,-20.529324,36.554466,0,0,0,0,5
99220114,99219859,3932170,-1.9440918,2.0958843,-3.1052797,36.603428,0,0,0,0,5
101219521,101219261,3932170,-0.28203696,-0.4903325,-13.3539,36.554466,0,0,0,0,5
102220517,102220259,3932170,2.7375302,-3.4246662,-7.442137,36.701347,0,0,0,0,5
104222396,104222144,3932170,-0.05171476,-2.1528661,-11.426567,36.750305,0,0,0,0,5
105219575,105219325,3932170,0.65218055,0.060812723,-17.721403,36.701347,0,0,0,0,5
106220540,106220279,3932170,3.7579389,-2.9606698,-13.268666,36.897186,0,0,0,0,5
107221500,107221235,3932170,-1.1300632,-1.8540698,-17.87559,36.848225,0,0,0,0,5
108218716,108218448,3932170,1.2071565,0.5971139,-1.364695,37.093025,0,0,0,0,5
111219090,111218828,3932170,3.9633615,-4.154419,-12.812331,37.093025,0,0,0,0,5
112220050,112219789,3932170,-4.4206543,-6.803364,-2.2400153,37.093025,0,0,0,0,5
113222261,113221998,3932170,1.3057977,0.057939682,-10.507673,37.093025,0,0,0,0,5
