timestamp,timestamp_sample,gyro_device_id,gyro_bias[0],gyro_bias[1],gyro_bias[2],gyro_bias_limit,gyro_bias_variance[0],gyro_bias_variance[1],gyro_bias_variance[2],accel_device_id,accel_bias[0],accel_bias[1],accel_bias[2],accel_bias_limit,accel_bias_variance[0],accel_bias_variance[1],accel_bias_variance[2],mag_device_id,mag_bias[0],mag_bias[1],mag_bias[2],mag_bias_limit,mag_bias_variance[0],mag_bias_variance[1],mag_bias_variance[2],gyro_bias_valid,accel_bias_valid,mag_bias_valid
16449885,16448729,3932170,-0.007441447,0.0041132504,0.0031390158,0.34906584,7.8548005e-08,7.865067e-08,2.6352706e-07,3932170,0.0,0.0,-0.13215162,0.4,0.00039942894,0.00039942894,7.1798304e-06,396825,0.0,0.0,0.0,0.5,0.0,0.0,0.0,1,1,0
22928895,22927990,3932170,-0.0073721204,0.004043614,0.0029826888,0.34906584,5.571146e-09,5.5706297e-09,6.4780316e-08,3932170,0.0,0.0,-0.13111682,0.4,0.00040045995,0.00040045995,5.005749e-06,396825,0.0,0.0,0.0,0.5,0.0,0.0,0.0,1,1,0
23657739,23656833,3932170,-0.0073706717,0.0040428136,0.0019644785,0.34906584,5.64244e-09,5.64204e-09,5.6784117e-08,3932170,1.3466291e-06,3.6252316e-06,-0.13089849,0.4,0.00040056242,0.00040056242,5.007088e-06,396825,0.0,0.0,0.0,0.5,0.0,0.0,0.0,1,1,0
24156799,24155964,3932170,-0.007367464,0.0040413802,0.0009391758,0.34906584,5.685426e-09,5.6850986e-09,5.2230998e-08,3932170,6.9407197e-06,3.182917e-05,-0.13115627,0.4,0.00040049065,0.00040049065,5.007575e-06,396825,0.0,0.0,0.0,0.5,0.0,0.0,0.0,1,1,0
24706017,24705054,3932170,-0.00736434,0.0040401896,-8.019157e-05,0.34906584,5.7315543e-09,5.7313088e-09,4.765064e-08,3932170,-5.7877683e-06,5.8175483e-05,-0.13112661,0.4,0.00040014286,0.00040014277,5.007816e-06,396825,0.0,0.0,0.0,0.5,0.0,0.0,0.0,1,1,0
25200138,25199239,3932170,-0.0073299906,0.004021738,-0.0010827723,0.34906584,5.7327494e-09,5.732563e-09,4.38532e-08,3932170,-0.00014130624,1.785438e-05,-0.13059437,0.4,0.0003965866,0.00039658637,4.9865766e-06,396825,0.0,0.0,0.0,0.5,0.0,0.0,0.0,1,1,0
25859192,25858154,3932170,-0.0073431605,0.004030136,-0.0020855,0.34906584,5.7706275e-09,5.770522e-09,3.965388e-08,3932170,-0.000670817,-0.0003288981,-0.13073671,0.4,0.0003921252,0.00039212444,4.997074e-06,396825,0.0,0.0,0.0,0.5,0.0,0.0,0.0,1,1,0
26418368,26417232,3932170,-0.0073491554,0.0040352163,-0.0030868163,0.34906584,5.770294e-09,5.7702487e-09,3.6517303e-08,3932170,-0.0019362087,-0.0012639982,-0.1308016,0.4,0.00038095345,0.00038095054,5.0018634e-06,396825,0.0,0.0,0.0,0.5,0.0,0.0,0.0,1,1,0
26837724,26836542,3932170,-0.0073518427,0.0040381085,-0.003960435,0.34906584,5.760648e-09,5.760633e-09,3.4322763e-08,3932170,-0.003284513,-0.0022722392,-0.1310806,0.4,0.0003686513,0.00036864585,5.004047e-06,396825,0.0,0.0,0.0,0.5,0.0,0.0,0.0,1,1,0
27256802,27255851,3932170,-0.0073546614,0.004040937,-0.004620519,0.34906584,5.741086e-09,5.74109e-09,3.239968e-08,3932170,-0.004836906,-0.003432321,-0.13098237,0.4,0.00035210565,0.00035209698,5.005504e-06,396825,0.0,0.0,0.0,0.5,0.0,0.0,0.0,1,1,0
27466489,27465514,3932170,-0.0073557287,0.004042129,-0.0049380413,0.34906584,5.7284604e-09,5.7284706e-09,3.1444547e-08,3932170,-0.005668402,-0.004067083,-0.1311771,0.4,0.0003423408,0.0003423307,5.0060225e-06,396825,0.0,0.0,0.0,0.5,0.0,0.0,0.0,1,1,0
27676183,27675161,3932170,-0.007356781,0.0040431875,-0.005229887,0.34906584,5.7145817e-09,5.714594e-09,3.0527467e-08,3932170,-0.0064644925,-0.0046872525,-0.13114618,0.4,0.00033171946,0.00033170846,5.0064436e-06,396825,0.0,0.0,0.0,0.5,0.0,0.0,0.0,1,1,0
27880915,27879825,3932170,-0.007321332,0.0040241308,-0.0055167363,0.34906584,5.6710396e-09,5.6710534e-09,2.949942e-08,3932170,-0.007193411,-0.005258956,-0.13063222,0.4,0.00031889457,0.0003188833,4.9820683e-06,396825,0.0,0.0,0.0,0.5,0.0,0.0,0.0,1,1,0
28299987,28299135,3932170,-0.0073358347,0.004032958,-0.0060455413,0.34906584,5.651779e-09,5.651785e-09,2.7978063e-08,3932170,-0.008404184,-0.0061903177,-0.13092765,0.4,0.00029558147,0.00029557274,4.991078e-06,396825,0.0,0.0,0.0,0.5,0.0,0.0,0.0,1,1,0
28968975,28968036,3932170,-0.007348081,0.0040402156,-0.006881247,0.34906584,5.6273874e-09,5.6273497e-09,2.5622539e-08,3932170,-0.009262456,-0.006451707,-0.13137135,0.4,0.00025937948,0.00025938507,4.9994733e-06,396825,0.0,0.0,0.0,0.5,0.0,0.0,0.0,1,1,0
29348319,29347415,3932170,-0.007350158,0.0040416773,-0.0072844457,0.34906584,5.6086016e-09,5.6085123e-09,2.4476412e-08,3932170,-0.009126183,-0.005545822,-0.1318712,0.4,0.00023640571,0.00023642514,5.0020167e-06,396825,0.0,0.0,0.0,0.5,0.0,0.0,0.0,1,1,0
29757701,29756740,3932170,-0.0073528243,0.0040432704,-0.0076307524,0.34906584,5.6249543e-09,5.6248157e-09,2.321292e-08,3932170,-0.008710076,-0.004675209,-0.13213788,0.4,0.00022569751,0.00022574909,5.004266e-06,396825,0.0,0.0,0.0,0.5,0.0,0.0,0.0,1,1,0
29767637,29766724,3932170,-0.007351175,0.004043063,-0.007630826,0.34906584,5.600572e-09,5.6004095e-09,2.3214117e-08,3932170,-0.008228565,-0.0036941865,-0.13213852,0.4,0.00021553384,0.00021557606,5.0043086e-06,396825,0.0,0.0,0.0,0.5,0.0,0.0,0.0,1,1,0
29978920,29976380,3932170,-0.0073501756,0.004043283,-0.007712528,0.34906584,5.598711e-09,5.598493e-09,2.2858243e-08,3932170,-0.0075802663,-0.0025487675,-0.13211031,0.4,0.00020602258,0.00020607772,5.0050644e-06,396825,0.0,0.0,0.0,0.5,0.0,0.0,0.0,1,1,0
30188675,30186036,3932170,-0.007348829,0.0040434166,-0.0077120992,0.34906584,5.598461e-09,5.5981784e-09,2.2872115e-08,3932170,-0.006948531,-0.0013070676,-0.13224518,0.4,0.0001971566,0.00019722513,5.005656e-06,396825,0.0,0.0,0.0,0.5,0.0,0.0,0.0,1,1,0
30396643,30395692,3932170,-0.0073471502,0.004043595,-0.0077134897,0.34906584,5.599874e-09,5.5995146e-09,2.2884947e-08,3932170,-0.0061206194,1.476926e-05,-0.13220564,0.4,0.0001889264,0.0001890084,5.0061462e-06,396825,0.0,0.0,0.0,0.5,0.0,0.0,0.0,1,1,0
30606333,30605348,3932170,-0.007345185,0.004043785,-0.0077154925,0.34906584,5.6029172e-09,5.6024683e-09,2.2896936e-08,3932170,-0.005161287,0.0013898092,-0.13210121,0.4,0.00018130905,0.00018140448,5.0065373e-06,396825,0.0,0.0,0.0,0.5,0.0,0.0,0.0,1,1,0
30815950,30815011,3932170,-0.0073429965,0.0040440317,-0.007718006,0.34906584,5.6075278e-09,5.606975e-09,2.2908367e-08,3932170,-0.0040847016,0.0028005447,-0.13194446,0.4,0.0001742736,0.00017438243,5.0068534e-06,396825,0.0,0.0,0.0,0.5,0.0,0.0,0.0,1,1,0
31032487,31029658,3932170,-0.0073406305,0.004044093,-0.007717937,0.34906584,5.6135736e-09,5.612901e-09,2.2919373e-08,3932170,-0.0030556605,0.0042207134,-0.13198784,0.4,0.00016778258,0.00016790474,5.0070853e-06,396825,0.0,0.0,0.0,0.5,0.0,0.0,0.0,1,1,0
31451512,31448964,3932170,-0.0073089334,0.004029804,-0.0076901494,0.34906584,5.6090665e-09,5.6081135e-09,2.2858003e-08,3932170,-0.00076984434,0.007029116,-0.13154455,0.4,0.00015570874,0.00015585619,4.989227e-06,396825,0.0,0.0,0.0,0.5,0.0,0.0,0.0,1,1,0
31661414,31658621,3932170,-0.007311416,0.0040331874,-0.007697403,0.34906584,5.6225558e-09,5.621438e-09,2.288518e-08,3932170,0.00055240246,0.008416739,-0.13149604,0.4,0.0001507353,0.00015089547,4.9928262e-06,396825,0.0,0.0,0.0,0.5,0.0,0.0,0.0,1,1,0
31870912,31868277,3932170,-0.007312899,0.0040361183,-0.007703101,0.34906584,5.6361937e-09,5.6349356e-09,2.2912099e-08,3932170,0.0019072217,0.009768941,-0.1314701,0.4,0.00014612579,0.00014629158,4.9957384e-06,396825,0.0,0.0,0.0,0.5,0.0,0.0,0.0,1,1,0
32078931,32077938,3932170,-0.007313606,0.004038801,-0.007708111,0.34906584,5.6499894e-09,5.6485394e-09,2.2934545e-08,3932170,0.00332428,0.011076217,-0.13141428,0.4,0.00014183558,0.00014201383,4.99811e-06,396825,0.0,0.0,0.0,0.5,0.0,0.0,0.0,1,1,0
32288450,32287590,3932170,-0.0073136743,0.004041226,-0.0077118715,0.34906584,5.6638916e-09,5.6622373e-09,2.295553e-08,3932170,0.00476095,0.012334722,-0.1313935,0.4,0.00013784118,0.00013803171,5.0000267e-06,396825,0.0,0.0,0.0,0.5,0.0,0.0,0.0,1,1,0
32498164,32497247,3932170,-0.007313242,0.0040435903,-0.0077151973,0.34906584,5.67787e-09,5.6759983e-09,2.2975543e-08,3932170,0.0062528388,0.013547527,-0.13134669,0.4,0.00013411463,0.00013431728,5.0015833e-06,396825,0.0,0.0,0.0,0.5,0.0,0.0,0.0,1,1,0
32709732,32706903,3932170,-0.007312177,0.0040460597,-0.007719245,0.34906584,5.6916862e-09,5.689587e-09,2.299419e-08,3932170,0.007876779,0.01471435,-0.13113743,0.4,0.00013062547,0.0001308401,5.002684e-06,396825,0.0,0.0,0.0,0.5,0.0,0.0,0.0,1,1,0
32919154,32916588,3932170,-0.007311265,0.0040485645,-0.007721891,0.34906584,5.705834e-09,5.703496e-09,2.3013946e-08,3932170,0.009452723,0.015835032,-0.13108124,0.4,0.00012736222,0.00012758875,5.0038657e-06,396825,0.0,0.0,0.0,0.5,0.0,0.0,0.0,1,1,0
33127194,33126217,3932170,-0.0073098666,0.004050813,-0.0077230227,0.34906584,5.719701e-09,5.7171157e-09,2.30328e-08,3932170,0.011005262,0.016900707,-0.1311201,0.4,0.00012429034,0.00012452861,5.004687e-06,396825,0.0,0.0,0.0,0.5,0.0,0.0,0.0,1,1,0
33336754,33335874,3932170,-0.0073083322,0.004053715,-0.007726318,0.34906584,5.7334266e-09,5.730588e-09,2.3051692e-08,3932170,0.012763127,0.017896006,-0.13085634,0.4,0.00012139447,0.000121644254,5.005357e-06,396825,0.0,0.0,0.0,0.5,0.0,0.0,0.0,1,1,0
33546462,33545533,3932170,-0.0073066656,0.0040563866,-0.0077279345,0.34906584,5.746941e-09,5.7438463e-09,2.3070674e-08,3932170,0.014431883,0.018824046,-0.13076407,0.4,0.00011865644,0.00011891749,5.0058893e-06,396825,0.0,0.0,0.0,0.5,0.0,0.0,0.0,1,1,0
33753063,33750196,3932170,-0.0072696973,0.0040396657,-0.0076924013,0.34906584,5.731481e-09,5.7281433e-09,2.2977426e-08,3932170,0.016053138,0.019580107,-0.12998416,0.4,0.000115513685,0.000115784394,4.9821547e-06,396825,0.0,0.0,0.0,0.5,0.0,0.0,0.0,1,1,0
33962870,33959853,3932170,-0.0072746724,0.0040464783,-0.007701352,0.34906584,5.749758e-09,5.746162e-09,2.3017964e-08,3932170,0.017795134,0.020366706,-0.1298956,0.4,0.0001131732,0.00011345446,4.987087e-06,396825,0.0,0.0,0.0,0.5,0.0,0.0,0.0,1,1,0
34170386,34169511,3932170,-0.0072780126,0.004052302,-0.007707781,0.34906584,5.766462e-09,5.7626934e-09,2.3054305e-08,3932170,0.019471768,0.021072103,-0.12988047,0.4,0.00011092333,0.00011120822,4.990847e-06,396825,0.0,0.0,0.0,0.5,0.0,0.0,0.0,1,1,0
34380149,34379169,3932170,-0.0072806943,0.0040582027,-0.007714208,0.34906584,5.782271e-09,5.7782565e-09,2.3087997e-08,3932170,0.021241121,0.02168744,-0.12966976,0.4,0.00010875545,0.00010905007,4.9940654e-06,396825,0.0,0.0,0.0,0.5,0.0,0.0,0.0,1,1,0
34589772,34588825,3932170,-0.007283004,0.004063899,-0.0077197934,0.34906584,5.797418e-09,5.7931637e-09,2.3120757e-08,3932170,0.022972377,0.022216866,-0.12948819,0.4,0.0001066722,0.000106976,4.99697e-06,396825,0.0,0.0,0.0,0.5,0.0,0.0,0.0,1,1,0
34801075,34798482,3932170,-0.00728425,0.004068967,-0.0077237934,0.34906584,5.811339e-09,5.806853e-09,2.3150356e-08,3932170,0.024651645,0.022660853,-0.12933746,0.4,0.00010465579,0.00010496816,4.999093e-06,396825,0.0,0.0,0.0,0.5,0.0,0.0,0.0,1,1,0
34990578,34988172,3932170,-0.007291385,0.004078009,-0.0076846518,0.34906584,5.8251595e-09,5.8257594e-09,2.3112255e-08,3932170,0.025708545,0.022776125,-0.12892516,0.4,0.00010464798,0.00010495312,5.000664e-06,396825,0.0,0.0,0.0,0.5,0.0,0.0,0.0,1,1,0
35010688,35008141,3932170,-0.0072890013,0.004083032,-0.0076727555,0.34906584,5.8159215e-09,5.8179856e-09,2.3107154e-08,3932170,0.02743673,0.023003476,-0.12890126,0.4,0.000102687954,0.00010297033,5.00082e-06,396825,0.0,0.0,0.0,0.5,0.0,0.0,0.0,1,1,0
35220859,35217837,3932170,-0.0072879544,0.0040906174,-0.007661238,0.34906584,5.8138587e-09,5.8290746e-09,2.3095339e-08,3932170,0.029381478,0.02308065,-0.12850869,0.4,0.000100782134,0.00010101191,5.0022145e-06,396825,0.0,0.0,0.0,0.5,0.0,0.0,0.0,1,1,0
35428428,35427455,3932170,-0.0072872154,0.004096009,-0.007656591,0.34906584,5.8178085e-09,5.839794e-09,2.3104459e-08,3932170,0.03106716,0.023185624,-0.12826778,0.4,9.8946475e-05,9.915384e-05,5.0033404e-06,396825,0.0,0.0,0.0,0.5,0.0,0.0,0.0,1,1,0
35637998,35637112,3932170,-0.0072867256,0.004101153,-0.0076593207,0.34906584,5.8279372e-09,5.850049e-09,2.3116694e-08,3932170,0.03275724,0.023291929,-0.12790978,0.4,9.717501e-05,9.738831e-05,5.0042768e-06,396825,0.0,0.0,0.0,0.5,0.0,0.0,0.0,1,1,0
35847695,35846770,3932170,-0.00728672,0.0041054827,-0.007658633,0.34906584,5.8380016e-09,5.8600325e-09,2.3131072e-08,3932170,0.034389336,0.023359073,-0.12756445,0.4,9.545599e-05,9.567624e-05,5.0050144e-06,396825,0.0,0.0,0.0,0.5,0.0,0.0,0.0,1,1,0
36057470,36056428,3932170,-0.007286866,0.004109551,-0.007655925,0.34906584,5.8478977e-09,5.869793e-09,2.3145777e-08,3932170,0.036016576,0.02334888,-0.12716316,0.4,9.378814e-05,9.401545e-05,5.0056155e-06,396825,0.0,0.0,0.0,0.5,0.0,0.0,0.0,1,1,0
36267230,36266086,3932170,-0.007286118,0.004113839,-0.0076546473,0.34906584,5.85744e-09,5.879187e-09,2.3159489e-08,3932170,0.03762647,0.023211144,-0.12681575,0.4,9.2167924e-05,9.240184e-05,5.005993e-06,396825,0.0,0.0,0.0,0.5,0.0,0.0,0.0,1,1,0
36476845,36475744,3932170,-0.0072852015,0.0041183243,-0.0076546157,0.34906584,5.867108e-09,5.8887464e-09,2.3173392e-08,3932170,0.039203815,0.022958068,-0.12657914,0.4,9.060498e-05,9.084051e-05,5.0064978e-06,396825,0.0,0.0,0.0,0.5,0.0,0.0,0.0,1,1,0
36681523,36680420,3932170,-0.0072841593,0.0041222945,-0.0076509216,0.34906584,5.87569e-09,5.8971135e-09,2.3185546e-08,3932170,0.040735725,0.022611504,-0.12641102,0.4,8.909133e-05,8.93329e-05,5.0067965e-06,396825,0.0,0.0,0.0,0.5,0.0,0.0,0.0,1,1,0
36890985,36890068,3932170,-0.007251344,0.0041085375,-0.0076110526,0.34906584,5.859562e-09,5.8806537e-09,2.3095424e-08,3932170,0.042156164,0.022037638,-0.1255239,0.4,8.724173e-05,8.7487475e-05,4.985223e-06,396825,0.0,0.0,0.0,0.5,0.0,0.0,0.0,1,1,0
37100859,37099730,3932170,-0.007255774,0.004116634,-0.007617133,0.34906584,5.8740555e-09,5.8949157e-09,2.312469e-08,3932170,0.043740526,0.02145788,-0.12541787,0.4,8.58994e-05,8.61498e-05,4.9897253e-06,396825,0.0,0.0,0.0,0.5,0.0,0.0,0.0,1,1,0
37310396,37309384,3932170,-0.007258751,0.004123854,-0.0076191267,0.34906584,5.88751e-09,5.908158e-09,2.3147784e-08,3932170,0.045289196,0.020761022,-0.12528573,0.4,8.458309e-05,8.483728e-05,4.9932214e-06,396825,0.0,0.0,0.0,0.5,0.0,0.0,0.0,1,1,0
37519959,37519043,3932170,-0.0072607608,0.0041312366,-0.00761868,0.34906584,5.900365e-09,5.92078e-09,2.3167638e-08,3932170,0.046937373,0.019924028,-0.12481212,0.4,8.329879e-05,8.3555984e-05,4.9960518e-06,396825,0.0,0.0,0.0,0.5,0.0,0.0,0.0,1,1,0
37729628,37728701,3932170,-0.007261568,0.0041371877,-0.0076157814,0.34906584,5.9125638e-09,5.9327063e-09,2.3180798e-08,3932170,0.048381153,0.01902082,-0.12465175,0.4,8.204515e-05,8.230478e-05,4.9981404e-06,396825,0.0,0.0,0.0,0.5,0.0,0.0,0.0,1,1,0
37939319,37938360,3932170,-0.0072625265,0.0041430686,-0.0076069026,0.34906584,5.925023e-09,5.9448744e-09,2.3191955e-08,3932170,0.049801633,0.018024016,-0.1243583,0.4,8.0834434e-05,8.1096005e-05,5.000222e-06,396825,0.0,0.0,0.0,0.5,0.0,0.0,0.0,1,1,0
38148943,38148018,3932170,-0.007262657,0.004148559,-0.0075958334,0.34906584,5.9371095e-09,5.9566863e-09,2.3198266e-08,3932170,0.051157456,0.016960453,-0.12403824,0.4,7.9657635e-05,7.992058e-05,5.0017243e-06,396825,0.0,0.0,0.0,0.5,0.0,0.0,0.0,1,1,0
38358731,38357676,3932170,-0.0072625,0.004153173,-0.007572816,0.34906584,5.949213e-09,5.9685124e-09,2.3200922e-08,3932170,0.052373365,0.015821565,-0.123733945,0.4,7.85197e-05,7.878357e-05,5.0029375e-06,396825,0.0,0.0,0.0,0.5,0.0,0.0,0.0,1,1,0
38568549,38567335,3932170,-0.007261846,0.0041580526,-0.0075569656,0.34906584,5.961441e-09,5.9804672e-09,2.320015e-08,3932170,0.053534787,0.014621053,-0.12337202,0.4,7.7421966e-05,7.768628e-05,5.003931e-06,396825,0.0,0.0,0.0,0.5,0.0,0.0,0.0,1,1,0
38659615,38657189,3932170,-0.0072522196,0.004164366,-0.0075464635,0.34906584,5.9593908e-09,5.981061e-09,2.3185605e-08,3932170,0.054110937,0.013663194,-0.123288594,0.4,7.7351404e-05,7.759704e-05,5.0043195e-06,396825,0.0,0.0,0.0,0.5,0.0,0.0,0.0,1,1,0
38777909,38776993,3932170,-0.0072443876,0.0041723163,-0.007538604,0.34906584,5.960436e-09,5.9782104e-09,2.3178933e-08,3932170,0.05544722,0.011860488,-0.12311801,0.4,7.624371e-05,7.651639e-05,5.004738e-06,396825,0.0,0.0,0.0,0.5,0.0,0.0,0.0,1,1,0
38987673,38986661,3932170,-0.0072450517,0.0041811154,-0.0075300196,0.34906584,5.9716383e-09,5.984284e-09,2.3174207e-08,3932170,0.05676956,0.010707701,-0.1228844,0.4,7.517179e-05,7.548593e-05,5.005395e-06,396825,0.0,0.0,0.0,0.5,0.0,0.0,0.0,1,1,0
39197174,39196311,3932170,-0.00724062,0.004190663,-0.007516658,0.34906584,5.98362e-09,5.9930025e-09,2.3173484e-08,3932170,0.05801965,0.009081656,-0.12262535,0.4,7.4161144e-05,7.450102e-05,5.0059157e-06,396825,0.0,0.0,0.0,0.5,0.0,0.0,0.0,1,1,0
39406893,39405970,3932170,-0.007235312,0.004197705,-0.0075067785,0.34906584,5.9959744e-09,6.0030567e-09,2.3172362e-08,3932170,0.058907975,0.0073673464,-0.122374654,0.4,7.320086e-05,7.355849e-05,5.0063372e-06,396825,0.0,0.0,0.0,0.5,0.0,0.0,0.0,1,1,0
39618238,39615630,3932170,-0.007237878,0.0042027216,-0.0075025964,0.34906584,6.0084835e-09,6.013852e-09,2.3169305e-08,3932170,0.05964736,0.006188628,-0.12202152,0.4,7.2285955e-05,7.2656876e-05,5.006674e-06,396825,0.0,0.0,0.0,0.5,0.0,0.0,0.0,1,1,0
39828245,39825388,3932170,-0.0072342395,0.004217093,-0.007468193,0.34906584,6.021072e-09,6.025201e-09,2.3163942e-08,3932170,0.061020218,0.004390517,-0.12172462,0.4,7.141508e-05,7.1796385e-05,5.0069457e-06,396825,0.0,0.0,0.0,0.5,0.0,0.0,0.0,1,1,0
40030839,40029956,3932170,-0.0071973153,0.0042109056,-0.0073963637,0.34906584,6.0045955e-09,6.0080336e-09,2.3049003e-08,3932170,0.061909974,0.0026038848,-0.12105028,0.4,7.0263435e-05,7.064994e-05,4.9837236e-06,396825,0.0,0.0,0.0,0.5,0.0,0.0,0.0,1,1,0
40401984,40399355,3932170,-0.0072018113,0.0042426004,-0.007313719,0.34906584,6.0391154e-09,6.0430976e-09,2.3061608e-08,3932170,0.06412081,0.00019613223,-0.12087908,0.4,6.956867e-05,6.996427e-05,4.9913087e-06,396825,0.0,0.0,0.0,0.5,0.0,0.0,0.0,1,1,0
40452125,40449274,3932170,-0.007197905,0.0042499015,-0.0073013715,0.34906584,6.038277e-09,6.0425e-09,2.3062547e-08,3932170,0.06444243,-0.0015695438,-0.120812334,0.4,6.886103e-05,6.925303e-05,4.9921023e-06,396825,0.0,0.0,0.0,0.5,0.0,0.0,0.0,1,1,0
40641523,40638967,3932170,-0.0072050034,0.0042626862,-0.007253525,0.34906584,6.056361e-09,6.0626664e-09,2.306116e-08,3932170,0.06556614,-0.0017131796,-0.120708555,0.4,6.887588e-05,6.9263835e-05,4.9949113e-06,396825,0.0,0.0,0.0,0.5,0.0,0.0,0.0,1,1,0
40661819,40658933,3932170,-0.0072030416,0.004267422,-0.007247277,0.34906584,6.052513e-09,6.05897e-09,2.3059549e-08,3932170,0.065649435,-0.0032221905,-0.120679185,0.4,6.820483e-05,6.858928e-05,4.9951514e-06,396825,0.0,0.0,0.0,0.5,0.0,0.0,0.0,1,1,0
40871521,40868593,3932170,-0.0072025163,0.0042821355,-0.0071957777,0.34906584,6.0652643e-09,6.0750054e-09,2.3052072e-08,3932170,0.06642879,-0.0052028922,-0.1205504,0.4,6.75814e-05,6.795302e-05,4.9976184e-06,396825,0.0,0.0,0.0,0.5,0.0,0.0,0.0,1,1,0
41079185,41078252,3932170,-0.0072077187,0.004293411,-0.007162927,0.34906584,6.077596e-09,6.090575e-09,2.3042263e-08,3932170,0.066974804,-0.0064958334,-0.1203557,0.4,6.6991975e-05,6.735226e-05,4.9996183e-06,396825,0.0,0.0,0.0,0.5,0.0,0.0,0.0,1,1,0
41288858,41287928,3932170,-0.007212064,0.004299464,-0.0071549336,0.34906584,6.088669e-09,6.1051595e-09,2.302407e-08,3932170,0.06695994,-0.0076061375,-0.120106675,0.4,6.643274e-05,6.678292e-05,5.001232e-06,396825,0.0,0.0,0.0,0.5,0.0,0.0,0.0,1,1,0
41498492,41497575,3932170,-0.0072148377,0.004301934,-0.0071613025,0.34906584,6.0992895e-09,6.1190892e-09,2.3000768e-08,3932170,0.06651427,-0.00864632,-0.120074585,0.4,6.590796e-05,6.625061e-05,5.002555e-06,396825,0.0,0.0,0.0,0.5,0.0,0.0,0.0,1,1,0
41789735,41787103,3932170,-0.0072245104,0.004297784,-0.007184853,0.34906584,6.1152168e-09,6.1390666e-09,2.2957517e-08,3932170,0.065608576,-0.009019825,-0.11985263,0.4,6.540603e-05,6.574365e-05,5.0039557e-06,396825,0.0,0.0,0.0,0.5,0.0,0.0,0.0,1,1,0
42049159,42046680,3932170,-0.007227671,0.004298955,-0.0071959975,0.34906584,6.129093e-09,6.1555916e-09,2.2913257e-08,3932170,0.06499839,-0.009812908,-0.11971564,0.4,6.494556e-05,6.5282606e-05,5.004955e-06,396825,0.0,0.0,0.0,0.5,0.0,0.0,0.0,1,1,0
42129516,42126550,3932170,-0.0072278255,0.0043000155,-0.007204989,0.34906584,6.1292558e-09,6.156341e-09,2.2894595e-08,3932170,0.06433045,-0.010711089,-0.11960736,0.4,6.454888e-05,6.488658e-05,5.005163e-06,396825,0.0,0.0,0.0,0.5,0.0,0.0,0.0,1,1,0
42363759,42361169,3932170,-0.0071963575,0.004276185,-0.0071877227,0.34906584,6.1095204e-09,6.137895e-09,2.2726901e-08,3932170,0.06313012,-0.011105621,-0.11903715,0.4,6.38471e-05,6.418599e-05,4.9809055e-06,396825,0.0,0.0,0.0,0.5,0.0,0.0,0.0,1,1,0
42563203,42560845,3932170,-0.0072003747,0.0042846315,-0.007203385,0.34906584,6.12366e-09,6.1524994e-09,2.2697797e-08,3932170,0.06264365,-0.012071064,-0.118952386,0.4,6.356651e-05,6.391077e-05,4.9858313e-06,396825,0.0,0.0,0.0,0.5,0.0,0.0,0.0,1,1,0
42812903,42810440,3932170,-0.007205272,0.0042912588,-0.0072259316,0.34906584,6.1409593e-09,6.1692362e-09,2.264167e-08,3932170,0.061989203,-0.012835317,-0.118879385,0.4,6.3307394e-05,6.3662344e-05,4.990744e-06,396825,0.0,0.0,0.0,0.5,0.0,0.0,0.0,1,1,0
43170741,43169858,3932170,-0.00720926,0.0043099113,-0.007227734,0.34906584,6.1591168e-09,6.1843797e-09,2.2550148e-08,3932170,0.061513428,-0.014258915,-0.11876063,0.4,6.286664e-05,6.324534e-05,4.996015e-06,396825,0.0,0.0,0.0,0.5,0.0,0.0,0.0,1,1,0
43380482,43379518,3932170,-0.0072065922,0.004327101,-0.0072115837,0.34906584,6.1691887e-09,6.1907532e-09,2.2479448e-08,3932170,0.061702374,-0.015240802,-0.11866241,0.4,6.2677835e-05,6.307778e-05,4.9983055e-06,396825,0.0,0.0,0.0,0.5,0.0,0.0,0.0,1,1,0
43590214,43589178,3932170,-0.0072037787,0.0043483092,-0.007171505,0.34906584,6.1784404e-09,6.194812e-09,2.2402977e-08,3932170,0.06230063,-0.016182648,-0.118564,0.4,6.251181e-05,6.29388e-05,5.0001727e-06,396825,0.0,0.0,0.0,0.5,0.0,0.0,0.0,1,1,0
43731395,43728952,3932170,-0.0072035617,0.004365883,-0.007111585,0.34906584,6.1922667e-09,6.2043832e-09,2.234629e-08,3932170,0.063480124,-0.016421879,-0.11843754,0.4,6.2493455e-05,6.293876e-05,5.001225e-06,396825,0.0,0.0,0.0,0.5,0.0,0.0,0.0,1,1,0
43901306,43898677,3932170,-0.007208356,0.0043860003,-0.007027498,0.34906584,6.1965912e-09,6.20329e-09,2.2281453e-08,3932170,0.06461692,-0.016640991,-0.1184869,0.4,6.2352185e-05,6.282546e-05,5.002306e-06,396825,0.0,0.0,0.0,0.5,0.0,0.0,0.0,1,1,0
44091258,44088369,3932170,-0.007213149,0.0044047516,-0.0069435495,0.34906584,6.201379e-09,6.2012298e-09,2.2206734e-08,3932170,0.06570661,-0.016796751,-0.11852985,0.4,6.2226194e-05,6.273423e-05,5.003294e-06,396825,0.0,0.0,0.0,0.5,0.0,0.0,0.0,1,1,0
44180676,44178224,3932170,-0.007213275,0.0044191265,-0.006897134,0.34906584,6.2105756e-09,6.207028e-09,2.2174191e-08,3932170,0.06669858,-0.016958453,-0.11854857,0.4,6.221255e-05,6.273571e-05,5.0037124e-06,396825,0.0,0.0,0.0,0.5,0.0,0.0,0.0,1,1,0
44298906,44298030,3932170,-0.0072140414,0.0044370345,-0.0068485406,0.34906584,6.206563e-09,6.1988774e-09,2.2133058e-08,3932170,0.067574754,-0.017409762,-0.11837265,0.4,6.211684e-05,6.266282e-05,5.0042163e-06,396825,0.0,0.0,0.0,0.5,0.0,0.0,0.0,1,1,0
44440231,44437804,3932170,-0.0072170123,0.004454194,-0.0067673675,0.34906584,6.202524e-09,6.1886998e-09,2.2072278e-08,3932170,0.06869001,-0.017623259,-0.1184737,0.4,6.202558e-05,6.260366e-05,5.004724e-06,396825,0.0,0.0,0.0,0.5,0.0,0.0,0.0,1,1,0
44520122,44517679,3932170,-0.007217114,0.0044689244,-0.0067214104,0.34906584,6.2107186e-09,6.1930714e-09,2.2036877e-08,3932170,0.069723085,-0.017828252,-0.118390486,0.4,6.200984e-05,6.2604406e-05,5.0049866e-06,396825,0.0,0.0,0.0,0.5,0.0,0.0,0.0,1,1,0
44669824,44667432,3932170,-0.007219746,0.004484229,-0.006638211,0.34906584,6.2055174e-09,6.181409e-09,2.1975199e-08,3932170,0.07082727,-0.018061254,-0.11841757,0.4,6.1927065e-05,6.255488e-05,5.005433e-06,396825,0.0,0.0,0.0,0.5,0.0,0.0,0.0,1,1,0
44819601,44817189,3932170,-0.0072222804,0.004494091,-0.00653489,0.34906584,6.2208567e-09,6.1896595e-09,2.1912307e-08,3932170,0.07192941,-0.018035607,-0.11848071,0.4,6.1897954e-05,6.255675e-05,5.0058043e-06,396825,0.0,0.0,0.0,0.5,0.0,0.0,0.0,1,1,0
44949565,44947025,3932170,-0.007224996,0.004507403,-0.0064424705,0.34906584,6.2109966e-09,6.1743157e-09,2.1856492e-08,3932170,0.07301341,-0.018181536,-0.11850691,0.4,6.182146e-05,6.2509615e-05,5.006025e-06,396825,0.0,0.0,0.0,0.5,0.0,0.0,0.0,1,1,0
45029491,45026854,3932170,-0.0072268182,0.004521256,-0.006384251,0.34906584,6.218975e-09,6.1781242e-09,2.1818447e-08,3932170,0.074073866,-0.018222135,-0.11856514,0.4,6.180219e-05,6.25093e-05,5.0060667e-06,396825,0.0,0.0,0.0,0.5,0.0,0.0,0.0,1,1,0
45159213,45156640,3932170,-0.007229858,0.004535772,-0.0062749344,0.34906584,6.206749e-09,6.1604974e-09,2.176204e-08,3932170,0.07529011,-0.0183599,-0.11851983,0.4,6.172711e-05,6.2463885e-05,5.0064796e-06,396825,0.0,0.0,0.0,0.5,0.0,0.0,0.0,1,1,0
45269051,45266459,3932170,-0.007232234,0.0045492416,-0.006162803,0.34906584,6.1895116e-09,6.139027e-09,2.1713443e-08,3932170,0.076511964,-0.01850758,-0.11855039,0.4,6.164835e-05,6.240947e-05,5.0066524e-06,396825,0.0,0.0,0.0,0.5,0.0,0.0,0.0,1,1,0
45328921,45326365,3932170,-0.007233989,0.004560828,-0.006071386,0.34906584,6.1954584e-09,6.1418395e-09,2.1683729e-08,3932170,0.07763189,-0.018584058,-0.118553035,0.4,6.163363e-05,6.2410094e-05,5.006737e-06,396825,0.0,0.0,0.0,0.5,0.0,0.0,0.0,1,1,0
45418664,45416225,3932170,-0.0072356123,0.0045710905,-0.005975125,0.34906584,6.204313e-09,6.146545e-09,2.1644269e-08,3932170,0.078651436,-0.01863573,-0.11860198,0.4,6.1613566e-05,6.2410734e-05,5.0068347e-06,396825,0.0,0.0,0.0,0.5,0.0,0.0,0.0,1,1,0
45479116,45476123,3932170,-0.0072394884,0.004586255,-0.0058923373,0.34906584,6.1791323e-09,6.1195946e-09,2.1612635e-08,3932170,0.079889946,-0.01865459,-0.118639834,0.4,6.1533494e-05,6.2343286e-05,5.006924e-06,396825,0.0,0.0,0.0,0.5,0.0,0.0,0.0,1,1,0
45588487,45585946,3932170,-0.0072423858,0.0045952313,-0.0057379836,0.34906584,6.1897487e-09,6.1253145e-09,2.1560794e-08,3932170,0.08107087,-0.018524352,-0.11867069,0.4,6.150774e-05,6.23438e-05,5.0070485e-06,396825,0.0,0.0,0.0,0.5,0.0,0.0,0.0,1,1,0
45678228,45675801,3932170,-0.007248009,0.0046087806,-0.0056112166,0.34906584,6.1983196e-09,6.1300605e-09,2.1518696e-08,3932170,0.08243961,-0.018227236,-0.11868967,0.4,6.1486404e-05,6.234405e-05,5.0071535e-06,396825,0.0,0.0,0.0,0.5,0.0,0.0,0.0,1,1,0
45778064,45775639,3932170,-0.0072537647,0.004618429,-0.005476732,0.34906584,6.1736425e-09,6.1022956e-09,2.1462455e-08,3932170,0.083600655,-0.0178622,-0.11878124,0.4,6.1377985e-05,6.225763e-05,5.007239e-06,396825,0.0,0.0,0.0,0.5,0.0,0.0,0.0,1,1,0
45847971,45845526,3932170,-0.0072586215,0.0046272986,-0.0053847665,0.34906584,6.180118e-09,6.10608e-09,2.1429644e-08,3932170,0.08456903,-0.01754616,-0.118818216,0.4,6.136064e-05,6.2257095e-05,5.0073063e-06,396825,0.0,0.0,0.0,0.5,0.0,0.0,0.0,1,1,0
45968214,45965332,3932170,-0.0072630337,0.0046324315,-0.0052234516,0.34906584,6.153958e-09,6.076425e-09,2.135948e-08,3932170,0.085585974,-0.017161394,-0.118937165,0.4,6.1223036e-05,6.214574e-05,5.0073727e-06,396825,0.0,0.0,0.0,0.5,0.0,0.0,0.0,1,1,0
46097530,46095122,3932170,-0.0072664022,0.004637677,-0.0050671464,0.34906584,6.1655254e-09,6.082966e-09,2.1289093e-08,3932170,0.08660398,-0.01686648,-0.11906469,0.4,6.11861e-05,6.214369e-05,5.0074714e-06,396825,0.0,0.0,0.0,0.5,0.0,0.0,0.0,1,1,0
46227231,46224912,3932170,-0.0072714924,0.0046446077,-0.004910886,0.34906584,6.136959e-09,6.0517347e-09,2.1215639e-08,3932170,0.0877042,-0.016462492,-0.11918607,0.4,6.1021958e-05,6.200262e-05,5.007557e-06,396825,0.0,0.0,0.0,0.5,0.0,0.0,0.0,1,1,0
46287656,46284815,3932170,-0.0072785066,0.0046560573,-0.004832281,0.34906584,6.1419496e-09,6.0545857e-09,2.1177842e-08,3932170,0.0888517,-0.016059417,-0.11931832,0.4,6.100251e-05,6.2000436e-05,5.007581e-06,396825,0.0,0.0,0.0,0.5,0.0,0.0,0.0,1,1,0
46397093,46394641,3932170,-0.0072861905,0.004664629,-0.0046787728,0.34906584,6.1082805e-09,6.0198437e-09,2.1113284e-08,3932170,0.09012738,-0.015437892,-0.11939666,0.4,6.081306e-05,6.182402e-05,5.0076314e-06,396825,0.0,0.0,0.0,0.5,0.0,0.0,0.0,1,1,0
46506844,46504461,3932170,-0.007292346,0.004671548,-0.0045359973,0.34906584,6.117167e-09,6.025756e-09,2.1047954e-08,3932170,0.09119101,-0.014893648,-0.1194885,0.4,6.0780145e-05,6.1819046e-05,5.0076605e-06,396825,0.0,0.0,0.0,0.5,0.0,0.0,0.0,1,1,0
46607166,46604299,3932170,-0.0072990092,0.0046758354,-0.004375959,0.34906584,6.0791585e-09,5.987538e-09,2.0979346e-08,3932170,0.092176594,-0.01421101,-0.11950796,0.4,6.05546e-05,6.160224e-05,5.007718e-06,396825,0.0,0.0,0.0,0.5,0.0,0.0,0.0,1,1,0
46716658,46714121,3932170,-0.0073032505,0.0046790903,-0.0042090337,0.34906584,6.0876006e-09,5.9936465e-09,2.091068e-08,3932170,0.09304289,-0.013694038,-0.11950419,0.4,6.0520764e-05,6.159606e-05,5.0077533e-06,396825,0.0,0.0,0.0,0.5,0.0,0.0,0.0,1,1,0
46826371,46823944,3932170,-0.007307869,0.0046808473,-0.004029048,0.34906584,6.047417e-09,5.954027e-09,2.0839288e-08,3932170,0.093898356,-0.013113899,-0.11956678,0.4,6.0254926e-05,6.133491e-05,5.0077892e-06,396825,0.0,0.0,0.0,0.5,0.0,0.0,0.0,1,1,0
46886410,46883848,3932170,-0.007314522,0.004688703,-0.0039261966,0.34906584,6.051707e-09,5.9572534e-09,2.0795625e-08,3932170,0.09487445,-0.012644048,-0.11959219,0.4,6.0234765e-05,6.1330815e-05,5.0078074e-06,396825,0.0,0.0,0.0,0.5,0.0,0.0,0.0,1,1,0
46996111,46993671,3932170,-0.0073202043,0.0046903756,-0.0037405845,0.34906584,6.008552e-09,5.9154703e-09,2.0720833e-08,3932170,0.095716655,-0.011960825,-0.11963875,0.4,5.9926282e-05,6.1021212e-05,5.0078293e-06,396825,0.0,0.0,0.0,0.5,0.0,0.0,0.0,1,1,0
47076187,47073542,3932170,-0.0073248385,0.004694839,-0.00359313,0.34906584,6.014007e-09,5.920085e-09,2.0660055e-08,3932170,0.0966326,-0.011498119,-0.11960834,0.4,5.99004e-05,6.1014725e-05,5.0078643e-06,396825,0.0,0.0,0.0,0.5,0.0,0.0,0.0,1,1,0
47205897,47203331,3932170,-0.0073294975,0.004693177,-0.0033787664,0.34906584,5.9692247e-09,5.8774607e-09,2.0565741e-08,3932170,0.0973369,-0.010739004,-0.11964635,0.4,5.953847e-05,6.0650687e-05,5.0078347e-06,396825,0.0,0.0,0.0,0.5,0.0,0.0,0.0,1,1,0
47320593,47318146,3932170,-0.0073363516,0.0046982793,-0.0032119714,0.34906584,5.9765823e-09,5.8846767e-09,2.048691e-08,3932170,0.098427504,-0.010042273,-0.11976181,0.4,5.95063e-05,6.064077e-05,5.0079034e-06,396825,0.0,0.0,0.0,0.5,0.0,0.0,0.0,1,1,0
47400427,47398017,3932170,-0.0073095434,0.004675611,-0.0030779326,0.34906584,5.898483e-09,5.8101652e-09,2.0324952e-08,3932170,0.098390006,-0.009170138,-0.11923494,0.4,5.8839865e-05,5.9950115e-05,4.984464e-06,396825,0.0,0.0,0.0,0.5,0.0,0.0,0.0,1,1,0
47530230,47527807,3932170,-0.0073197684,0.0046823267,-0.0029216215,0.34906584,5.9099476e-09,5.8223e-09,2.023905e-08,3932170,0.09949203,-0.008520165,-0.11945233,0.4,5.883449e-05,5.996987e-05,4.9873383e-06,396825,0.0,0.0,0.0,0.5,0.0,0.0,0.0,1,1,0
47630097,47627651,3932170,-0.00733088,0.0046827625,-0.0027745438,0.34906584,5.860977e-09,5.777206e-09,2.0161897e-08,3932170,0.0999986,-0.0076278723,-0.11955055,0.4,5.8412454e-05,5.9529346e-05,4.989313e-06,396825,0.0,0.0,0.0,0.5,0.0,0.0,0.0,1,1,0
47739842,47737478,3932170,-0.0073414915,0.0046905144,-0.0026398802,0.34906584,5.8698144e-09,5.787266e-09,2.0084856e-08,3932170,0.10111528,-0.006983802,-0.11972606,0.4,5.8403293e-05,5.9540165e-05,4.9912433e-06,396825,0.0,0.0,0.0,0.5,0.0,0.0,0.0,1,1,0
47889795,47887227,3932170,-0.007352445,0.0046897186,-0.0024610949,0.34906584,5.8222707e-09,5.744988e-09,1.9970777e-08,3932170,0.10160614,-0.0061263843,-0.119943365,0.4,5.7921854e-05,5.9042744e-05,4.993549e-06,396825,0.0,0.0,0.0,0.5,0.0,0.0,0.0,1,1,0
47949752,47947133,3932170,-0.007362514,0.0046970537,-0.002387897,0.34906584,5.8265033e-09,5.7504117e-09,1.9920979e-08,3932170,0.10254526,-0.005569903,-0.12008769,0.4,5.791475e-05,5.904599e-05,4.9944683e-06,396825,0.0,0.0,0.0,0.5,0.0,0.0,0.0,1,1,0
47987993,47987066,3932170,-0.0073607913,0.004685749,-0.0023585067,0.34906584,5.7699316e-09,5.69719e-09,1.990557e-08,3932170,0.10151181,-0.0054645566,-0.12008944,0.4,5.739914e-05,5.8487323e-05,4.9950017e-06,396825,0.0,0.0,0.0,0.5,0.0,0.0,0.0,1,1,0
48079520,48076920,3932170,-0.007370061,0.0046919906,-0.0022391605,0.34906584,5.7754024e-09,5.704985e-09,1.9817923e-08,3932170,0.1025274,-0.004892717,-0.12028759,0.4,5.7383266e-05,5.8487523e-05,4.9961254e-06,396825,0.0,0.0,0.0,0.5,0.0,0.0,0.0,1,1,0
48149188,48146807,3932170,-0.0073801233,0.0046985694,-0.0021634782,0.34906584,5.7803726e-09,5.711521e-09,1.9766656e-08,3932170,0.103433765,-0.0043362486,-0.120375395,0.4,5.7375997e-05,5.8489153e-05,4.996943e-06,396825,0.0,0.0,0.0,0.5,0.0,0.0,0.0,1,1,0
48197701,48196727,3932170,-0.0073810243,0.0046876585,-0.0021095232,0.34906584,5.722631e-09,5.657686e-09,1.973083e-08,3932170,0.10245981,-0.004048751,-0.12041293,0.4,5.680266e-05,5.7873276e-05,4.9974733e-06,396825,0.0,0.0,0.0,0.5,0.0,0.0,0.0,1,1,0
48319100,48316535,3932170,-0.007389081,0.004692112,-0.0019528356,0.34906584,5.729881e-09,5.668526e-09,1.9621874e-08,3932170,0.10339635,-0.0034783045,-0.12055215,0.4,5.6782417e-05,5.7870744e-05,4.998683e-06,396825,0.0,0.0,0.0,0.5,0.0,0.0,0.0,1,1,0
48407320,48406390,3932170,-0.007388637,0.0046788896,-0.0018525755,0.34906584,5.6736034e-09,5.6175518e-09,1.9547413e-08,3932170,0.10230377,-0.003208008,-0.12066171,0.4,5.61543e-05,5.720022e-05,4.9994983e-06,396825,0.0,0.0,0.0,0.5,0.0,0.0,0.0,1,1,0
48513562,48511220,3932170,-0.0073994775,0.0046841,-0.0017303758,0.34906584,5.6792455e-09,5.626754e-09,1.9452495e-08,3932170,0.10327437,-0.0025102145,-0.12081791,0.4,5.6138048e-05,5.7195324e-05,5.000311e-06,396825,0.0,0.0,0.0,0.5,0.0,0.0,0.0,1,1,0
48612091,48611059,3932170,-0.007401175,0.004670487,-0.0016443441,0.34906584,5.6234644e-09,5.5764504e-09,1.9374914e-08,3932170,0.10205305,-0.00210646,-0.12083123,0.4,5.546378e-05,5.647746e-05,5.0007397e-06,396825,0.0,0.0,0.0,0.5,0.0,0.0,0.0,1,1,0
48783345,48780785,3932170,-0.0073828967,0.004654703,-0.0014583967,0.34906584,5.6084346e-09,5.5690386e-09,1.9115676e-08,3932170,0.10272981,-0.0011774609,-0.120464385,0.4,5.520425e-05,5.6227145e-05,4.9809787e-06,396825,0.0,0.0,0.0,0.5,0.0,0.0,0.0,1,1,0
48821638,48820727,3932170,-0.0073787495,0.004637934,-0.0014376938,0.34906584,5.550699e-09,5.514309e-09,1.9099499e-08,3932170,0.10081101,-0.0012454647,-0.120482735,0.4,5.4508448e-05,5.548065e-05,4.9820383e-06,396825,0.0,0.0,0.0,0.5,0.0,0.0,0.0,1,1,0
49382246,49379822,3932170,-0.0074166907,0.004616464,-0.0010093066,0.34906584,5.466423e-09,5.4588276e-09,1.8546807e-08,3932170,0.09974595,0.0006372367,-0.121429175,0.4,5.2990432e-05,5.388568e-05,4.9932137e-06,396825,0.0,0.0,0.0,0.5,0.0,0.0,0.0,1,1,0
49662010,49659369,3932170,-0.0074292053,0.004582014,-0.0009874267,0.34906584,5.36456e-09,5.372469e-09,1.8250736e-08,3932170,0.095858045,0.001221786,-0.12186012,0.4,5.1309584e-05,5.2107105e-05,4.996851e-06,396825,0.0,0.0,0.0,0.5,0.0,0.0,0.0,1,1,0
49871999,49869031,3932170,-0.007437386,0.004563566,-0.001017927,0.34906584,5.3191638e-09,5.338117e-09,1.801513e-08,3932170,0.0937567,0.0015142423,-0.12217939,0.4,5.042329e-05,5.1170548e-05,4.9989776e-06,396825,0.0,0.0,0.0,0.5,0.0,0.0,0.0,1,1,0
50079564,50078693,3932170,-0.007443042,0.0045435615,-0.0010565198,0.34906584,5.2762594e-09,5.3048983e-09,1.779947e-08,3932170,0.091405794,0.0016821907,-0.1224505,0.4,4.9519254e-05,5.0213617e-05,5.000708e-06,396825,0.0,0.0,0.0,0.5,0.0,0.0,0.0,1,1,0
50289272,50288355,3932170,-0.007435536,0.004522833,-0.001130229,0.34906584,5.2339897e-09,5.272803e-09,1.7548212e-08,3932170,0.08858586,0.001156271,-0.1228653,0.4,4.85923e-05,4.9236976e-05,5.002101e-06,396825,0.0,0.0,0.0,0.5,0.0,0.0,0.0,1,1,0
50498955,50498018,3932170,-0.0074321325,0.0045011444,-0.0011938317,0.34906584,5.1938422e-09,5.2421547e-09,1.7289437e-08,3932170,0.08574892,0.0008310545,-0.123102985,0.4,4.7653186e-05,4.8249763e-05,5.003235e-06,396825,0.0,0.0,0.0,0.5,0.0,0.0,0.0,1,1,0
50710112,50707680,3932170,-0.007430997,0.0044794073,-0.0013007056,0.34906584,5.1560964e-09,5.21306e-09,1.7026892e-08,3932170,0.08294472,0.0005128293,-0.12333885,0.4,4.6707006e-05,4.7256963e-05,5.0041485e-06,396825,0.0,0.0,0.0,0.5,0.0,0.0,0.0,1,1,0
50919897,50917343,3932170,-0.007431968,0.0044574738,-0.0014134136,0.34906584,5.1207816e-09,5.1855844e-09,1.6762582e-08,3932170,0.08014921,0.0003018511,-0.12356826,0.4,4.575847e-05,4.6263038e-05,5.0048834e-06,396825,0.0,0.0,0.0,0.5,0.0,0.0,0.0,1,1,0
51129651,51127005,3932170,-0.007428541,0.004436775,-0.0015580615,0.34906584,5.087945e-09,5.1598015e-09,1.649858e-08,3932170,0.07725336,-0.00014578494,-0.12385384,0.4,4.481197e-05,4.5272354e-05,5.005494e-06,396825,0.0,0.0,0.0,0.5,0.0,0.0,0.0,1,1,0
51337668,51336668,3932170,-0.007421957,0.0044188322,-0.0017079612,0.34906584,5.0584505e-09,5.1358e-09,1.6266029e-08,3932170,0.074302025,-0.00080082804,-0.12406839,0.4,4.387144e-05,4.4290337e-05,5.0059843e-06,396825,0.0,0.0,0.0,0.5,0.0,0.0,0.0,1,1,0
51547403,51546330,3932170,-0.0074240877,0.0043981997,-0.0018623292,0.34906584,5.0307407e-09,5.113334e-09,1.6009702e-08,3932170,0.07149847,-0.0010771293,-0.124239296,0.4,4.2939297e-05,4.331657e-05,5.0063745e-06,396825,0.0,0.0,0.0,0.5,0.0,0.0,0.0,1,1,0
51756977,51755994,3932170,-0.007428172,0.0043787975,-0.0020254534,0.34906584,5.0057234e-09,5.0925997e-09,1.5757859e-08,3932170,0.06875962,-0.0013406771,-0.12437334,0.4,4.201893e-05,4.2356674e-05,5.0066956e-06,396825,0.0,0.0,0.0,0.5,0.0,0.0,0.0,1,1,0
51968249,51965658,3932170,-0.0074290177,0.0043625776,-0.0022097984,0.34906584,4.983362e-09,5.0735975e-09,1.5511038e-08,3932170,0.06594219,-0.0018364448,-0.12433425,0.4,4.111275e-05,4.1413175e-05,5.006935e-06,396825,0.0,0.0,0.0,0.5,0.0,0.0,0.0,1,1,0
52177973,52175361,3932170,-0.007430762,0.004346533,-0.0023721464,0.34906584,4.963593e-09,5.0562563e-09,1.527147e-08,3932170,0.06314365,-0.0023129773,-0.12428637,0.4,4.022344e-05,4.0488292e-05,5.007158e-06,396825,0.0,0.0,0.0,0.5,0.0,0.0,0.0,1,1,0
52387911,52384981,3932170,-0.007434207,0.00433066,-0.0025273124,0.34906584,4.9462336e-09,5.0403943e-09,1.5040065e-08,3932170,0.060447365,-0.002769211,-0.12432915,0.4,3.9352464e-05,3.958312e-05,5.007327e-06,396825,0.0,0.0,0.0,0.5,0.0,0.0,0.0,1,1,0
52592479,52589657,3932170,-0.0074331504,0.004317413,-0.002636746,0.34906584,4.9309308e-09,5.025601e-09,1.4838993e-08,3932170,0.057777133,-0.003432836,-0.12442163,0.4,3.8509654e-05,3.870657e-05,5.0074523e-06,396825,0.0,0.0,0.0,0.5,0.0,0.0,0.0,1,1,0
52800298,52799315,3932170,-0.0074010957,0.0042837122,-0.002726239,0.34906584,4.897342e-09,4.9914153e-09,1.4558761e-08,3932170,0.054837756,-0.0040764334,-0.12387067,0.4,3.7524176e-05,3.7688907e-05,4.9863406e-06,396825,0.0,0.0,0.0,0.5,0.0,0.0,0.0,1,1,0
53011568,53008979,3932170,-0.007409497,0.004266764,-0.0028223807,0.34906584,4.8907514e-09,4.9837916e-09,1.435901e-08,3932170,0.05219248,-0.0045958576,-0.12390562,0.4,3.675192e-05,3.6886726e-05,4.9904584e-06,396825,0.0,0.0,0.0,0.5,0.0,0.0,0.0,1,1,0
53221441,53218642,3932170,-0.0074155796,0.004250547,-0.0028971569,0.34906584,4.8854183e-09,4.976479e-09,1.4162253e-08,3932170,0.049617946,-0.0052023483,-0.12394804,0.4,3.599369e-05,3.6099602e-05,4.9937958e-06,396825,0.0,0.0,0.0,0.5,0.0,0.0,0.0,1,1,0
53429353,53428307,3932170,-0.00741303,0.00424116,-0.0029423367,0.34906584,4.8859508e-09,4.975978e-09,1.3989279e-08,3932170,0.04743392,-0.0060611335,-0.12395367,0.4,3.5240213e-05,3.5338962e-05,4.9962146e-06,396825,0.0,0.0,0.0,0.5,0.0,0.0,0.0,1,1,0
53638947,53637968,3932170,-0.007408542,0.0042336797,-0.0029955702,0.34906584,4.8887783e-09,4.9780717e-09,1.3841614e-08,3932170,0.04532995,-0.007056324,-0.12385151,0.4,3.4510467e-05,3.4601147e-05,4.9986884e-06,396825,0.0,0.0,0.0,0.5,0.0,0.0,0.0,1,1,0
53848546,53847632,3932170,-0.0074031344,0.004226894,-0.003068359,0.34906584,4.892533e-09,4.9811564e-09,1.3675847e-08,3932170,0.043395866,-0.00808679,-0.12365042,0.4,3.379791e-05,3.387965e-05,5.0004546e-06,396825,0.0,0.0,0.0,0.5,0.0,0.0,0.0,1,1,0
54058234,54057295,3932170,-0.007397268,0.0042203176,-0.0031385082,0.34906584,4.897517e-09,4.985554e-09,1.3512464e-08,3932170,0.041474316,-0.009170001,-0.12337491,0.4,3.3106062e-05,3.3177395e-05,5.0018975e-06,396825,0.0,0.0,0.0,0.5,0.0,0.0,0.0,1,1,0
54268112,54266959,3932170,-0.0073910956,0.0042139967,-0.003206858,0.34906584,4.9037063e-09,4.991237e-09,1.3351253e-08,3932170,0.03959613,-0.010299318,-0.12307375,0.4,3.243468e-05,3.249468e-05,5.0030635e-06,396825,0.0,0.0,0.0,0.5,0.0,0.0,0.0,1,1,0
54477759,54476622,3932170,-0.007384691,0.004208077,-0.0032744964,0.34906584,4.9110827e-09,4.9981668e-09,1.31922455e-08,3932170,0.037772994,-0.011454846,-0.122772925,0.4,3.178366e-05,3.1831714e-05,5.004011e-06,396825,0.0,0.0,0.0,0.5,0.0,0.0,0.0,1,1,0
54687387,54686285,3932170,-0.0073782187,0.0042022136,-0.0033280682,0.34906584,4.9195994e-09,5.0062936e-09,1.3035647e-08,3932170,0.03593052,-0.012641128,-0.122564,0.4,3.11534e-05,3.118844e-05,5.004767e-06,396825,0.0,0.0,0.0,0.5,0.0,0.0,0.0,1,1,0
54896871,54895950,3932170,-0.007371669,0.004196152,-0.0033629246,0.34906584,4.9292432e-09,5.0156053e-09,1.289874e-08,3932170,0.034004904,-0.013861042,-0.12221434,0.4,3.0542727e-05,3.0564854e-05,5.005391e-06,396825,0.0,0.0,0.0,0.5,0.0,0.0,0.0,1,1,0
55106585,55105613,3932170,-0.007365323,0.0041904547,-0.003395736,0.34906584,4.939957e-09,5.0260285e-09,1.2746458e-08,3932170,0.032128047,-0.015099473,-0.12193365,0.4,2.99512e-05,2.9960596e-05,5.0058907e-06,396825,0.0,0.0,0.0,0.5,0.0,0.0,0.0,1,1,0
55316211,55315277,3932170,-0.007359145,0.0041859234,-0.0034551395,0.34906584,4.951705e-09,5.037509e-09,1.2596468e-08,3932170,0.030425007,-0.01634474,-0.12165615,0.4,2.937874e-05,2.9375418e-05,5.006298e-06,396825,0.0,0.0,0.0,0.5,0.0,0.0,0.0,1,1,0
55526053,55524941,3932170,-0.0073530995,0.004181077,-0.0034842743,0.34906584,4.9644324e-09,5.050007e-09,1.2448582e-08,3932170,0.02863327,-0.017618459,-0.12128232,0.4,2.8824848e-05,2.880896e-05,5.006625e-06,396825,0.0,0.0,0.0,0.5,0.0,0.0,0.0,1,1,0
55735621,55734607,3932170,-0.0073473244,0.004176812,-0.003523784,0.34906584,4.978092e-09,5.063485e-09,1.2302809e-08,3932170,0.026940037,-0.018914055,-0.12082035,0.4,2.8289092e-05,2.826086e-05,5.006888e-06,396825,0.0,0.0,0.0,0.5,0.0,0.0,0.0,1,1,0
55945300,55944268,3932170,-0.0073418166,0.0041732397,-0.003579545,0.34906584,4.9926343e-09,5.077882e-09,1.2159123e-08,3932170,0.025391586,-0.020226967,-0.120535895,0.4,2.7771033e-05,2.7730726e-05,5.0071017e-06,396825,0.0,0.0,0.0,0.5,0.0,0.0,0.0,1,1,0
56154845,56153933,3932170,-0.0073364764,0.0041700397,-0.0036240076,0.34906584,5.0079776e-09,5.093092e-09,1.2033624e-08,3932170,0.023865301,-0.021552544,-0.12028519,0.4,2.7270235e-05,2.7218037e-05,5.00725e-06,396825,0.0,0.0,0.0,0.5,0.0,0.0,0.0,1,1,0
56359755,56358605,3932170,-0.007296437,0.0041479976,-0.0036743798,0.34906584,4.99913e-09,5.083703e-09,1.18360095e-08,3932170,0.022367096,-0.022781959,-0.11938384,0.4,2.666104e-05,2.6597909e-05,4.983478e-06,396825,0.0,0.0,0.0,0.5,0.0,0.0,0.0,1,1,0
56569381,56568269,3932170,-0.0072984174,0.004150071,-0.0037440546,0.34906584,5.020467e-09,5.104996e-09,1.1709606e-08,3932170,0.02105262,-0.024156692,-0.11905722,0.4,2.6221725e-05,2.6147723e-05,4.9881273e-06,396825,0.0,0.0,0.0,0.5,0.0,0.0,0.0,1,1,0
56779301,56777933,3932170,-0.0072995275,0.0041522044,-0.0038356981,0.34906584,5.041621e-09,5.126109e-09,1.158289e-08,3932170,0.019856561,-0.025554823,-0.11860798,0.4,2.5792571e-05,2.5708077e-05,4.9918976e-06,396825,0.0,0.0,0.0,0.5,0.0,0.0,0.0,1,1,0
56988469,56987598,3932170,-0.0072999136,0.004153712,-0.0039042402,0.34906584,5.0626974e-09,5.1471503e-09,1.1471696e-08,3932170,0.018678252,-0.026952388,-0.118325904,0.4,2.5374413e-05,2.5279745e-05,4.99496e-06,396825,0.0,0.0,0.0,0.5,0.0,0.0,0.0,1,1,0
57198162,57197262,3932170,-0.007299846,0.0041550677,-0.003961252,0.34906584,5.0837525e-09,5.168155e-09,1.1345273e-08,3932170,0.017548257,-0.02834887,-0.11801388,0.4,2.4967427e-05,2.4863159e-05,4.997439e-06,396825,0.0,0.0,0.0,0.5,0.0,0.0,0.0,1,1,0
57407846,57406926,3932170,-0.0072994432,0.004156547,-0.0040060785,0.34906584,5.104836e-09,5.189147e-09,1.1219586e-08,3932170,0.016483163,-0.029736329,-0.11771556,0.4,2.4572e-05,2.445861e-05,4.9994433e-06,396825,0.0,0.0,0.0,0.5,0.0,0.0,0.0,1,1,0
57617560,57616591,3932170,-0.0072989063,0.00415814,-0.004050994,0.34906584,5.1259925e-09,5.21021e-09,1.1094777e-08,3932170,0.015523199,-0.031117886,-0.1174608,0.4,2.4188425e-05,2.4066336e-05,5.001073e-06,396825,0.0,0.0,0.0,0.5,0.0,0.0,0.0,1,1,0
57827289,57826261,3932170,-0.0072983187,0.004160041,-0.004116021,0.34906584,5.1472195e-09,5.2313704e-09,1.0970817e-08,3932170,0.014710754,-0.032501716,-0.117092624,0.4,2.3816758e-05,2.3686336e-05,5.0023878e-06,396825,0.0,0.0,0.0,0.5,0.0,0.0,0.0,1,1,0
58037108,58035920,3932170,-0.0072980705,0.0041618133,-0.004192089,0.34906584,5.168528e-09,5.252636e-09,1.0848078e-08,3932170,0.014023144,-0.033865444,-0.116602466,0.4,2.3457038e-05,2.3318666e-05,5.0034528e-06,396825,0.0,0.0,0.0,0.5,0.0,0.0,0.0,1,1,0
58246535,58245585,3932170,-0.007298203,0.0041639465,-0.0042900564,0.34906584,5.1899027e-09,5.273964e-09,1.0741043e-08,3932170,0.013474764,-0.035193834,-0.11613186,0.4,2.3109202e-05,2.296326e-05,5.0043145e-06,396825,0.0,0.0,0.0,0.5,0.0,0.0,0.0,1,1,0
58456302,58455249,3932170,-0.0073064542,0.0041809273,-0.004413038,0.34906584,5.208038e-09,5.286959e-09,1.0563934e-08,3932170,0.013281372,-0.036399033,-0.11555362,0.4,2.2771175e-05,2.261971e-05,5.0050185e-06,396825,0.0,0.0,0.0,0.5,0.0,0.0,0.0,1,1,0
58582516,58580050,3932170,-0.0073280605,0.004226097,-0.0045449617,0.34906584,5.211097e-09,5.2854907e-09,1.0344941e-08,3932170,0.01416009,-0.036287155,-0.11484562,0.4,2.276771e-05,2.261926e-05,5.005073e-06,396825,0.0,0.0,0.0,0.5,0.0,0.0,0.0,1,1,0
58662736,58659922,3932170,-0.007306014,0.0042305076,-0.0045952396,0.34906584,5.189753e-09,5.261572e-09,1.01696065e-08,3932170,0.014106022,-0.03721213,-0.11387549,0.4,2.23377e-05,2.2185162e-05,4.982358e-06,396825,0.0,0.0,0.0,0.5,0.0,0.0,0.0,1,1,0
58832093,58829655,3932170,-0.0073285853,0.0042766402,-0.0047016433,0.34906584,5.2008287e-09,5.268099e-09,9.954496e-09,3932170,0.014953163,-0.037198722,-0.11327845,0.4,2.2351223e-05,2.2202012e-05,4.986364e-06,396825,0.0,0.0,0.0,0.5,0.0,0.0,0.0,1,1,0
58872213,58869586,3932170,-0.0073316502,0.004288646,-0.004717756,0.34906584,5.2033213e-09,5.2692153e-09,9.905617e-09,3932170,0.0148225855,-0.03831648,-0.11313301,0.4,2.2040107e-05,2.1885833e-05,4.987213e-06,396825,0.0,0.0,0.0,0.5,0.0,0.0,0.0,1,1,0
59082155,59079252,3932170,-0.00732844,0.004335521,-0.0047003105,0.34906584,5.2178173e-09,5.276835e-09,9.689207e-09,3932170,0.015248931,-0.03965813,-0.11264539,0.4,2.1748641e-05,2.1593009e-05,4.9911478e-06,396825,0.0,0.0,0.0,0.5,0.0,0.0,0.0,1,1,0
59289851,59288916,3932170,-0.0072961044,0.004371547,-0.004543866,0.34906584,5.233657e-09,5.285749e-09,9.526036e-09,3932170,0.015336727,-0.041256692,-0.11219513,0.4,2.1464353e-05,2.1307405e-05,4.994348e-06,396825,0.0,0.0,0.0,0.5,0.0,0.0,0.0,1,1,0
59490978,59488598,3932170,-0.007244446,0.004418006,-0.0043132347,0.34906584,5.2477476e-09,5.291574e-09,9.365149e-09,3932170,0.0156421,-0.042158116,-0.11176404,0.4,2.1469461e-05,2.1316322e-05,4.996827e-06,396825,0.0,0.0,0.0,0.5,0.0,0.0,0.0,1,1,0
59511091,59508567,3932170,-0.007239733,0.0044263513,-0.004290751,0.34906584,5.249064e-09,5.2918603e-09,9.349766e-09,3932170,0.015621892,-0.04324845,-0.11161833,0.4,2.11863e-05,2.102926e-05,4.9970486e-06,396825,0.0,0.0,0.0,0.5,0.0,0.0,0.0,1,1,0
59660665,59658326,3932170,-0.0072139767,0.004481998,-0.0041955765,0.34906584,5.2601816e-09,5.2965405e-09,9.251906e-09,3932170,0.016360203,-0.043928374,-0.111216515,0.4,2.1188775e-05,2.1034406e-05,4.998575e-06,396825,0.0,0.0,0.0,0.5,0.0,0.0,0.0,1,1,0
59709115,59708246,3932170,-0.0072099688,0.004502396,-0.0041816835,0.34906584,5.26392e-09,5.298219e-09,9.2258325e-09,3932170,0.016626915,-0.045074593,-0.1110726,0.4,2.091567e-05,2.0758229e-05,4.9990367e-06,396825,0.0,0.0,0.0,0.5,0.0,0.0,0.0,1,1,0
59830457,59828056,3932170,-0.0071922,0.0045615556,-0.004133617,0.34906584,5.272466e-09,5.300872e-09,9.149001e-09,3932170,0.017539108,-0.045709442,-0.1105544,0.4,2.0916204e-05,2.0761106e-05,5.0000353e-06,396825,0.0,0.0,0.0,0.5,0.0,0.0,0.0,1,1,0
59920397,59917916,3932170,-0.007185139,0.004604219,-0.0041180225,0.34906584,5.278878e-09,5.3031632e-09,9.101514e-09,3932170,0.018287756,-0.04704074,-0.110290274,0.4,2.065222e-05,2.0495232e-05,5.0007393e-06,396825,0.0,0.0,0.0,0.5,0.0,0.0,0.0,1,1,0
60020396,60017754,3932170,-0.0071706474,0.0046563516,-0.0040857224,0.34906584,5.285975e-09,5.305222e-09,9.044068e-09,3932170,0.019140417,-0.04760997,-0.10976549,0.4,2.0651953e-05,2.049685e-05,5.0014196e-06,396825,0.0,0.0,0.0,0.5,0.0,0.0,0.0,1,1,0
60130195,60127578,3932170,-0.0071506733,0.0047042724,-0.0040231133,0.34906584,5.293518e-09,5.3075917e-09,8.989999e-09,3932170,0.01996543,-0.049158424,-0.10944656,0.4,2.0396265e-05,2.0240057e-05,5.002108e-06,396825,0.0,0.0,0.0,0.5,0.0,0.0,0.0,1,1,0
60239827,60237404,3932170,-0.007134595,0.0047570383,-0.0039888583,0.34906584,5.3016542e-09,5.3106617e-09,8.939254e-09,3932170,0.020840216,-0.049784876,-0.10901452,0.4,2.039568e-05,2.0241274e-05,5.0027256e-06,396825,0.0,0.0,0.0,0.5,0.0,0.0,0.0,1,1,0
60319921,60317328,3932170,-0.007120544,0.004804016,-0.0039628237,0.34906584,5.3072906e-09,5.312282e-09,8.899458e-09,3932170,0.021618439,-0.050337117,-0.108651556,0.4,2.039492e-05,2.0241896e-05,5.003138e-06,396825,0.0,0.0,0.0,0.5,0.0,0.0,0.0,1,1,0
60340072,60337285,3932170,-0.007118981,0.00481625,-0.003956309,0.34906584,5.3078026e-09,5.3117453e-09,8.889132e-09,3932170,0.022054832,-0.051368676,-0.10859945,0.4,2.0148073e-05,1.999288e-05,5.0032295e-06,396825,0.0,0.0,0.0,0.5,0.0,0.0,0.0,1,1,0
60434546,60432091,3932170,-0.0070981123,0.0048600514,-0.0039055164,0.34906584,5.314178e-09,5.314133e-09,8.85169e-09,3932170,0.022737207,-0.052006822,-0.10815776,0.4,2.0146157e-05,1.9992347e-05,5.003378e-06,396825,0.0,0.0,0.0,0.5,0.0,0.0,0.0,1,1,0
60514427,60511964,3932170,-0.0070763873,0.0049065645,-0.0038546477,0.34906584,5.319583e-09,5.3155715e-09,8.814992e-09,3932170,0.023463242,-0.05267963,-0.107761,0.4,2.0144364e-05,1.9991841e-05,5.0035305e-06,396825,0.0,0.0,0.0,0.5,0.0,0.0,0.0,1,1,0
60542858,60541916,3932170,-0.007038866,0.0048922696,-0.0038177092,0.34906584,5.295397e-09,5.290431e-09,8.764115e-09,3932170,0.023805015,-0.053443428,-0.1071116,0.4,1.9812434e-05,1.9658897e-05,4.9797354e-06,396825,0.0,0.0,0.0,0.5,0.0,0.0,0.0,1,1,0
60624240,60621789,3932170,-0.0070233727,0.0049434635,-0.0037854468,0.34906584,5.3029496e-09,5.2941083e-09,8.732807e-09,3932170,0.024649963,-0.054141015,-0.106813185,0.4,1.9818603e-05,1.966627e-05,4.981904e-06,396825,0.0,0.0,0.0,0.5,0.0,0.0,0.0,1,1,0
60704241,60701661,3932170,-0.0070098727,0.004992076,-0.0037646012,0.34906584,5.3103317e-09,5.297667e-09,8.702195e-09,3932170,0.025456838,-0.054779034,-0.10640537,0.4,1.9824145e-05,1.9672989e-05,4.983913e-06,396825,0.0,0.0,0.0,0.5,0.0,0.0,0.0,1,1,0
60754166,60751582,3932170,-0.0070050047,0.005014636,-0.0037493263,0.34906584,5.3136433e-09,5.2991473e-09,8.687712e-09,3932170,0.026233088,-0.055938262,-0.10626908,0.4,1.9600322e-05,1.9448033e-05,4.985089e-06,396825,0.0,0.0,0.0,0.5,0.0,0.0,0.0,1,1,0
60833849,60831455,3932170,-0.006991552,0.005062133,-0.0037322089,0.34906584,5.320754e-09,5.302516e-09,8.658501e-09,3932170,0.027037457,-0.05658674,-0.10601497,0.4,1.9604735e-05,1.9453557e-05,4.9868327e-06,396825,0.0,0.0,0.0,0.5,0.0,0.0,0.0,1,1,0
60923754,60921310,3932170,-0.006978508,0.0051058223,-0.0037135931,0.34906584,5.3289595e-09,5.307033e-09,8.6312655e-09,3932170,0.02777073,-0.05719422,-0.1056901,0.4,1.960954e-05,1.9459438e-05,4.9886708e-06,396825,0.0,0.0,0.0,0.5,0.0,0.0,0.0,1,1,0
60964075,60961246,3932170,-0.006974091,0.0051255585,-0.0037029935,0.34906584,5.3304e-09,5.3067803e-09,8.616192e-09,3932170,0.028597066,-0.0582945,-0.10555543,0.4,1.9392193e-05,1.9241275e-05,4.989425e-06,396825,0.0,0.0,0.0,0.5,0.0,0.0,0.0,1,1,0
61043911,61041127,3932170,-0.0069590514,0.005168387,-0.0036818837,0.34906584,5.3371774e-09,5.3099587e-09,8.5888585e-09,3932170,0.029322239,-0.058931824,-0.10521088,0.4,1.9395342e-05,1.9245437e-05,4.990856e-06,396825,0.0,0.0,0.0,0.5,0.0,0.0,0.0,1,1,0
61133432,61130976,3932170,-0.0069481586,0.0052123186,-0.003679888,0.34906584,5.3449716e-09,5.3142246e-09,8.5632115e-09,3932170,0.030095583,-0.059516277,-0.10487938,0.4,1.9398638e-05,1.9249717e-05,4.9923206e-06,396825,0.0,0.0,0.0,0.5,0.0,0.0,0.0,1,1,0
61173770,61170913,3932170,-0.006944228,0.0052325455,-0.0036748897,0.34906584,5.345808e-09,5.313536e-09,8.54895e-09,3932170,0.031029362,-0.06058318,-0.10470468,0.4,1.9188936e-05,1.9039493e-05,4.992947e-06,396825,0.0,0.0,0.0,0.5,0.0,0.0,0.0,1,1,0
61283195,61280737,3932170,-0.006915745,0.005279806,-0.0036135972,0.34906584,5.3550555e-09,5.318529e-09,8.5180245e-09,3932170,0.03174944,-0.06148233,-0.10425064,0.4,1.919196e-05,1.9043679e-05,4.9945097e-06,396825,0.0,0.0,0.0,0.5,0.0,0.0,0.0,1,1,0
61381543,61380611,3932170,-0.0068958984,0.005314809,-0.0035645214,0.34906584,5.360749e-09,5.321185e-09,8.494313e-09,3932170,0.032912362,-0.06291555,-0.10403104,0.4,1.8991872e-05,1.8843733e-05,4.9958e-06,396825,0.0,0.0,0.0,0.5,0.0,0.0,0.0,1,1,0
61472843,61470443,3932170,-0.0068672723,0.005351848,-0.0034981756,0.34906584,5.3672666e-09,5.3236158e-09,8.461964e-09,3932170,0.03345713,-0.063721254,-0.10359367,0.4,1.899211e-05,1.8845036e-05,4.9966357e-06,396825,0.0,0.0,0.0,0.5,0.0,0.0,0.0,1,1,0
61582675,61580259,3932170,-0.0068345666,0.0053885076,-0.003421257,0.34906584,5.376343e-09,5.328666e-09,8.433283e-09,3932170,0.03390965,-0.06459104,-0.103296794,0.4,1.899445e-05,1.884833e-05,4.9979935e-06,396825,0.0,0.0,0.0,0.5,0.0,0.0,0.0,1,1,0
61602685,61600228,3932170,-0.0068306383,0.005391558,-0.0034023584,0.34906584,5.374286e-09,5.3262035e-09,8.4257605e-09,3932170,0.034631226,-0.06542556,-0.10315989,0.4,1.879974e-05,1.8653445e-05,4.9981477e-06,396825,0.0,0.0,0.0,0.5,0.0,0.0,0.0,1,1,0
61712484,61710053,3932170,-0.0068020015,0.005427596,-0.0033385614,0.34906584,5.383089e-09,5.331032e-09,8.397508e-09,3932170,0.03514567,-0.06624267,-0.10285896,0.4,1.8801027e-05,1.8655654e-05,4.9992536e-06,396825,0.0,0.0,0.0,0.5,0.0,0.0,0.0,1,1,0
61800893,61799909,3932170,-0.006782846,0.0054535125,-0.0032977297,0.34906584,5.3859788e-09,5.331231e-09,8.373999e-09,3932170,0.036229566,-0.06749387,-0.10265377,0.4,1.86151e-05,1.847026e-05,5.000011e-06,396825,0.0,0.0,0.0,0.5,0.0,0.0,0.0,1,1,0
61902152,61899751,3932170,-0.00675329,0.0054942123,-0.0032527177,0.34906584,5.39328e-09,5.3345772e-09,8.34515e-09,3932170,0.03681397,-0.06835885,-0.10231954,0.4,1.861489e-05,1.847092e-05,5.0007498e-06,396825,0.0,0.0,0.0,0.5,0.0,0.0,0.0,1,1,0
62012142,62009575,3932170,-0.0067272778,0.0055330093,-0.0032086128,0.34906584,5.3966653e-09,5.3346523e-09,8.316252e-09,3932170,0.038186483,-0.06980914,-0.10200256,0.4,1.843639e-05,1.8293333e-05,5.001518e-06,396825,0.0,0.0,0.0,0.5,0.0,0.0,0.0,1,1,0
62111972,62109416,3932170,-0.006707023,0.005577066,-0.003193619,0.34906584,5.4036806e-09,5.337831e-09,8.288125e-09,3932170,0.0389929,-0.07058836,-0.101660624,0.4,1.8435689e-05,1.8293389e-05,5.0021436e-06,396825,0.0,0.0,0.0,0.5,0.0,0.0,0.0,1,1,0
62201675,62199273,3932170,-0.0066922875,0.0056188,-0.0032038456,0.34906584,5.4102283e-09,5.3413927e-09,8.266949e-09,3932170,0.039753195,-0.071237996,-0.1013739,0.4,1.8435143e-05,1.8293418e-05,5.0026406e-06,396825,0.0,0.0,0.0,0.5,0.0,0.0,0.0,1,1,0
62221790,62219240,3932170,-0.006692224,0.005624542,-0.0032075925,0.34906584,5.405997e-09,5.337162e-09,8.259808e-09,3932170,0.04070616,-0.071905196,-0.10134392,0.4,1.8264567e-05,1.8123306e-05,5.0027475e-06,396825,0.0,0.0,0.0,0.5,0.0,0.0,0.0,1,1,0
62301722,62299113,3932170,-0.0066730445,0.005664662,-0.0032026977,0.34906584,5.411401e-09,5.3397518e-09,8.237762e-09,3932170,0.04142204,-0.0726236,-0.1010861,0.4,1.8263638e-05,1.8122917e-05,5.003154e-06,396825,0.0,0.0,0.0,0.5,0.0,0.0,0.0,1,1,0
62391354,62388971,3932170,-0.0066501726,0.005709394,-0.003191095,0.34906584,5.417774e-09,5.3434484e-09,8.217068e-09,3932170,0.04222278,-0.073453695,-0.1008409,0.4,1.8262901e-05,1.8122597e-05,5.0035696e-06,396825,0.0,0.0,0.0,0.5,0.0,0.0,0.0,1,1,0
62431718,62428908,3932170,-0.006638608,0.005725093,-0.0031701643,0.34906584,5.414062e-09,5.3392886e-09,8.204258e-09,3932170,0.043395516,-0.07438074,-0.10066305,0.4,1.809994e-05,1.7960405e-05,5.0037443e-06,396825,0.0,0.0,0.0,0.5,0.0,0.0,0.0,1,1,0
62521171,62518763,3932170,-0.0066079837,0.005771706,-0.0031364162,0.34906584,5.4203415e-09,5.3430704e-09,8.183342e-09,3932170,0.044228286,-0.075373866,-0.100310646,0.4,1.809892e-05,1.79598e-05,5.0041053e-06,396825,0.0,0.0,0.0,0.5,0.0,0.0,0.0,1,1,0
62601219,62598637,3932170,-0.0065773884,0.0058147553,-0.0030970844,0.34906584,5.4255045e-09,5.3458304e-09,8.161562e-09,3932170,0.044999003,-0.07632781,-0.099917024,0.4,1.8097797e-05,1.7958966e-05,5.0044064e-06,396825,0.0,0.0,0.0,0.5,0.0,0.0,0.0,1,1,0
62639522,62638577,3932170,-0.006572032,0.0058229696,-0.0030927183,0.34906584,5.421667e-09,5.342369e-09,8.156054e-09,3932170,0.046091527,-0.07704649,-0.09980737,0.4,1.7943097e-05,1.7805078e-05,5.0045132e-06,396825,0.0,0.0,0.0,0.5,0.0,0.0,0.0,1,1,0
62690914,62688493,3932170,-0.00654896,0.005859322,-0.0030741387,0.34906584,5.4244516e-09,5.3434355e-09,8.138576e-09,3932170,0.046760455,-0.077813506,-0.099542685,0.4,1.7942084e-05,1.7804265e-05,5.004714e-06,396825,0.0,0.0,0.0,0.5,0.0,0.0,0.0,1,1,0
62750948,62748396,3932170,-0.006522583,0.0058970447,-0.0030544896,0.34906584,5.428161e-09,5.3454734e-09,8.122171e-09,3932170,0.04741135,-0.07863431,-0.09924467,0.4,1.7940973e-05,1.7803333e-05,5.004881e-06,396825,0.0,0.0,0.0,0.5,0.0,0.0,0.0,1,1,0
62820722,62818286,3932170,-0.0064940997,0.005931888,-0.0030189438,0.34906584,5.432892e-09,5.3485834e-09,8.106958e-09,3932170,0.048007723,-0.079474,-0.098991886,0.4,1.7940118e-05,1.7802626e-05,5.0051117e-06,396825,0.0,0.0,0.0,0.5,0.0,0.0,0.0,1,1,0
62849217,62848238,3932170,-0.006488794,0.0059378226,-0.0030102863,0.34906584,5.4271263e-09,5.3433835e-09,8.100326e-09,3932170,0.04914341,-0.08016402,-0.098813914,0.4,1.7793207e-05,1.7656625e-05,5.005187e-06,396825,0.0,0.0,0.0,0.5,0.0,0.0,0.0,1,1,0
62900600,62898159,3932170,-0.006466283,0.005971371,-0.0029869033,0.34906584,5.42972e-09,5.344447e-09,8.083103e-09,3932170,0.049803406,-0.080917045,-0.09858999,0.4,1.7791961e-05,1.7655517e-05,5.005331e-06,396825,0.0,0.0,0.0,0.5,0.0,0.0,0.0,1,1,0
62990452,62988017,3932170,-0.006438754,0.006013899,-0.0029722631,0.34906584,5.435489e-09,5.3482823e-09,8.062819e-09,3932170,0.050597277,-0.081828095,-0.098262526,0.4,1.7790526e-05,1.7654194e-05,5.00556e-06,396825,0.0,0.0,0.0,0.5,0.0,0.0,0.0,1,1,0
63058835,63057907,3932170,-0.0064223907,0.006039105,-0.0029718098,0.34906584,5.4311298e-09,5.34376e-09,8.0456e-09,3932170,0.052123617,-0.08287893,-0.09797487,0.4,1.7650696e-05,1.7515415e-05,5.005726e-06,396825,0.0,0.0,0.0,0.5,0.0,0.0,0.0,1,1,0
63140185,63137777,3932170,-0.0063938275,0.006081997,-0.0029613245,0.34906584,5.4357385e-09,5.3466414e-09,8.024865e-09,3932170,0.05293096,-0.08381936,-0.09765965,0.4,1.7649008e-05,1.7513801e-05,5.0058975e-06,396825,0.0,0.0,0.0,0.5,0.0,0.0,0.0,1,1,0
63220218,63217657,3932170,-0.0063606277,0.006122745,-0.0029331788,0.34906584,5.440256e-09,5.3495657e-09,8.0041564e-09,3932170,0.053674787,-0.08482054,-0.097334415,0.4,1.7647242e-05,1.7512133e-05,5.0060557e-06,396825,0.0,0.0,0.0,0.5,0.0,0.0,0.0,1,1,0
63270359,63267570,3932170,-0.0063475138,0.006136513,-0.0029240358,0.34906584,5.4336993e-09,5.3436344e-09,7.992463e-09,3932170,0.055046488,-0.08570235,-0.097073175,0.4,1.7515682e-05,1.7381532e-05,5.006152e-06,396825,0.0,0.0,0.0,0.5,0.0,0.0,0.0,1,1,0
63349839,63347444,3932170,-0.006314722,0.006176575,-0.0028963923,0.34906584,5.4380975e-09,5.3467075e-09,7.971969e-09,3932170,0.05581919,-0.08671106,-0.09671923,0.4,1.7513932e-05,1.737972e-05,5.006291e-06,396825,0.0,0.0,0.0,0.5,0.0,0.0,0.0,1,1,0
63409940,63407410,3932170,-0.006286449,0.006207453,-0.0028707923,0.34906584,5.4413456e-09,5.3490528e-09,7.956651e-09,3932170,0.056387324,-0.08753026,-0.09638385,0.4,1.7512612e-05,1.7378337e-05,5.0063886e-06,396825,0.0,0.0,0.0,0.5,0.0,0.0,0.0,1,1,0
63480150,63477271,3932170,-0.0062606013,0.0062288074,-0.0028473237,0.34906584,5.434763e-09,5.3431304e-09,7.9396205e-09,3932170,0.057903413,-0.08871211,-0.09605559,0.4,1.738826e-05,1.7254892e-05,5.0064737e-06,396825,0.0,0.0,0.0,0.5,0.0,0.0,0.0,1,1,0
63539708,63537141,3932170,-0.006234618,0.0062576137,-0.0028206205,0.34906584,5.437569e-09,5.3452034e-09,7.923927e-09,3932170,0.05850367,-0.089493446,-0.09572308,0.4,1.7385779e-05,1.7252307e-05,5.006246e-06,396825,0.0,0.0,0.0,0.5,0.0,0.0,0.0,1,1,0
