timestamp,timestamp_sample,x,y,z,r,flaps,aux1,aux2,aux3,aux4,aux5,aux6,data_source
21995343,21994318,-0.0,0.0,0.0,1.0,0.0,0.0,0.0,0.0,0.0,0.0,0.0,1
22296644,22296212,-0.0,0.0,0.0,1.0,0.0,0.0,0.0,0.0,0.0,0.0,0.0,1
22426784,22426356,-0.0,0.0,0.0,0.8333333,0.0,0.0,0.0,0.0,0.0,0.0,0.0,1
22621867,22621436,-0.0,0.0,0.0,0.0,0.0,0.0,0.0,0.0,0.0,0.0,0.0,1
22818040,22817609,-0.0,0.0,0.0,0.0,0.0,0.0,0.0,0.0,0.0,0.0,0.0,1
23015107,23014685,-0.0,0.0,0.08411215,0.0,0.0,0.0,0.0,0.0,0.0,0.0,0.0,1
23056107,23055621,-0.0,0.0,0.098130845,0.0,0.0,0.0,0.0,0.0,0.0,0.0,0.0,1
23428803,23428214,-0.0,0.0,0.12266355,0.0,0.0,0.0,0.0,0.0,0.0,0.0,0.0,1
23621561,23621136,-0.0,0.0,0.12266355,0.0,0.0,0.0,0.0,0.0,0.0,0.0,0.0,1
23774161,23773709,-0.0,0.0,0.12266355,0.0,0.0,0.0,0.0,0.0,0.0,0.0,0.0,1
24009552,24009130,-0.0,0.0,0.096962616,0.0,0.0,0.0,0.0,0.0,0.0,0.0,0.0,1
24207283,24206853,-0.0,0.0,0.11331776,0.0,0.0,0.0,0.0,0.0,0.0,0.0,0.0,1
24422802,24422378,-0.0,0.0,0.14135514,0.0,0.0,0.0,0.0,0.0,0.0,0.0,0.0,1
24594930,24594508,-0.0,0.0,0.1542056,0.0,0.0,0.0,0.0,0.0,0.0,0.0,0.0,1
24791538,24790547,-0.0,0.0,0.15654206,0.0,0.0,0.0,0.0,0.0,0.0,0.0,0.0,1
25029044,25028620,-0.0,0.0,0.1343458,0.07746479,0.0,0.0,0.0,0.0,0.0,0.0,0.0,1
25226502,25226077,-0.0,0.0,0.12850468,0.09154929,0.0,0.0,0.0,0.0,0.0,0.0,0.0,1
25400963,25400537,-0.0,0.0,0.11448598,0.10798122,0.0,0.0,0.0,0.0,0.0,0.0,0.0,1
25616873,25616452,-0.0,0.0,0.11799066,0.11971831,0.0,0.0,0.0,0.0,0.0,0.0,0.0,1
25811537,25811114,0.0047393367,0.0,0.12850468,0.12676056,0.0,0.0,0.0,0.0,0.0,0.0,0.0,1
26009975,26009547,0.016587678,0.0070921984,0.13084112,0.13849765,0.0,0.0,0.0,0.0,0.0,0.0,0.0,1
26225010,26224585,0.11137441,0.0,0.13901868,0.14084508,0.0,0.0,0.0,0.0,0.0,0.0,0.0,1
26421713,26421282,0.11374407,0.0,0.14018692,0.13380282,0.0,0.0,0.0,0.0,0.0,0.0,0.0,1
26618882,26618457,0.049763035,0.0,0.14836448,0.12676056,0.0,0.0,0.0,0.0,0.0,0.0,0.0,1
26811285,26810860,-0.0,0.028368793,0.125,0.11971831,0.0,0.0,0.0,0.0,0.0,0.0,0.0,1
27005851,27005429,0.056872036,0.0,0.1296729,0.11032864,0.0,0.0,0.0,0.0,0.0,0.0,0.0,1
27220451,27220014,0.0900474,0.0,0.1296729,0.10798122,0.0,0.0,0.0,0.0,0.0,0.0,0.0,1
27417218,27416666,0.09478673,0.0,0.1296729,0.1056338,0.0,0.0,0.0,0.0,0.0,0.0,0.0,1
27610027,27609603,0.0900474,0.0,0.1343458,0.10798122,0.0,0.0,0.0,0.0,0.0,0.0,0.0,1
27808217,27807792,0.0971564,0.028368793,0.1343458,0.10798122,0.0,0.0,0.0,0.0,0.0,0.0,0.0,1
28029065,28028640,0.12559241,0.04255319,0.13551402,0.09859155,0.0,0.0,0.0,0.0,0.0,0.0,0.0,1
28222220,28221717,0.13744076,0.040189125,0.12383178,0.09859155,0.0,0.0,0.0,0.0,0.0,0.0,0.0,1
28413456,28413032,0.16587678,0.0023640662,0.13785046,0.103286386,0.0,0.0,0.0,0.0,0.0,0.0,0.0,1
28611701,28611269,0.1421801,0.0,0.1448598,0.103286386,0.0,0.0,0.0,0.0,0.0,0.0,0.0,1
28829856,28829365,0.09478673,0.0,0.15771028,0.103286386,0.0,0.0,0.0,0.0,0.0,0.0,0.0,1
29021297,29020830,0.09241706,0.04964539,0.1495327,0.1056338,0.0,0.0,0.0,0.0,0.0,0.0,0.0,1
29217479,29217055,0.07582939,0.06146572,0.1495327,0.1056338,0.0,0.0,0.0,0.0,0.0,0.0,0.0,1
29415595,29415168,0.07109005,0.03073286,0.13084112,0.11032864,0.0,0.0,0.0,0.0,0.0,0.0,0.0,1
29611744,29611220,0.0450237,0.0,0.13084112,0.11032864,0.0,0.0,0.0,0.0,0.0,0.0,0.0,1
29806181,29805753,0.047393367,0.0,0.13200934,0.11032864,0.0,0.0,0.0,0.0,0.0,0.0,0.0,1
30023883,30023427,0.10663507,0.0,0.14252336,0.103286386,0.0,0.0,0.0,0.0,0.0,0.0,0.0,1
30219516,30219069,0.101895735,0.0,0.14252336,0.096244134,0.0,0.0,0.0,0.0,0.0,0.0,0.0,1
30393017,30392580,0.087677725,0.03073286,0.13317756,0.089201875,0.0,0.0,0.0,0.0,0.0,0.0,0.0,1
30628764,30628329,0.08056872,0.040189125,0.125,0.07981221,0.0,0.0,0.0,0.0,0.0,0.0,0.0,1
30804819,30804391,0.09241706,0.0,0.125,0.07746479,0.0,0.0,0.0,0.0,0.0,0.0,0.0,1
31026712,31026066,0.116113745,0.0,0.125,0.07746479,0.0,0.0,0.0,0.0,0.0,0.0,0.0,1
31217179,31216690,0.12559241,0.0,0.125,0.06807512,0.0,0.0,0.0,0.0,0.0,0.0,0.0,1
31391973,31391366,0.11137441,0.0,0.1296729,0.06338028,0.0,0.0,0.0,0.0,0.0,0.0,0.0,1
31625941,31625516,0.09952607,0.0,0.13317756,0.06338028,0.0,0.0,0.0,0.0,0.0,0.0,0.0,1
31820049,31819428,0.09478673,0.0,0.1448598,0.061032865,0.0,0.0,0.0,0.0,0.0,0.0,0.0,1
32012887,32012465,0.123222746,0.0070921984,0.1542056,0.061032865,0.0,0.0,0.0,0.0,0.0,0.0,0.0,1
32215665,32213370,0.10663507,0.0,0.15537383,0.061032865,0.0,0.0,0.0,0.0,0.0,0.0,0.0,1
32419401,32418972,0.11137441,0.0,0.1495327,0.058685444,0.0,0.0,0.0,0.0,0.0,0.0,0.0,1
32614321,32613895,0.09241706,0.0,0.1296729,0.049295776,0.0,0.0,0.0,0.0,0.0,0.0,0.0,1
32816290,32815866,0.08293839,0.023640662,0.12616822,0.05399061,0.0,0.0,0.0,0.0,0.0,0.0,0.0,1
33005935,33005508,0.09478673,0.011820331,0.12733644,0.05399061,0.0,0.0,0.0,0.0,0.0,0.0,0.0,1
33206011,33205580,0.09241706,0.009456265,0.1343458,0.049295776,0.0,0.0,0.0,0.0,0.0,0.0,0.0,1
33423972,33423550,0.08293839,0.014184397,0.1343458,0.037558686,0.0,0.0,0.0,0.0,0.0,0.0,0.0,1
33621982,33621433,0.08293839,0.0,0.1343458,0.039906103,0.0,0.0,0.0,0.0,0.0,0.0,0.0,1
33798390,33797932,0.07582939,0.0,0.13084112,0.032863848,0.0,0.0,0.0,0.0,0.0,0.0,0.0,1
33989326,33988899,0.07582939,0.0,0.13084112,0.03521127,0.0,0.0,0.0,0.0,0.0,0.0,0.0,1
34207714,34207291,0.10663507,0.0,0.1296729,0.037558686,0.0,0.0,0.0,0.0,0.0,0.0,0.0,1
34418636,34418210,0.123222746,0.0,0.1296729,0.037558686,0.0,0.0,0.0,0.0,0.0,0.0,0.0,1
34611662,34611231,0.123222746,0.0,0.11682243,0.032863848,0.0,0.0,0.0,0.0,0.0,0.0,0.0,1
34825743,34825321,0.109004736,0.0,0.11682243,0.039906103,0.0,0.0,0.0,0.0,0.0,0.0,0.0,1
34996396,34995973,0.08293839,-0.0495283,0.11682243,0.039906103,0.0,0.0,0.0,0.0,0.0,0.0,0.0,1
35227302,35226872,0.08293839,-0.051886793,0.12616822,0.039906103,0.0,0.0,0.0,0.0,0.0,0.0,0.0,1
35424808,35424355,0.08056872,-0.061320756,0.1448598,0.037558686,0.0,0.0,0.0,0.0,0.0,0.0,0.0,1
35619132,35618709,0.08293839,-0.09669811,0.14602804,0.03521127,0.0,0.0,0.0,0.0,0.0,0.0,0.0,1
35816335,35815909,0.13270143,-0.21462265,0.13901868,0.0,0.0,0.0,0.0,0.0,0.0,0.0,0.0,1
36010100,36009669,0.10663507,-0.16745283,0.13901868,0.0,0.0,0.0,0.0,0.0,0.0,0.0,0.0,1
36208414,36207987,0.09478673,-0.08254717,0.13901868,0.0,0.0,0.0,0.0,0.0,0.0,0.0,0.0,1
36423159,36422729,0.059241705,-0.03301887,0.13901868,-0.028503563,0.0,0.0,0.0,0.0,0.0,0.0,0.0,1
36618916,36618490,0.054502368,-0.03301887,0.1343458,-0.040380046,0.0,0.0,0.0,0.0,0.0,0.0,0.0,1
36812248,36811795,0.0971564,-0.06603774,0.1343458,-0.040380046,0.0,0.0,0.0,0.0,0.0,0.0,0.0,1
37009354,37008930,0.13033175,-0.047169812,0.14836448,-0.023752969,0.0,0.0,0.0,0.0,0.0,0.0,0.0,1
37225736,37225309,0.123222746,-0.03773585,0.12850468,-0.007125891,0.0,0.0,0.0,0.0,0.0,0.0,0.0,1
37401366,37400253,0.14691943,0.0,0.13084112,0.0,0.0,0.0,0.0,0.0,0.0,0.0,0.0,1
37618426,37617970,0.09478673,-0.007075472,0.13084112,0.0,0.0,0.0,0.0,0.0,0.0,0.0,0.0,1
37813044,37812622,-0.0,-0.009433962,0.13317756,-0.016627079,0.0,0.0,0.0,0.0,0.0,0.0,0.0,1
38011083,38010655,-0.0,-0.1014151,0.13084112,-0.052256532,0.0,0.0,0.0,0.0,0.0,0.0,0.0,1
38227438,38227009,-0.0,-0.12028302,0.12733644,-0.08788598,0.0,0.0,0.0,0.0,0.0,0.0,0.0,1
38420861,38420416,-0.0,-0.13443395,0.13084112,-0.09263658,0.0,0.0,0.0,0.0,0.0,0.0,0.0,1
38615523,38615100,-0.0,-0.11084906,0.1495327,-0.10688836,0.0,0.0,0.0,0.0,0.0,0.0,0.0,1
38813669,38813234,-0.0,-0.051886793,0.15303738,-0.10926366,0.0,0.0,0.0,0.0,0.0,0.0,0.0,1
39008000,39007573,-0.0,-0.106132075,0.13901868,-0.11401425,0.0,0.0,0.0,0.0,0.0,0.0,0.0,1
39222823,39222258,-0.0,-0.054245282,0.16121495,-0.11638955,0.0,0.0,0.0,0.0,0.0,0.0,0.0,1
39418821,39418231,0.028436018,-0.106132075,0.1495327,-0.10926366,0.0,0.0,0.0,0.0,0.0,0.0,0.0,1
39621343,39620479,0.061611373,-0.051886793,0.14369158,-0.10926366,0.0,0.0,0.0,0.0,0.0,0.0,0.0,1
39816451,39815430,0.1042654,0.0,0.14018692,-0.12826604,0.0,0.0,0.0,0.0,0.0,0.0,0.0,1
40014845,40014420,0.061611373,-0.047169812,0.13901868,-0.12826604,0.0,0.0,0.0,0.0,0.0,0.0,0.0,1
40209406,40208963,-0.0,-0.03301887,0.13084112,-0.14251782,0.0,0.0,0.0,0.0,0.0,0.0,0.0,1
40427582,40427156,-0.0,-0.09669811,0.12733644,-0.15201901,0.0,0.0,0.0,0.0,0.0,0.0,0.0,1
40623352,40618104,0.023696683,-0.03301887,0.12616822,-0.14726841,0.0,0.0,0.0,0.0,0.0,0.0,0.0,1
40816596,40816020,0.04028436,0.0,0.12616822,-0.15201901,0.0,0.0,0.0,0.0,0.0,0.0,0.0,1
41010783,41010126,0.035545025,-0.025943397,0.13901868,-0.14489311,0.0,0.0,0.0,0.0,0.0,0.0,0.0,1
41225587,41225146,-0.0,0.0,0.1495327,-0.15201901,0.0,0.0,0.0,0.0,0.0,0.0,0.0,1
41419056,41418629,-0.0,0.0,0.1495327,-0.1591449,0.0,0.0,0.0,0.0,0.0,0.0,0.0,1
41613433,41613003,0.047393367,0.0,0.14602804,-0.16152018,0.0,0.0,0.0,0.0,0.0,0.0,0.0,1
41826157,41825502,0.08293839,0.0,0.13200934,-0.16152018,0.0,0.0,0.0,0.0,0.0,0.0,0.0,1
42018284,42017733,0.056872036,-0.0023584906,0.13668224,-0.16152018,0.0,0.0,0.0,0.0,0.0,0.0,0.0,1
42216019,42215593,0.06872038,0.0,0.13785046,-0.17339668,0.0,0.0,0.0,0.0,0.0,0.0,0.0,1
42423333,42422911,0.06398104,0.0,0.13084112,-0.17339668,0.0,0.0,0.0,0.0,0.0,0.0,0.0,1
42613435,42613009,-0.0,0.0,0.12850468,-0.17339668,0.0,0.0,0.0,0.0,0.0,0.0,0.0,1
42829216,42828766,0.02606635,0.0,0.12850468,-0.17339668,0.0,0.0,0.0,0.0,0.0,0.0,0.0,1
42998412,42997985,0.0521327,0.0,0.13084112,-0.17339668,0.0,0.0,0.0,0.0,0.0,0.0,0.0,1
43212677,43212105,0.073459715,0.0,0.15070094,-0.17577197,0.0,0.0,0.0,0.0,0.0,0.0,0.0,1
43409271,43408843,0.08056872,0.0,0.1542056,-0.17102137,0.0,0.0,0.0,0.0,0.0,0.0,0.0,1
43607538,43607104,0.06872038,-0.009433962,0.16004673,-0.16389549,0.0,0.0,0.0,0.0,0.0,0.0,0.0,1
43827117,43826695,0.07582939,0.0,0.14602804,-0.16152018,0.0,0.0,0.0,0.0,0.0,0.0,0.0,1
44016983,44016374,0.0900474,0.0,0.13668224,-0.16627078,0.0,0.0,0.0,0.0,0.0,0.0,0.0,1
44191498,44191073,0.116113745,0.0,0.13317756,-0.16864608,0.0,0.0,0.0,0.0,0.0,0.0,0.0,1
44403879,44403454,0.109004736,0.0,0.1203271,-0.1543943,0.0,0.0,0.0,0.0,0.0,0.0,0.0,1
44618887,44618461,0.109004736,0.0,0.11799066,-0.1567696,0.0,0.0,0.0,0.0,0.0,0.0,0.0,1
44811967,44811540,0.123222746,0.0,0.125,-0.16389549,0.0,0.0,0.0,0.0,0.0,0.0,0.0,1
44984222,44983798,0.123222746,0.0,0.14836448,-0.16864608,0.0,0.0,0.0,0.0,0.0,0.0,0.0,1
45223825,45223373,0.023696683,0.0,0.1495327,-0.17577197,0.0,0.0,0.0,0.0,0.0,0.0,0.0,1
45415912,45415490,-0.0,0.0,0.16121495,-0.17577197,0.0,0.0,0.0,0.0,0.0,0.0,0.0,1
45613790,45613274,0.0521327,0.0,0.15186916,-0.18527316,0.0,0.0,0.0,0.0,0.0,0.0,0.0,1
45826882,45826446,0.073459715,0.0,0.12266355,-0.17577197,0.0,0.0,0.0,0.0,0.0,0.0,0.0,1
46028616,46028191,0.011848342,0.0,0.12266355,-0.17339668,0.0,0.0,0.0,0.0,0.0,0.0,0.0,1
46184085,46183660,-0.0,0.0,0.12616822,-0.16627078,0.0,0.0,0.0,0.0,0.0,0.0,0.0,1
46426011,46425576,-0.0,0.0,0.13785046,-0.17577197,0.0,0.0,0.0,0.0,0.0,0.0,0.0,1
46617695,46616570,-0.0,0.0,0.14836448,-0.17577197,0.0,0.0,0.0,0.0,0.0,0.0,0.0,1
46830215,46829759,-0.0,0.0,0.14836448,-0.16864608,0.0,0.0,0.0,0.0,0.0,0.0,0.0,1
47027447,47026985,-0.0,-0.1273585,0.1495327,-0.1543943,0.0,0.0,0.0,0.0,0.0,0.0,0.0,1
47221776,47221351,-0.0,-0.054245282,0.13785046,-0.1496437,0.0,0.0,0.0,0.0,0.0,0.0,0.0,1
47395364,47394938,-0.0,0.0,0.12733644,-0.14726841,0.0,0.0,0.0,0.0,0.0,0.0,0.0,1
47551856,47551395,-0.0,0.0,0.12733644,-0.14489311,0.0,0.0,0.0,0.0,0.0,0.0,0.0,1
47812316,47811890,0.0047393367,0.0,0.12733644,-0.14489311,0.0,0.0,0.0,0.0,0.0,0.0,0.0,1
48024936,48024384,-0.0,0.0,0.13785046,-0.14726841,0.0,0.0,0.0,0.0,0.0,0.0,0.0,1
48216246,48215824,-0.0,-0.047169812,0.14018692,-0.14489311,0.0,0.0,0.0,0.0,0.0,0.0,0.0,1
48346074,48345601,-0.0,-0.091981135,0.14018692,-0.14251782,0.0,0.0,0.0,0.0,0.0,0.0,0.0,1
48625867,48625421,-0.0,-0.09669811,0.1495327,-0.14014252,0.0,0.0,0.0,0.0,0.0,0.0,0.0,1
48798027,48797597,0.035545025,0.0,0.1495327,-0.14251782,0.0,0.0,0.0,0.0,0.0,0.0,0.0,1
49415848,49415324,-0.0,-0.0990566,0.13084112,-0.12826604,0.0,0.0,0.0,0.0,0.0,0.0,0.0,1
49544088,49543654,-0.0,-0.091981135,0.13084112,-0.12589073,0.0,0.0,0.0,0.0,0.0,0.0,0.0,1
49825150,49824719,-0.0,-0.06367925,0.13084112,-0.12589073,0.0,0.0,0.0,0.0,0.0,0.0,0.0,1
50023479,50023054,0.009478673,-0.025943397,0.13317756,-0.121140145,0.0,0.0,0.0,0.0,0.0,0.0,0.0,1
50218058,50217563,0.087677725,0.0,0.13901868,-0.121140145,0.0,0.0,0.0,0.0,0.0,0.0,0.0,1
50414211,50413788,0.0971564,0.0,0.14369158,-0.10213777,0.0,0.0,0.0,0.0,0.0,0.0,0.0,1
50627342,50626919,0.08530806,0.0,0.14836448,-0.09026128,0.0,0.0,0.0,0.0,0.0,0.0,0.0,1
50823505,50823080,0.06398104,0.0,0.1495327,-0.06888361,0.0,0.0,0.0,0.0,0.0,0.0,0.0,1
51004518,51001633,0.016587678,-0.08726415,0.1495327,-0.06175772,0.0,0.0,0.0,0.0,0.0,0.0,0.0,1
51202500,51201816,0.021327015,-0.09669811,0.1495327,-0.05463183,0.0,0.0,0.0,0.0,0.0,0.0,0.0,1
51416069,51415641,0.07582939,-0.04245283,0.1495327,-0.042755343,0.0,0.0,0.0,0.0,0.0,0.0,0.0,1
51610965,51610331,0.11137441,-0.014150944,0.12383178,-0.023752969,0.0,0.0,0.0,0.0,0.0,0.0,0.0,1
51808923,51808208,0.13270143,0.0,0.12383178,-0.021377672,0.0,0.0,0.0,0.0,0.0,0.0,0.0,1
52022879,52022420,0.13033175,0.0,0.12383178,-0.009501188,0.0,0.0,0.0,0.0,0.0,0.0,0.0,1
52164655,52164226,0.123222746,0.0,0.12733644,-0.009501188,0.0,0.0,0.0,0.0,0.0,0.0,0.0,1
52423315,52422888,0.123222746,-0.009433962,0.13551402,-0.007125891,0.0,0.0,0.0,0.0,0.0,0.0,0.0,1
52615191,52614371,0.1492891,0.0,0.14252336,-0.007125891,0.0,0.0,0.0,0.0,0.0,0.0,0.0,1
52766728,52766307,0.1421801,0.0,0.15070094,-0.007125891,0.0,0.0,0.0,0.0,0.0,0.0,0.0,1
52966323,52965900,0.09478673,0.0,0.15070094,-0.007125891,0.0,0.0,0.0,0.0,0.0,0.0,0.0,1
53206044,53205517,0.11137441,0.0,0.15070094,-0.007125891,0.0,0.0,0.0,0.0,0.0,0.0,0.0,1
53421150,53420619,0.09478673,0.0,0.12850468,0.0,0.0,0.0,0.0,0.0,0.0,0.0,0.0,1
53624062,53623636,0.08530806,0.0,0.12733644,0.0,0.0,0.0,0.0,0.0,0.0,0.0,0.0,1
53812279,53811849,0.06398104,-0.0023584906,0.12850468,0.0,0.0,0.0,0.0,0.0,0.0,0.0,0.0,1
54029550,54029128,0.059241705,-0.12028302,0.13668224,0.0,0.0,0.0,0.0,0.0,0.0,0.0,0.0,1
54224362,54223910,0.016587678,-0.16745283,0.13668224,0.0,0.0,0.0,0.0,0.0,0.0,0.0,0.0,1
54420101,54419673,0.0450237,-0.125,0.14252336,0.0,0.0,0.0,0.0,0.0,0.0,0.0,0.0,1
54609933,54609431,0.073459715,-0.08726415,0.1495327,0.0,0.0,0.0,0.0,0.0,0.0,0.0,0.0,1
54804405,54803979,0.12796208,-0.0023584906,0.15654206,0.0,0.0,0.0,0.0,0.0,0.0,0.0,0.0,1
55024585,55024162,0.1421801,0.0,0.13084112,0.0,0.0,0.0,0.0,0.0,0.0,0.0,0.0,1
55221809,55221376,0.12559241,-0.04245283,0.15303738,0.0,0.0,0.0,0.0,0.0,0.0,0.0,0.0,1
55416715,55416263,0.101895735,-0.09669811,0.15654206,0.0,0.0,0.0,0.0,0.0,0.0,0.0,0.0,1
55629326,55628899,0.116113745,-0.06603774,0.13551402,0.0,0.0,0.0,0.0,0.0,0.0,0.0,0.0,1
55822044,55821576,0.13981043,-0.009433962,0.14018692,0.0,0.0,0.0,0.0,0.0,0.0,0.0,0.0,1
56011744,56011320,0.1421801,0.0,0.14135514,0.0,0.0,0.0,0.0,0.0,0.0,0.0,0.0,1
56211682,56211242,0.14691943,0.0,0.1296729,0.0,0.0,0.0,0.0,0.0,0.0,0.0,0.0,1
56408061,56407637,0.1421801,0.0,0.11682243,0.0,0.0,0.0,0.0,0.0,0.0,0.0,0.0,1
56624833,56624344,0.13981043,0.0,0.11682243,0.0,0.0,0.0,0.0,0.0,0.0,0.0,0.0,1
56821568,56821124,0.17061612,0.0,0.12733644,0.0,0.0,0.0,0.0,0.0,0.0,0.0,0.0,1
57013744,57013230,0.21327014,0.08274232,0.15070094,0.0,0.0,0.0,0.0,0.0,0.0,0.0,0.0,1
57185852,57185192,0.21090047,0.08510638,0.15186916,0.0,0.0,0.0,0.0,0.0,0.0,0.0,0.0,1
57428447,57427896,0.123222746,0.06619386,0.15186916,0.0,0.0,0.0,0.0,0.0,0.0,0.0,0.0,1
57626095,57625669,-0.0,0.2245863,0.13668224,0.0023474179,0.0,0.0,0.0,0.0,0.0,0.0,0.0,1
57819540,57819118,-0.0,0.13475177,0.13901868,0.037558686,0.0,0.0,0.0,0.0,0.0,0.0,0.0,1
58017592,58017131,-0.0,0.056737587,0.1203271,0.096244134,0.0,0.0,0.0,0.0,0.0,0.0,0.0,1
58211254,58210516,-0.0,0.0047281324,0.14018692,0.09859155,0.0,0.0,0.0,0.0,0.0,0.0,0.0,1
58408250,58407802,-0.0,0.009456265,0.1203271,0.15492958,0.0,0.0,0.0,0.0,0.0,0.0,0.0,1
58621573,58620976,-0.0,0.0,0.125,0.19483568,0.0,0.0,0.0,0.0,0.0,0.0,0.0,1
58822941,58822517,-0.0,0.0,0.14018692,0.19248827,0.0,0.0,0.0,0.0,0.0,0.0,0.0,1
59026411,59025983,-0.0,0.0,0.17289719,0.17370892,0.0,0.0,0.0,0.0,0.0,0.0,0.0,1
59221081,59220645,0.011848342,0.0,0.18341121,0.1713615,0.0,0.0,0.0,0.0,0.0,0.0,0.0,1
59412184,59411577,0.09241706,0.0,0.15771028,0.15727699,0.0,0.0,0.0,0.0,0.0,0.0,0.0,1
59609754,59609328,0.101895735,0.0,0.13084112,0.15023474,0.0,0.0,0.0,0.0,0.0,0.0,0.0,1
59824149,59823723,0.12796208,0.0,0.11799066,0.11971831,0.0,0.0,0.0,0.0,0.0,0.0,0.0,1
60022830,60022404,0.12559241,0.0,0.125,0.103286386,0.0,0.0,0.0,0.0,0.0,0.0,0.0,1
60220377,60217498,0.1421801,0.026004728,0.13551402,0.056338027,0.0,0.0,0.0,0.0,0.0,0.0,0.0,1
60405576,60405154,0.11137441,0.03782506,0.15186916,0.025821596,0.0,0.0,0.0,0.0,0.0,0.0,0.0,1
60610106,60609685,0.11137441,0.04491726,0.13084112,0.025821596,0.0,0.0,0.0,0.0,0.0,0.0,0.0,1
60826343,60825826,0.09952607,0.06146572,0.12616822,0.0093896715,0.0,0.0,0.0,0.0,0.0,0.0,0.0,1
61019036,61018475,0.0900474,0.11347517,0.14135514,0.0,0.0,0.0,0.0,0.0,0.0,0.0,0.0,1
61219479,61218716,0.08293839,0.07565012,0.16004673,0.037558686,0.0,0.0,0.0,0.0,0.0,0.0,0.0,1
61417854,61417428,0.101895735,0.035460994,0.17990655,0.096244134,0.0,0.0,0.0,0.0,0.0,0.0,0.0,1
61613508,61613081,0.1042654,0.01891253,0.15186916,0.14553991,0.0,0.0,0.0,0.0,0.0,0.0,0.0,1
61807478,61807053,0.12796208,0.0,0.15186916,0.15492958,0.0,0.0,0.0,0.0,0.0,0.0,0.0,1
62008133,62007466,0.1421801,0.08747045,0.098130845,0.11971831,0.0,0.0,0.0,0.0,0.0,0.0,0.0,1
62226802,62226364,0.101895735,0.04491726,0.1343458,0.11032864,0.0,0.0,0.0,0.0,0.0,0.0,0.0,1
62398486,62398060,0.09952607,0.0,0.15537383,0.11032864,0.0,0.0,0.0,0.0,0.0,0.0,0.0,1
62629739,62628737,0.1042654,0.0,0.1635514,0.103286386,0.0,0.0,0.0,0.0,0.0,0.0,0.0,1
62822864,62822439,0.17298578,0.0,0.12383178,0.096244134,0.0,0.0,0.0,0.0,0.0,0.0,0.0,1
63014989,63014564,0.16113745,-0.023584906,0.14135514,0.09859155,0.0,0.0,0.0,0.0,0.0,0.0,0.0,1
63209301,63208714,0.1421801,-0.0495283,0.1495327,0.09859155,0.0,0.0,0.0,0.0,0.0,0.0,0.0,1
63420161,63419712,0.09478673,0.0,0.16238318,0.09859155,0.0,0.0,0.0,0.0,0.0,0.0,0.0,1
63614599,63614174,0.06635071,-0.08018868,0.14602804,0.10798122,0.0,0.0,0.0,0.0,0.0,0.0,0.0,1
63809525,63808971,0.06398104,-0.15566038,0.14369158,0.10798122,0.0,0.0,0.0,0.0,0.0,0.0,0.0,1
64025909,64025463,0.056872036,-0.13915095,0.11915888,0.09154929,0.0,0.0,0.0,0.0,0.0,0.0,0.0,1
64222070,64221620,0.0521327,-0.13915095,0.125,0.10093897,0.0,0.0,0.0,0.0,0.0,0.0,0.0,1
64424248,64423816,0.009478673,-0.24528302,0.1296729,0.10798122,0.0,0.0,0.0,0.0,0.0,0.0,0.0,1
64618860,64618437,-0.0,-0.25,0.14602804,0.11032864,0.0,0.0,0.0,0.0,0.0,0.0,0.0,1
64814666,64814236,-0.0,-0.22169812,0.15186916,0.10798122,0.0,0.0,0.0,0.0,0.0,0.0,0.0,1
65012123,65011702,-0.0,-0.15566038,0.15771028,0.1056338,0.0,0.0,0.0,0.0,0.0,0.0,0.0,1
65210666,65210054,0.056872036,0.0,0.12733644,0.12676056,0.0,0.0,0.0,0.0,0.0,0.0,0.0,1
65428765,65428279,0.0971564,0.0,0.12733644,0.13380282,0.0,0.0,0.0,0.0,0.0,0.0,0.0,1
65623359,65622933,-0.0,-0.03301887,0.13317756,0.16901408,0.0,0.0,0.0,0.0,0.0,0.0,0.0,1
65818566,65818105,-0.0,-0.058962263,0.1343458,0.21361503,0.0,0.0,0.0,0.0,0.0,0.0,0.0,1
66028131,66027259,-0.0,-0.08726415,0.14018692,0.22769953,0.0,0.0,0.0,0.0,0.0,0.0,0.0,1
66217638,66216980,-0.0,-0.07311321,0.14135514,0.2488263,0.0,0.0,0.0,0.0,0.0,0.0,0.0,1
66409169,66408700,-0.0,-0.04481132,0.1542056,0.24413146,0.0,0.0,0.0,0.0,0.0,0.0,0.0,1
66630651,66630138,-0.0,-0.021226415,0.15070094,0.24647887,0.0,0.0,0.0,0.0,0.0,0.0,0.0,1
66824478,66824024,-0.0,-0.016509434,0.15070094,0.25586855,0.0,0.0,0.0,0.0,0.0,0.0,0.0,1
67014857,67014243,-0.0,0.0,0.12850468,0.26760563,0.0,0.0,0.0,0.0,0.0,0.0,0.0,1
67215780,67215359,-0.0,0.0,0.12850468,0.2769953,0.0,0.0,0.0,0.0,0.0,0.0,0.0,1
67323721,67323280,-0.0,0.0,0.13551402,0.27230048,0.0,0.0,0.0,0.0,0.0,0.0,0.0,1
67625362,67622812,-0.0,0.0,0.1495327,0.26760563,0.0,0.0,0.0,0.0,0.0,0.0,0.0,1
67819846,67819421,-0.0,0.1394799,0.1495327,0.26760563,0.0,0.0,0.0,0.0,0.0,0.0,0.0,1
68009557,68009126,-0.0,0.13238771,0.1495327,0.2746479,0.0,0.0,0.0,0.0,0.0,0.0,0.0,1
68225682,68225253,-0.0,0.11347517,0.1495327,0.2769953,0.0,0.0,0.0,0.0,0.0,0.0,0.0,1
68426512,68426087,-0.036057692,0.07801419,0.12850468,0.2746479,0.0,0.0,0.0,0.0,0.0,0.0,0.0,1
68624636,68623819,-0.043269232,0.12765957,0.15070094,0.27230048,0.0,0.0,0.0,0.0,0.0,0.0,0.0,1
68813560,68813134,-0.012019231,0.19148937,0.15070094,0.26760563,0.0,0.0,0.0,0.0,0.0,0.0,0.0,1
68987969,68987545,-0.024038462,0.21513002,0.15654206,0.26760563,0.0,0.0,0.0,0.0,0.0,0.0,0.0,1
69201597,69201172,-0.01923077,0.19858156,0.15654206,0.26995304,0.0,0.0,0.0,0.0,0.0,0.0,0.0,1
69414568,69414143,-0.0,0.19621749,0.1495327,0.27230048,0.0,0.0,0.0,0.0,0.0,0.0,0.0,1
69624930,69624443,-0.0,0.07801419,0.15303738,0.21361503,0.0,0.0,0.0,0.0,0.0,0.0,0.0,1
69820560,69820039,-0.0,0.06855792,0.14135514,0.14319248,0.0,0.0,0.0,0.0,0.0,0.0,0.0,1
69991525,69991080,-0.0,0.09692671,0.16004673,0.14084508,0.0,0.0,0.0,0.0,0.0,0.0,0.0,1
70224145,70223412,-0.0,0.22695035,0.12616822,0.12206573,0.0,0.0,0.0,0.0,0.0,0.0,0.0,1
70415798,70415377,-0.0,0.33096927,0.12616822,0.13145539,0.0,0.0,0.0,0.0,0.0,0.0,0.0,1
70612464,70611907,0.1042654,0.2104019,0.12850468,0.14319248,0.0,0.0,0.0,0.0,0.0,0.0,0.0,1
70830092,70829668,0.0971564,0.22222222,0.14602804,0.14084508,0.0,0.0,0.0,0.0,0.0,0.0,0.0,1
71022885,71022445,0.11848341,0.25295508,0.15771028,0.13849765,0.0,0.0,0.0,0.0,0.0,0.0,0.0,1
71221714,71221288,0.11137441,0.23404256,0.16705607,0.13380282,0.0,0.0,0.0,0.0,0.0,0.0,0.0,1
71416177,71415624,0.09241706,0.011820331,0.16705607,0.09154929,0.0,0.0,0.0,0.0,0.0,0.0,0.0,1
71607833,71607405,0.11374407,0.0,0.14836448,0.0,0.0,0.0,0.0,0.0,0.0,0.0,0.0,1
71823686,71823186,0.27014217,0.0,0.17757009,0.0,0.0,0.0,0.0,0.0,0.0,0.0,0.0,1
72016051,72015628,0.2606635,0.0,0.16705607,0.0,0.0,0.0,0.0,0.0,0.0,0.0,0.0,1
72209953,72209401,0.27014217,0.0,0.13200934,0.0,0.0,0.0,0.0,0.0,0.0,0.0,0.0,1
72382769,72382243,0.23696682,0.0,0.125,0.0,0.0,0.0,0.0,0.0,0.0,0.0,0.0,1
72573898,72573471,0.27251184,0.0,0.1203271,0.0,0.0,0.0,0.0,0.0,0.0,0.0,0.0,1
72812200,72811775,0.26540285,0.11347517,0.1203271,0.0,0.0,0.0,0.0,0.0,0.0,0.0,0.0,1
73023650,73023093,0.29383886,0.13475177,0.12850468,0.0,0.0,0.0,0.0,0.0,0.0,0.0,0.0,1
73225261,73224669,0.34360188,0.1536643,0.14018692,0.0,0.0,0.0,0.0,0.0,0.0,0.0,0.0,1
73423289,73422855,0.41469195,0.04491726,0.18224299,0.0,0.0,0.0,0.0,0.0,0.0,0.0,0.0,1
73615748,73615272,0.41469195,0.13002364,0.17873831,0.0,0.0,0.0,0.0,0.0,0.0,0.0,0.0,1
73827182,73826756,0.30805686,0.19148937,0.13668224,0.0,0.0,0.0,0.0,0.0,0.0,0.0,0.0,1
74018932,74018508,0.32938388,0.15130024,0.12616822,0.0,0.0,0.0,0.0,0.0,0.0,0.0,0.0,1
74210088,74209665,0.3056872,0.05437352,0.125,0.0,0.0,0.0,0.0,0.0,0.0,0.0,0.0,1
74407907,74407468,0.27014217,0.0,0.125,0.0,0.0,0.0,0.0,0.0,0.0,0.0,0.0,1
74625730,74625286,0.20379147,-0.10377359,0.125,0.0,0.0,0.0,0.0,0.0,0.0,0.0,0.0,1
74822496,74821921,0.22037914,0.0,0.1203271,0.0,0.0,0.0,0.0,0.0,0.0,0.0,0.0,1
75012561,75012139,0.30094787,0.09456265,0.1448598,0.0,0.0,0.0,0.0,0.0,0.0,0.0,0.0,1
75228508,75228056,0.25829384,0.09929078,0.1495327,0.0,0.0,0.0,0.0,0.0,0.0,0.0,0.0,1
75426386,75425957,0.26540285,0.06855792,0.16588785,0.0,0.0,0.0,0.0,0.0,0.0,0.0,0.0,1
75621003,75620577,0.22511849,0.0,0.14602804,0.0,0.0,0.0,0.0,0.0,0.0,0.0,0.0,1
75815999,75815548,0.19668247,0.0,0.14602804,0.0,0.0,0.0,0.0,0.0,0.0,0.0,0.0,1
76021894,76021458,0.023696683,-0.08726415,0.125,0.0,0.0,0.0,0.0,0.0,0.0,0.0,0.0,1
76208835,76208174,0.02606635,-0.091981135,0.1203271,0.0,0.0,0.0,0.0,0.0,0.0,0.0,0.0,1
76421309,76420884,0.08293839,-0.04245283,0.1343458,0.0,0.0,0.0,0.0,0.0,0.0,0.0,0.0,1
76614904,76614480,0.11137441,0.0,0.16004673,0.0,0.0,0.0,0.0,0.0,0.0,0.0,0.0,1
76829457,76828982,0.1042654,0.0023640662,0.18341121,0.0,0.0,0.0,0.0,0.0,0.0,0.0,0.0,1
77007590,77007163,0.123222746,0.014184397,0.14836448,0.0,0.0,0.0,0.0,0.0,0.0,0.0,0.0,1
77216853,77216427,0.13033175,0.0,0.14836448,0.0,0.0,0.0,0.0,0.0,0.0,0.0,0.0,1
77409705,77409278,0.101895735,0.0,0.15771028,0.0,0.0,0.0,0.0,0.0,0.0,0.0,0.0,1
77587937,77587226,0.08293839,0.0,0.12266355,0.0,0.0,0.0,0.0,0.0,0.0,0.0,0.0,1
77804056,77803633,0.0521327,0.0,0.13317756,0.0,0.0,0.0,0.0,0.0,0.0,0.0,0.0,1
78023045,78022608,0.09241706,0.03309693,0.13084112,0.0,0.0,0.0,0.0,0.0,0.0,0.0,0.0,1
78220237,78219800,0.09241706,0.01891253,0.15303738,0.0,0.0,0.0,0.0,0.0,0.0,0.0,0.0,1
78415238,78414810,0.09478673,0.06619386,0.14135514,0.0,0.0,0.0,0.0,0.0,0.0,0.0,0.0,1
78612884,78612439,0.09241706,0.08510638,0.1495327,0.0,0.0,0.0,0.0,0.0,0.0,0.0,0.0,1
78811241,78810816,0.09241706,0.021276595,0.15186916,0.0,0.0,0.0,0.0,0.0,0.0,0.0,0.0,1
79019304,79018876,0.09478673,0.03073286,0.13668224,0.0,0.0,0.0,0.0,0.0,0.0,0.0,0.0,1
79425366,79424945,0.109004736,0.11583924,0.14369158,0.0,0.0,0.0,0.0,0.0,0.0,0.0,0.0,1
79621573,79621145,0.13744076,0.09692671,0.14836448,0.0,0.0,0.0,0.0,0.0,0.0,0.0,0.0,1
79818034,79817500,0.12796208,0.03309693,0.14018692,0.0,0.0,0.0,0.0,0.0,0.0,0.0,0.0,1
80009555,80009131,0.13744076,0.0,0.14252336,0.0,0.0,0.0,0.0,0.0,0.0,0.0,0.0,1
80223105,80222683,0.14691943,0.0,0.1495327,0.0,0.0,0.0,0.0,0.0,0.0,0.0,0.0,1
80419085,80418659,0.13033175,0.0023640662,0.14369158,0.0,0.0,0.0,0.0,0.0,0.0,0.0,0.0,1
80618666,80618239,0.12796208,0.009456265,0.14018692,0.0,0.0,0.0,0.0,0.0,0.0,0.0,0.0,1
80817848,80817423,0.12559241,0.0,0.13785046,0.0,0.0,0.0,0.0,0.0,0.0,0.0,0.0,1
80988407,80987910,0.13033175,0.0,0.14252336,0.0,0.0,0.0,0.0,0.0,0.0,0.0,0.0,1
81223775,81223340,0.14454976,0.0,0.16588785,0.0,0.0,0.0,0.0,0.0,0.0,0.0,0.0,1
81421805,81421193,0.14691943,0.0,0.14602804,0.0,0.0,0.0,0.0,0.0,0.0,0.0,0.0,1
81615394,81614934,0.13507108,0.0,0.12149533,0.0,0.0,0.0,0.0,0.0,0.0,0.0,0.0,1
81791244,81790731,0.11374407,-0.04009434,0.12383178,0.0,0.0,0.0,0.0,0.0,0.0,0.0,0.0,1
82029508,82029020,0.11137441,-0.04481132,0.12383178,-0.002375297,0.0,0.0,0.0,0.0,0.0,0.0,0.0,1
82220559,82220092,0.15165877,-0.004716981,0.14135514,-0.03087886,0.0,0.0,0.0,0.0,0.0,0.0,0.0,1
82411960,82411533,0.13981043,-0.03301887,0.1296729,-0.040380046,0.0,0.0,0.0,0.0,0.0,0.0,0.0,1
82586717,82586292,0.11848341,-0.10377359,0.14836448,-0.033254158,0.0,0.0,0.0,0.0,0.0,0.0,0.0,1
82801297,82800863,0.13981043,-0.108490564,0.17873831,-0.033254158,0.0,0.0,0.0,0.0,0.0,0.0,0.0,1
83022391,83021966,0.1421801,-0.10377359,0.17523365,-0.038004752,0.0,0.0,0.0,0.0,0.0,0.0,0.0,1
83214457,83214033,0.13981043,-0.11556604,0.1542056,-0.05463183,0.0,0.0,0.0,0.0,0.0,0.0,0.0,1
83412086,83411662,0.12796208,-0.070754714,0.15654206,-0.057007127,0.0,0.0,0.0,0.0,0.0,0.0,0.0,1
83626521,83626064,0.09478673,-0.106132075,0.14836448,-0.049881235,0.0,0.0,0.0,0.0,0.0,0.0,0.0,1
83822352,83821922,0.116113745,-0.04245283,0.15303738,-0.038004752,0.0,0.0,0.0,0.0,0.0,0.0,0.0,1
84018089,84017664,0.13507108,0.0,0.12850468,-0.042755343,0.0,0.0,0.0,0.0,0.0,0.0,0.0,1
84192405,84191867,0.13981043,0.0,0.14369158,-0.033254158,0.0,0.0,0.0,0.0,0.0,0.0,0.0,1
84407909,84407481,0.15402843,0.0,0.14369158,-0.035629455,0.0,0.0,0.0,0.0,0.0,0.0,0.0,1
84622130,84621707,0.15876777,0.0,0.15186916,-0.021377672,0.0,0.0,0.0,0.0,0.0,0.0,0.0,1
84820209,84819780,0.116113745,-0.12264151,0.1495327,-0.023752969,0.0,0.0,0.0,0.0,0.0,0.0,0.0,1
85014316,85013893,0.116113745,0.0,0.14836448,-0.014251782,0.0,0.0,0.0,0.0,0.0,0.0,0.0,1
85210991,85210567,0.09478673,0.0,0.13668224,-0.033254158,0.0,0.0,0.0,0.0,0.0,0.0,0.0,1
85405209,85404773,0.116113745,0.009456265,0.14836448,-0.023752969,0.0,0.0,0.0,0.0,0.0,0.0,0.0,1
85624551,85624123,0.11374407,0.0070921984,0.14018692,-0.023752969,0.0,0.0,0.0,0.0,0.0,0.0,0.0,1
85820313,85819863,0.123222746,0.0,0.13785046,-0.021377672,0.0,0.0,0.0,0.0,0.0,0.0,0.0,1
85994314,85993838,0.1563981,0.0,0.15186916,-0.007125891,0.0,0.0,0.0,0.0,0.0,0.0,0.0,1
86200744,86200211,0.13981043,0.0,0.14252336,-0.009501188,0.0,0.0,0.0,0.0,0.0,0.0,0.0,1
86409579,86409154,0.116113745,0.0,0.14369158,-0.007125891,0.0,0.0,0.0,0.0,0.0,0.0,0.0,1
86628988,86628563,0.13270143,0.0023640662,0.1495327,-0.004750594,0.0,0.0,0.0,0.0,0.0,0.0,0.0,1
86818914,86818482,0.1563981,0.0,0.14135514,-0.019002376,0.0,0.0,0.0,0.0,0.0,0.0,0.0,1
88212465,88211972,0.11848341,0.0,0.13785046,-0.035629455,0.0,0.0,0.0,0.0,0.0,0.0,0.0,1
88423959,88423533,0.116113745,0.0023640662,0.12616822,-0.033254158,0.0,0.0,0.0,0.0,0.0,0.0,0.0,1
88614965,88614541,0.11137441,0.0,0.13200934,-0.026128266,0.0,0.0,0.0,0.0,0.0,0.0,0.0,1
88810938,88809869,0.12796208,0.0,0.14836448,-0.026128266,0.0,0.0,0.0,0.0,0.0,0.0,0.0,1
89024548,89024119,0.1421801,0.0,0.15186916,-0.021377672,0.0,0.0,0.0,0.0,0.0,0.0,0.0,1
89218267,89217828,0.12796208,-0.016509434,0.1635514,-0.019002376,0.0,0.0,0.0,0.0,0.0,0.0,0.0,1
89410958,89410535,0.13270143,0.0,0.16471963,-0.019002376,0.0,0.0,0.0,0.0,0.0,0.0,0.0,1
89623598,89623146,0.12796208,0.0,0.14602804,-0.040380046,0.0,0.0,0.0,0.0,0.0,0.0,0.0,1
89819106,89818682,0.123222746,-0.014150944,0.14836448,-0.033254158,0.0,0.0,0.0,0.0,0.0,0.0,0.0,1
90013448,90012787,0.11848341,-0.04481132,0.14836448,-0.033254158,0.0,0.0,0.0,0.0,0.0,0.0,0.0,1
90223414,90222946,0.059241705,-0.011792453,0.13200934,-0.049881235,0.0,0.0,0.0,0.0,0.0,0.0,0.0,1
90412925,90412437,0.0047393367,-0.03301887,0.13200934,-0.05463183,0.0,0.0,0.0,0.0,0.0,0.0,0.0,1
90587451,90586896,0.0047393367,-0.04009434,0.13317756,-0.06175772,0.0,0.0,0.0,0.0,0.0,0.0,0.0,1
90803857,90803432,0.009478673,-0.091981135,0.13785046,-0.07125891,0.0,0.0,0.0,0.0,0.0,0.0,0.0,1
91022305,91021880,0.0047393367,-0.12264151,0.1495327,-0.08076009,0.0,0.0,0.0,0.0,0.0,0.0,0.0,1
91221906,91221119,0.016587678,-0.12971698,0.1495327,-0.08076009,0.0,0.0,0.0,0.0,0.0,0.0,0.0,1
91414317,91413885,0.018957347,-0.10377359,0.15070094,-0.08076009,0.0,0.0,0.0,0.0,0.0,0.0,0.0,1
91629928,91629503,0.011848342,-0.051886793,0.15186916,-0.09026128,0.0,0.0,0.0,0.0,0.0,0.0,0.0,1
91821076,91819966,0.011848342,-0.06367925,0.15186916,-0.09976247,0.0,0.0,0.0,0.0,0.0,0.0,0.0,1
92014668,92014237,0.016587678,-0.08726415,0.15186916,-0.10213777,0.0,0.0,0.0,0.0,0.0,0.0,0.0,1
92210261,92209834,0.030805686,-0.08726415,0.15771028,-0.10213777,0.0,0.0,0.0,0.0,0.0,0.0,0.0,1
92423968,92423546,0.016587678,-0.0754717,0.1495327,-0.111638956,0.0,0.0,0.0,0.0,0.0,0.0,0.0,1
92627027,92626160,0.011848342,-0.056603774,0.15070094,-0.121140145,0.0,0.0,0.0,0.0,0.0,0.0,0.0,1
92801152,92800645,0.011848342,-0.028301887,0.15070094,-0.12589073,0.0,0.0,0.0,0.0,0.0,0.0,0.0,1
93018127,93017703,0.021327015,-0.028301887,0.15186916,-0.12826604,0.0,0.0,0.0,0.0,0.0,0.0,0.0,1
93208439,93208014,0.028436018,-0.004716981,0.15303738,-0.13539192,0.0,0.0,0.0,0.0,0.0,0.0,0.0,1
93419957,93419533,0.061611373,0.0,0.1542056,-0.13539192,0.0,0.0,0.0,0.0,0.0,0.0,0.0,1
93616524,93616098,0.073459715,0.0,0.15303738,-0.14251782,0.0,0.0,0.0,0.0,0.0,0.0,0.0,1
93811055,93810501,0.09952607,0.0,0.15303738,-0.13776723,0.0,0.0,0.0,0.0,0.0,0.0,0.0,1
94013993,94013539,0.09241706,-0.0495283,0.15303738,-0.13539192,0.0,0.0,0.0,0.0,0.0,0.0,0.0,1
94213829,94213238,0.0971564,-0.068396226,0.1495327,-0.13539192,0.0,0.0,0.0,0.0,0.0,0.0,0.0,1
94425309,94424882,0.09241706,-0.06367925,0.14135514,-0.14489311,0.0,0.0,0.0,0.0,0.0,0.0,0.0,1
94621579,94621156,0.0047393367,-0.11556604,0.13901868,-0.1591449,0.0,0.0,0.0,0.0,0.0,0.0,0.0,1
94815794,94815231,0.047393367,-0.07311321,0.13901868,-0.16389549,0.0,0.0,0.0,0.0,0.0,0.0,0.0,1
95027256,95026830,0.123222746,0.0,0.13901868,-0.16389549,0.0,0.0,0.0,0.0,0.0,0.0,0.0,1
95220370,95219943,0.1492891,0.0,0.14252336,-0.16864608,0.0,0.0,0.0,0.0,0.0,0.0,0.0,1
95415334,95414902,0.15165877,0.0,0.1495327,-0.13776723,0.0,0.0,0.0,0.0,0.0,0.0,0.0,1
95611409,95610983,0.13270143,0.0,0.18925233,-0.049881235,0.0,0.0,0.0,0.0,0.0,0.0,0.0,1
95813121,95812696,0.087677725,0.0,0.19158879,0.0,0.0,0.0,0.0,0.0,0.0,0.0,0.0,1
96023659,96023220,0.08530806,0.13002364,0.13901868,0.0,0.0,0.0,0.0,0.0,0.0,0.0,0.0,1
96221770,96221345,0.06872038,0.14893617,0.14719626,0.0,0.0,0.0,0.0,0.0,0.0,0.0,0.0,1
96406877,96406449,0.016587678,0.15130024,0.1542056,0.0,0.0,0.0,0.0,0.0,0.0,0.0,0.0,1
96628054,96627503,0.037914693,0.09692671,0.15537383,0.0,0.0,0.0,0.0,0.0,0.0,0.0,0.0,1
96821384,96820830,0.06398104,0.016548464,0.16121495,-0.040380046,0.0,0.0,0.0,0.0,0.0,0.0,0.0,1
97012852,97012427,0.12796208,0.0,0.12616822,-0.07125891,0.0,0.0,0.0,0.0,0.0,0.0,0.0,1
97215206,97214782,0.13507108,0.0,0.1203271,-0.057007127,0.0,0.0,0.0,0.0,0.0,0.0,0.0,1
97430514,97429896,0.08530806,0.39007092,0.1203271,-0.057007127,0.0,0.0,0.0,0.0,0.0,0.0,0.0,1
97610244,97609683,0.0450237,0.3617021,0.12266355,-0.05463183,0.0,0.0,0.0,0.0,0.0,0.0,0.0,1
97808031,97807584,0.07582939,0.13238771,0.1682243,-0.059382424,0.0,0.0,0.0,0.0,0.0,0.0,0.0,1
98005290,98004860,0.1421801,0.16548464,0.17757009,-0.042755343,0.0,0.0,0.0,0.0,0.0,0.0,0.0,1
98221569,98221131,0.24881516,0.26950353,0.15186916,-0.007125891,0.0,0.0,0.0,0.0,0.0,0.0,0.0,1
98411969,98411547,0.22037914,0.28368795,0.14836448,-0.004750594,0.0,0.0,0.0,0.0,0.0,0.0,0.0,1
98609889,98609432,0.17061612,0.2671395,0.1203271,0.0,0.0,0.0,0.0,0.0,0.0,0.0,0.0,1
98825128,98824700,0.1800948,0.23404256,0.15654206,-0.002375297,0.0,0.0,0.0,0.0,0.0,0.0,0.0,1
99019745,99019318,0.1872038,0.23404256,0.15537383,-0.007125891,0.0,0.0,0.0,0.0,0.0,0.0,0.0,1
99218463,99218039,0.21563981,0.17257683,0.16238318,-0.009501188,0.0,0.0,0.0,0.0,0.0,0.0,0.0,1
99409205,99408782,0.23459716,0.13475177,0.13551402,0.0,0.0,0.0,0.0,0.0,0.0,0.0,0.0,1
99628414,99627896,0.22985782,0.14420804,0.15654206,0.0,0.0,0.0,0.0,0.0,0.0,0.0,0.0,1
99822176,99821747,0.26540285,0.24113475,0.16939253,0.0,0.0,0.0,0.0,0.0,0.0,0.0,0.0,1
100013257,100012773,0.23696682,0.14893617,0.17757009,0.0,0.0,0.0,0.0,0.0,0.0,0.0,0.0,1
100228375,100227903,0.18957347,0.056737587,0.1495327,0.0,0.0,0.0,0.0,0.0,0.0,0.0,0.0,1
100425292,100424865,0.15165877,0.040189125,0.1448598,0.0,0.0,0.0,0.0,0.0,0.0,0.0,0.0,1
100618653,100618180,0.09241706,0.11583924,0.13084112,0.0,0.0,0.0,0.0,0.0,0.0,0.0,0.0,1
100815952,100815530,0.123222746,0.1394799,0.14836448,0.0,0.0,0.0,0.0,0.0,0.0,0.0,0.0,1
101008116,101007691,0.13270143,0.09692671,0.125,0.0,0.0,0.0,0.0,0.0,0.0,0.0,0.0,1
101224117,101223694,0.13507108,0.07565012,0.13668224,0.0,0.0,0.0,0.0,0.0,0.0,0.0,0.0,1
101421593,101421158,0.15876777,0.06146572,0.15303738,0.0,0.0,0.0,0.0,0.0,0.0,0.0,0.0,1
101619258,101618286,0.13981043,0.021276595,0.16004673,0.0,0.0,0.0,0.0,0.0,0.0,0.0,0.0,1
101770379,101769952,0.123222746,0.0,0.16121495,0.0,0.0,0.0,0.0,0.0,0.0,0.0,0.0,1
102013440,102013013,0.09241706,0.06855792,0.1588785,0.0,0.0,0.0,0.0,0.0,0.0,0.0,0.0,1
102224968,102224544,0.1421801,0.11347517,0.14602804,0.0,0.0,0.0,0.0,0.0,0.0,0.0,0.0,1
102369869,102369318,0.15876777,0.10874704,0.14602804,0.0,0.0,0.0,0.0,0.0,0.0,0.0,0.0,1
102608741,102608257,0.1635071,0.10874704,0.14602804,0.0,0.0,0.0,0.0,0.0,0.0,0.0,0.0,1
102822925,102822499,0.14691943,0.08983452,0.15186916,0.0,0.0,0.0,0.0,0.0,0.0,0.0,0.0,1
103018826,103018312,0.1421801,0.09929078,0.15303738,0.0,0.0,0.0,0.0,0.0,0.0,0.0,0.0,1
103214608,103214185,0.15165877,0.09456265,0.15303738,0.0,0.0,0.0,0.0,0.0,0.0,0.0,0.0,1
103392489,103391958,0.15402843,0.10165485,0.14719626,0.0,0.0,0.0,0.0,0.0,0.0,0.0,0.0,1
103608838,103608413,0.14691943,0.08510638,0.15070094,0.0,0.0,0.0,0.0,0.0,0.0,0.0,0.0,1
103823637,103823212,0.13744076,0.08037825,0.15303738,0.0,0.0,0.0,0.0,0.0,0.0,0.0,0.0,1
104017057,104016632,0.12085308,0.07801419,0.15771028,0.0,0.0,0.0,0.0,0.0,0.0,0.0,0.0,1
104216250,104215688,0.116113745,0.09692671,0.16471963,0.0,0.0,0.0,0.0,0.0,0.0,0.0,0.0,1
104410984,104410516,0.0971564,0.11583924,0.17523365,0.0,0.0,0.0,0.0,0.0,0.0,0.0,0.0,1
104630020,104628902,0.09241706,0.09929078,0.18107477,0.0,0.0,0.0,0.0,0.0,0.0,0.0,0.0,1
104829161,104828735,0.011848342,0.0070921984,0.1635514,0.0,0.0,0.0,0.0,0.0,0.0,0.0,0.0,1
105005085,105004459,-0.0,0.0,0.1542056,0.0,0.0,0.0,0.0,0.0,0.0,0.0,0.0,1
105220203,105219777,-0.0072115385,0.0,0.14836448,0.0,0.0,0.0,0.0,0.0,0.0,0.0,0.0,1
105411245,105410820,-0.0,0.026004728,0.1343458,0.0,0.0,0.0,0.0,0.0,0.0,0.0,0.0,1
105600784,105600360,-0.0,0.028368793,0.1343458,0.0,0.0,0.0,0.0,0.0,0.0,0.0,0.0,1
105817453,105816898,-0.0,0.0,0.13317756,0.0,0.0,0.0,0.0,0.0,0.0,0.0,0.0,1
106010244,106009820,-0.0,0.0,0.13551402,0.0,0.0,0.0,0.0,0.0,0.0,0.0,0.0,1
106208201,106207726,0.023696683,0.0,0.15303738,0.0,0.0,0.0,0.0,0.0,0.0,0.0,0.0,1
106422325,106421900,0.08530806,0.0,0.17056075,0.0,0.0,0.0,0.0,0.0,0.0,0.0,0.0,1
106617728,106617302,0.12796208,0.0,0.17056075,0.0,0.0,0.0,0.0,0.0,0.0,0.0,0.0,1
106812270,106811844,0.16824645,0.0023640662,0.16121495,0.0,0.0,0.0,0.0,0.0,0.0,0.0,0.0,1
107027472,107026911,0.16587678,0.009456265,0.14602804,0.0,0.0,0.0,0.0,0.0,0.0,0.0,0.0,1
107202021,107201598,0.17061612,0.014184397,0.13200934,0.0,0.0,0.0,0.0,0.0,0.0,0.0,0.0,1
107377978,107377552,0.17535545,0.0070921984,0.13084112,0.0,0.0,0.0,0.0,0.0,0.0,0.0,0.0,1
107602833,107602411,0.21563981,0.04255319,0.13200934,0.0,0.0,0.0,0.0,0.0,0.0,0.0,0.0,1
107815090,107814664,0.21090047,0.047281325,0.13200934,0.0,0.0,0.0,0.0,0.0,0.0,0.0,0.0,1
108010861,108010384,0.20616114,0.04255319,0.13785046,0.0,0.0,0.0,0.0,0.0,0.0,0.0,0.0,1
108223809,108223382,0.1872038,0.035460994,0.1542056,0.0,0.0,0.0,0.0,0.0,0.0,0.0,0.0,1
108420608,108420181,0.17535545,0.06619386,0.15654206,0.0,0.0,0.0,0.0,0.0,0.0,0.0,0.0,1
108626380,108625960,0.16824645,0.059101656,0.15771028,0.0,0.0,0.0,0.0,0.0,0.0,0.0,0.0,1
108813838,108813387,0.17061612,0.07328605,0.15771028,0.0,0.0,0.0,0.0,0.0,0.0,0.0,0.0,1
109008986,109008556,0.15876777,0.09692671,0.14836448,0.0,0.0,0.0,0.0,0.0,0.0,0.0,0.0,1
109180246,109179819,0.13744076,0.08510638,0.14018692,0.0,0.0,0.0,0.0,0.0,0.0,0.0,0.0,1
109419858,109419435,0.13507108,0.08037825,0.14602804,0.0,0.0,0.0,0.0,0.0,0.0,0.0,0.0,1
109612623,109612144,0.1421801,0.09456265,0.16004673,0.0,0.0,0.0,0.0,0.0,0.0,0.0,0.0,1
109828070,109827641,0.14454976,0.10165485,0.14602804,0.0,0.0,0.0,0.0,0.0,0.0,0.0,0.0,1
110003987,110003562,0.14454976,0.10874704,0.13317756,0.0,0.0,0.0,0.0,0.0,0.0,0.0,0.0,1
110218629,110218205,0.14454976,0.10874704,0.12616822,0.0,0.0,0.0,0.0,0.0,0.0,0.0,0.0,1
110413522,110413090,0.11848341,0.07801419,0.1203271,0.0,0.0,0.0,0.0,0.0,0.0,0.0,0.0,1
110610978,110610553,0.101895735,0.056737587,0.1203271,0.0,0.0,0.0,0.0,0.0,0.0,0.0,0.0,1
110826018,110825510,0.073459715,0.04964539,0.11682243,0.0,0.0,0.0,0.0,0.0,0.0,0.0,0.0,1
111020743,111020318,0.06872038,0.05437352,0.043224297,0.0,0.0,0.0,0.0,0.0,0.0,0.0,0.0,1
111214879,111214455,0.037914693,0.059101656,0.0,0.0,0.0,0.0,0.0,0.0,0.0,0.0,0.0,1
111390737,111390311,0.023696683,0.04255319,0.0,0.0,0.0,0.0,0.0,0.0,0.0,0.0,0.0,1
111624343,111623880,-0.0,0.021276595,0.0,-0.88598573,0.0,0.0,0.0,0.0,0.0,0.0,0.0,1
111818563,111817731,-0.0,0.0,0.0,-1.0,0.0,0.0,0.0,0.0,0.0,0.0,0.0,1
111884000,111883527,-0.0,0.0,0.0,-1.0,0.0,0.0,0.0,0.0,0.0,0.0,0.0,1
112189700,112189273,-0.0,0.0,0.0,-1.0,0.0,0.0,0.0,0.0,0.0,0.0,0.0,1
112491696,112491263,-0.0,0.0,0.0,-1.0,0.0,0.0,0.0,0.0,0.0,0.0,0.0,1
112798527,112798103,-0.0,0.0,0.0,-1.0,0.0,0.0,0.0,0.0,0.0,0.0,0.0,1
113119255,113118822,-0.0,0.0,0.0,-1.0,0.0,0.0,0.0,0.0,0.0,0.0,0.0,1
113229279,113228846,-0.0,0.0,0.0,-1.0,0.0,0.0,0.0,0.0,0.0,0.0,0.0,1
113252480,113252051,-0.0,0.0,0.0,-1.0,0.0,0.0,0.0,0.0,0.0,0.0,0.0,1
113512589,113511979,-0.0,0.0,0.0,0.0,0.0,0.0,0.0,0.0,0.0,0.0,0.0,1
113664885,113664457,-0.0,0.0,0.0,0.0,0.0,0.0,0.0,0.0,0.0,0.0,0.0,1
