timestamp,timestamp_sample,vibe[0],vibe[1],vibe[2],output_tracking_error[0],output_tracking_error[1],output_tracking_error[2],control_mode_flags,filter_fault_flags,pos_horiz_accuracy,pos_vert_accuracy,mag_test_ratio,vel_test_ratio,pos_test_ratio,hgt_test_ratio,tas_test_ratio,hagl_test_ratio,beta_test_ratio,time_slip,accel_device_id,gyro_device_id,baro_device_id,mag_device_id,gps_check_fail_flags,innovation_check_flags,solution_status_flags,reset_count_vel_ne,reset_count_vel_d,reset_count_pos_ne,reset_count_pod_d,reset_count_quat,pre_flt_fail_innov_heading,pre_flt_fail_innov_vel_horiz,pre_flt_fail_innov_vel_vert,pre_flt_fail_innov_height,pre_flt_fail_mag_field_disturbed,health_flags,timeout_flags
22429655,22428816,2.1058812e-09,6.0953178e-05,0.004795284,0.0014870667,0.0003839271,0.0016219787,531,0,0.3607014,0.5488626,0.030715361,0.0,0.015558533,0.00031625183,0.0,0.0,0.0,0.0,3932170,3932170,3997730,396825,0,0,229,1,0,1,0,2,0,0,0,0,0,0,0
22619435,22618501,2.1036828e-09,6.300427e-05,0.005792297,0.0015182041,0.00066538213,0.0023924636,531,0,0.35525414,0.544333,0.036691856,0.0,0.015919024,0.007414807,0.0,0.0,0.0,0.0,3932170,3932170,3997730,396825,0,0,229,1,0,1,0,2,0,0,0,0,0,0,0
22819032,22818172,2.3672795e-09,6.696373e-05,0.0067102164,0.001467768,0.00061658333,0.0018564315,531,0,0.35185212,0.5476916,0.029048374,0.0,0.016298655,0.004874974,0.0,0.0,0.0,0.0,3932170,3932170,3997730,396825,0,0,229,1,0,1,0,2,0,0,0,0,0,0,0
23028596,23027824,2.5728557e-09,7.169458e-05,0.00607617,0.0012806834,0.001913267,0.0087899985,659,0,0.35040173,0.5456336,0.03297087,0.0,0.016536871,0.016269201,0.0,0.0,0.0,0.0,3932170,3932170,3997730,396825,0,0,229,1,0,1,0,2,0,0,0,0,0,0,0
23228327,23227494,1.2344673e-08,8.8450375e-05,0.0062436373,0.0024550802,0.0020888387,0.0066284416,659,0,0.3889746,0.54250884,0.0778278,0.0,0.0009352536,0.001946458,0.0,0.0,0.0,0.0,3932170,3932170,3997730,396825,0,0,229,1,0,1,0,2,0,0,0,0,0,0,0
23428077,23427164,2.4634149e-08,0.000114479495,0.0058650617,0.0037662336,0.0026484213,0.005236183,659,0,0.4317821,0.5394828,0.09226529,0.0,0.0011335509,0.0018506199,0.0,0.0,0.0,0.0,3932170,3932170,3997730,396825,0,0,229,1,0,1,0,2,0,0,0,0,0,0,0
23627690,23626834,4.3146347e-08,0.00013442464,0.0053697606,0.0038947281,0.002779694,0.0057343207,659,0,0.48004252,0.53657955,0.10304189,0.0,0.0013540451,0.00032914005,0.0,0.0,0.0,0.0,3932170,3932170,3997730,396825,0,0,229,1,0,1,0,2,0,0,0,0,0,0,0
23827281,23826505,6.8697545e-08,0.00014749923,0.0050759926,0.0045896443,0.0023869954,0.008513407,659,0,0.5351747,0.5401145,0.14953326,0.0,0.0016823843,0.003220892,0.0,0.0,0.0,0.0,3932170,3932170,3997730,396825,0,0,229,1,0,1,0,2,0,0,0,0,0,0,0
24027067,24026175,7.4499205e-08,0.00013781716,0.0045250496,0.0055055427,0.003492845,0.01072333,659,0,0.5984403,0.5373237,0.121380605,0.0,0.0017511913,0.0041347793,0.0,0.0,0.0,0.0,3932170,3932170,3997730,396825,0,0,229,1,0,1,0,2,0,0,0,0,0,0,0
24226662,24225845,5.706217e-08,0.00012691917,0.0038146211,0.004473896,0.003116882,0.008812565,659,0,0.6709088,0.5346485,0.10194477,0.0,0.0015897289,0.0052042687,0.0,0.0,0.0,0.0,3932170,3932170,3997730,396825,0,0,229,1,0,1,0,2,0,0,0,0,0,0,0
24426549,24425516,4.785765e-08,0.000114860064,0.0033636952,0.0046661654,0.0023698106,0.007619825,659,0,0.75329876,0.53831434,0.12970631,0.0,0.0012961751,0.0044649546,0.0,0.0,0.0,0.0,3932170,3932170,3997730,396825,0,0,229,1,0,1,0,2,0,0,0,0,0,0,0
24626098,24625186,4.9315517e-08,0.00011065338,0.003019242,0.0047454336,0.0021610183,0.0043848963,659,0,0.8462475,0.5357436,0.11769901,0.0,0.0009494346,0.011933245,0.0,0.0,0.0,0.0,3932170,3932170,3997730,396825,0,0,229,1,0,1,0,2,0,0,0,0,0,0,0
24825663,24824857,4.184341e-08,9.718096e-05,0.0028679622,0.005087597,0.0027288857,0.0066415234,659,0,0.95032716,0.533257,0.14615376,0.0,0.0010000209,0.00328306,0.0,0.0,0.0,0.0,3932170,3932170,3997730,396825,0,0,229,1,0,1,0,2,0,0,0,0,0,0,0
25030578,25029525,3.488169e-08,8.643091e-05,0.0027095329,0.005700841,0.0021568155,0.008762235,659,0,1.0657691,0.5308523,0.13136815,0.0,0.0018034455,0.015078864,0.0,0.0,0.0,0.0,3932170,3932170,3997730,396825,0,0,229,1,0,1,0,2,0,0,0,0,0,0,0
25419710,25418930,3.1659468e-08,6.996529e-05,0.0029286116,0.003900345,0.0020336665,0.004288031,659,0,1.3221458,0.53138345,0.10423246,0.0,0.0038557507,0.0065773292,0.0,0.0,0.0,0.0,3932170,3932170,3997730,396825,0,0,229,1,0,1,0,2,0,0,0,0,0,0,0
25619495,25618548,4.3276522e-08,6.516399e-05,0.003421723,0.0041075987,0.002975449,0.0065470864,659,0,1.468391,0.5292207,0.11367663,0.0,0.004928515,0.0059747538,0.0,0.0,0.0,0.0,3932170,3932170,3997730,396825,0,0,229,1,0,1,0,2,0,0,0,0,0,0,0
25819262,25818219,6.392668e-08,6.574789e-05,0.0030362685,0.0041504963,0.0036812532,0.009177943,659,0,1.6233094,0.53322804,0.12525193,0.0,0.006011323,0.0026128332,0.0,0.0,0.0,0.0,3932170,3932170,3997730,396825,0,0,229,1,0,1,0,2,0,0,0,0,0,0,0
26028746,26027874,7.257526e-08,5.9380865e-05,0.0023059412,0.0046895808,0.0041514235,0.010003837,659,0,1.7948219,0.53228635,0.1347514,0.0,0.0071326853,0.0021136848,0.0,0.0,0.0,0.0,3932170,3932170,3997730,396825,0,0,229,1,0,1,0,2,0,0,0,0,0,0,0
26427983,26427216,6.5662874e-08,4.3044452e-05,0.0014860543,0.0048897914,0.005235412,0.011901013,659,0,2.137325,0.5283732,0.15399057,0.0,0.009443286,0.00013840171,0.0,0.0,0.0,0.0,3932170,3932170,3997730,396825,0,0,229,1,0,1,0,2,0,0,0,0,0,0,0
26628008,26626887,7.4503276e-08,4.4508695e-05,0.0015013868,0.0058315094,0.00642669,0.01485095,659,0,2.3131213,0.52649283,0.15050967,0.0,0.010312105,0.0015414881,0.0,0.0,0.0,0.0,3932170,3932170,3997730,396825,0,0,229,1,0,1,0,2,0,0,0,0,0,0,0
26827284,26826558,7.777611e-08,4.520551e-05,0.0016704479,0.005667856,0.003024483,0.0068325936,659,0,2.5288773,0.53070754,0.17000484,0.0,0.010312105,0.011106253,0.0,0.0,0.0,0.0,3932170,3932170,3997730,396825,0,0,229,1,0,1,0,2,0,0,0,0,0,0,0
27027193,27026233,7.6796965e-08,4.769221e-05,0.0015880439,0.005307794,0.004531165,0.008727965,659,0,2.7121296,0.5288829,0.10286902,0.0,0.010688741,0.0006285082,0.0,0.0,0.0,0.0,3932170,3932170,3997730,396825,0,0,229,1,0,1,0,2,0,0,0,0,0,0,0
27426395,27425572,5.273993e-08,3.9546496e-05,0.001230145,0.004260497,0.0039393264,0.009935743,659,0,3.0660787,0.53145915,0.12799814,0.0,0.010400969,0.0012131508,0.0,0.0,0.0,0.0,3932170,3932170,3997730,396825,0,0,229,1,0,1,0,2,0,0,0,0,0,0,0
27626258,27625244,4.3096964e-08,3.6381283e-05,0.0011249057,0.004127015,0.004423324,0.011495502,659,0,3.2323515,0.5297449,0.14971045,0.0,0.010097405,0.01359848,0.0,0.0,0.0,0.0,3932170,3932170,3997730,396825,0,0,229,1,0,1,0,2,0,0,0,0,0,0,0
27820877,27819927,3.6623803e-08,3.3945224e-05,0.0009816478,0.004551569,0.004538213,0.011850563,659,0,3.3766675,0.5269684,0.13917083,0.0,0.009546069,0.008071167,0.0,0.0,0.0,0.0,3932170,3932170,3997730,396825,0,0,229,1,0,1,0,2,0,0,0,0,0,0,0
28020385,28019595,3.131984e-08,2.984553e-05,0.0008536765,0.0042480687,0.0046267114,0.012083328,659,0,3.5226486,0.525399,0.11209236,0.0,0.00867963,0.0015308943,0.0,0.0,0.0,0.0,3932170,3932170,3997730,396825,0,0,165,1,0,1,0,2,0,0,0,0,0,0,0
28419885,28418939,2.9015618e-08,2.8804388e-05,0.0008609661,0.0035735432,0.003617026,0.011264231,659,0,3.7764795,0.52830166,0.12650535,0.0,0.006283547,0.00026313346,0.0,0.0,0.0,0.0,3932170,3932170,3997730,396825,0,0,165,1,0,1,0,2,0,0,0,0,0,0,0
28619435,28618667,2.8396263e-08,2.863128e-05,0.00082076126,0.0032916013,0.0019166532,0.007204672,659,0,3.88288,0.52680236,0.117920525,0.0,0.0048643183,0.00217913,0.0,0.0,0.0,0.0,3932170,3932170,3997730,396825,0,0,165,1,0,1,0,2,0,0,0,0,0,0,0
28829065,28828265,2.7924486e-08,2.8364995e-05,0.00081284833,0.00393289,0.0032838273,0.00788613,659,0,3.9875433,0.5264742,0.16613029,0.0,0.0032777803,0.010452497,0.0,0.0,0.0,0.0,3932170,3932170,3997730,396825,0,0,165,1,0,1,0,2,0,0,0,0,0,0,0
29028670,29027937,3.179122e-08,3.0203439e-05,0.00082943507,0.004127787,0.0034693924,0.0081290575,659,0,4.0662794,0.5310444,0.15915371,0.0,0.0015423477,0.007370986,0.0,0.0,0.0,0.0,3932170,3932170,3997730,396825,0,0,165,1,0,1,0,2,0,0,0,0,0,0,0
29228525,29227656,3.171422e-08,3.0329706e-05,0.0008038245,0.0038305311,0.0034364196,0.0131281465,659,0,4.131869,0.529594,0.09359368,0.0,0.0032951757,0.008705441,0.0,0.0,0.0,0.0,3932170,3932170,3997730,396825,0,0,165,1,0,1,0,2,0,0,0,0,0,0,0
29428045,29427281,3.1128046e-08,2.9818e-05,0.00076097326,0.0031395752,0.0060423627,0.020698782,659,0,4.1850066,0.528158,0.095585495,0.0,0.0054392777,0.006377428,0.0,0.0,0.0,0.0,3932170,3932170,3997730,396825,0,0,165,1,0,1,0,2,0,0,0,0,0,0,0
29627810,29626954,3.1280845e-08,2.9048317e-05,0.00072647823,0.0026922452,0.008699675,0.030741923,659,0,4.2265444,0.52673024,0.095394924,0.0,0.0077208695,0.005903301,0.0,0.0,0.0,0.0,3932170,3932170,3997730,396825,0,0,165,1,0,1,0,2,0,0,0,0,0,0,0
29827553,29826625,3.2045865e-08,2.7984179e-05,0.0007281084,0.0018573533,0.0110803675,0.041531634,659,0,4.25742,0.5313717,0.077397324,0.0,0.010029207,0.002058558,0.0,0.0,0.0,0.0,3932170,3932170,3997730,396825,0,0,165,1,0,1,0,2,0,0,0,0,0,0,0
30027062,30026297,3.4663206e-08,2.8608812e-05,0.0007266274,0.0008054283,0.013533279,0.05255123,8389347,0,4.278415,0.5299478,0.09486955,0.0,0.01216684,0.008665065,0.0,0.0,0.0,0.0,3932170,3932170,3997730,396825,0,0,165,1,0,1,0,3,0,0,0,0,0,0,0
30228498,30225970,3.3615397e-08,2.7768661e-05,0.00076457986,6.379893e-05,0.016089357,0.06273197,8389347,0,4.2898664,0.52853405,0.08899477,0.0,0.013988491,0.0038098763,0.0,0.0,0.0,0.0,3932170,3932170,3997730,396825,0,0,165,1,0,1,0,3,0,0,0,0,0,0,0
30428131,30425645,3.1710808e-08,2.6053547e-05,0.00076590036,5.9847254e-05,0.017995423,0.07199882,8389347,0,4.29297,0.5271137,0.23101743,0.0,0.015559513,0.005172561,0.0,0.0,0.0,0.0,3932170,3932170,3997730,396825,0,0,165,1,0,1,0,3,0,0,0,0,0,0,0
30626168,30625315,3.344369e-08,2.8050856e-05,0.0008214763,2.8481184e-06,0.019238219,0.08078386,8389347,0,4.2889895,0.5317232,0.08414887,0.0,0.01707059,0.0033187936,0.0,0.0,0.0,0.0,3932170,3932170,3997730,396825,0,0,165,1,0,1,0,3,0,0,0,0,0,0,0
30827577,30824988,3.1177038e-08,2.809997e-05,0.0008557547,9.223527e-06,0.020454971,0.08962972,8389347,0,4.2790375,0.5302276,0.10518715,0.0,0.018545795,0.0058187246,0.0,0.0,0.0,0.0,3932170,3932170,3997730,396825,0,0,165,1,0,1,0,3,0,0,0,0,0,0,0
31015514,31014724,3.2015986e-08,3.203885e-05,0.0008962396,1.3921131e-06,0.0074855154,0.03312789,8389347,0,4.4626245,0.533719,0.033552848,0.0,0.018545795,0.004091906,0.0,0.0,0.0,0.0,3932170,3932170,3997730,396825,0,0,165,1,0,1,0,3,0,0,0,0,0,0,0
31431434,31428997,2.6663812e-08,3.248778e-05,0.00080075493,1.1089643e-05,0.007137337,0.03285566,8389347,0,4.4273896,0.5318793,0.0774132,0.0,0.021288117,3.9974268e-05,0.0,0.0,0.0,0.0,3932170,3932170,3997730,396825,0,0,165,1,0,1,0,3,0,0,0,0,0,0,0
31629506,31628672,2.3119927e-08,3.101789e-05,0.0008320756,2.1433676e-05,0.006590465,0.033297364,8389347,0,4.400424,0.5303808,0.12202023,0.0,0.022476561,0.006574136,0.0,0.0,0.0,0.0,3932170,3932170,3997730,396825,0,0,165,1,0,1,0,3,0,0,0,0,0,0,0
31819277,31818410,2.2223146e-08,3.1805954e-05,0.0008181219,2.2827693e-05,0.006949097,0.037330545,8389347,0,4.362848,0.5277623,0.13463919,0.0,0.023610579,0.005087887,0.0,0.0,0.0,0.0,3932170,3932170,3997730,396825,0,0,165,1,0,1,0,3,0,0,0,0,0,0,0
32028874,32028017,2.051028e-08,2.9777888e-05,0.00079813955,1.9031691e-05,0.0063848873,0.03497395,8389347,0,4.341429,0.5335274,0.061113376,0.0,0.024690693,0.0022828951,0.0,0.0,0.0,0.0,3932170,3932170,3997730,396825,0,0,165,1,0,1,0,3,0,0,0,0,0,0,0
32228436,32227689,2.0389349e-08,3.0494148e-05,0.00087522774,2.2789423e-05,0.006510097,0.036243927,8389347,0,4.3105955,0.5320393,0.05492753,0.0,0.025675736,0.012287671,0.0,0.0,0.0,0.0,3932170,3932170,3997730,396825,0,0,165,1,0,1,0,3,0,0,0,0,0,0,0
32429705,32427361,2.1308765e-08,3.122786e-05,0.0010040363,1.5068205e-05,0.006447536,0.036457423,8389347,0,4.279536,0.5305405,0.0702217,0.0,0.026652554,0.0035986444,0.0,0.0,0.0,0.0,3932170,3932170,3997730,396825,0,0,165,1,0,1,0,3,0,0,0,0,0,0,0
32627967,32627089,1.9883801e-08,2.9430119e-05,0.0010419929,3.9362385e-05,0.006672915,0.03921297,8389347,0,4.2486405,0.5290882,0.056012534,0.0,0.027713161,0.0052961716,0.0,0.0,0.0,0.0,3932170,3932170,3997730,396825,0,0,165,1,0,1,0,3,0,0,0,0,0,0,0
32827500,32826707,1.891044e-08,2.9154675e-05,0.0009397006,3.4231267e-05,0.006722906,0.0405159,8389347,0,4.2182493,0.5338113,0.15754522,0.0,0.028827492,0.013322611,0.0,0.0,0.0,0.0,3932170,3932170,3997730,396825,0,0,165,1,0,1,0,3,0,0,0,0,0,0,0
33028779,33026380,1.8538323e-08,2.9963732e-05,0.0008631782,2.4317287e-05,0.0068142926,0.04179144,8389347,0,4.1885567,0.5324294,0.12640086,0.0,0.029943062,0.0023638045,0.0,0.0,0.0,0.0,3932170,3932170,3997730,396825,0,0,165,1,0,1,0,3,0,0,0,0,0,0,0
33226864,33226053,1.8509686e-08,3.1455045e-05,0.00080618495,2.9931673e-05,0.007345797,0.044288002,8389347,0,4.1597915,0.5310639,0.19126144,0.0,0.03094871,0.008116428,0.0,0.0,0.0,0.0,3932170,3932170,3997730,396825,0,0,165,1,0,1,0,3,0,0,0,0,0,0,0
33428585,33425727,1.8421865e-08,3.1953918e-05,0.0008611849,6.891538e-05,0.008126855,0.048106696,8389347,0,4.1321287,0.529715,0.11565148,0.0,0.03170487,0.0004883665,0.0,0.0,0.0,0.0,3932170,3932170,3997730,396825,0,0,165,1,0,1,0,3,0,0,0,0,0,0,0
33621286,33620415,1.7222852e-08,3.1095376e-05,0.00092049985,5.7624497e-05,0.009550749,0.05524791,8389347,0,4.0983,0.5333615,0.016105011,0.0,0.03229314,0.007909886,0.0,0.0,0.0,0.0,3932170,3932170,3997730,396825,0,0,165,1,0,1,0,3,0,0,0,0,0,0,0
33820898,33820081,1.6382986e-08,3.076089e-05,0.00096118805,5.4102034e-05,0.009318767,0.053821474,8389347,0,4.0739174,0.53208345,0.08572783,0.0,0.032635067,0.0075931596,0.0,0.0,0.0,0.0,3932170,3932170,3997730,396825,0,0,165,1,0,1,0,3,0,0,0,0,0,0,0
34020573,34019755,1.5295846e-08,3.0632036e-05,0.0009765661,7.292706e-05,0.009443361,0.054237127,8389347,0,4.0509243,0.5308451,0.09740965,0.0,0.03287904,0.0023784728,0.0,0.0,0.0,0.0,3932170,3932170,3997730,396825,0,0,165,1,0,1,0,3,0,0,0,0,0,0,0
34230298,34229434,1.4225257e-08,3.155951e-05,0.0009980825,8.533091e-05,0.008647542,0.049765073,8389347,0,4.036687,0.5307916,0.08295847,0.0,0.03299676,0.0037017348,0.0,0.0,0.0,0.0,3932170,3932170,3997730,396825,0,0,165,1,0,1,0,3,0,0,0,0,0,0,0
34431922,34429086,1.3582226e-08,3.256432e-05,0.0010006942,0.000106189706,0.009285605,0.052021697,8389347,0,4.016623,0.5357933,0.083650395,0.0,0.032911208,0.00732598,0.0,0.0,0.0,0.0,3932170,3932170,3997730,396825,0,0,165,1,0,1,0,3,0,0,0,0,0,0,0
34631222,34628759,1.26155815e-08,3.180851e-05,0.001003293,0.000105080755,0.009828302,0.05373956,8389347,0,3.998053,0.53456056,0.14874287,0.0,0.03267881,0.0059543387,0.0,0.0,0.0,0.0,3932170,3932170,3997730,396825,0,0,165,1,0,1,0,3,0,0,0,0,0,0,0
34829233,34828433,1.1594118e-08,3.364971e-05,0.000967203,0.000111072375,0.010427256,0.05579012,8389347,0,3.9810004,0.53335917,0.12992851,0.0,0.032384563,0.010666788,0.0,0.0,0.0,0.0,3932170,3932170,3997730,396825,0,0,165,1,0,1,0,3,0,0,0,0,0,0,0
35030524,35028107,1.2152487e-08,3.843991e-05,0.00092229055,0.04170129,0.008599748,0.051173992,8389347,0,3.9654095,0.53832835,0.09736456,0.0,0.03208765,0.013016623,0.0,0.0,0.0,0.0,3932170,3932170,3997730,396825,0,0,165,1,0,1,0,3,0,0,0,0,0,0,0
35228725,35227836,1.5204774e-08,4.08497e-05,0.0009815602,0.015463791,0.010110596,0.05815279,8389347,0,3.9513457,0.5370656,0.06548442,0.0,0.031778865,0.010325233,0.0,0.0,0.0,0.0,3932170,3932170,3997730,396825,0,0,165,1,0,1,0,3,0,0,0,0,0,0,0
35428442,35427455,2.0028025e-08,4.3793327e-05,0.0009827105,0.00034718038,0.012221906,0.06327776,8389267,0,3.9387515,0.5358277,0.00794728,0.0,0.031512313,0.014322235,0.0,0.0,0.0,0.0,3932170,3932170,3997730,396825,0,0,165,1,0,1,0,3,0,0,0,0,0,0,0
35628192,35627129,2.2462764e-08,4.061541e-05,0.0008964285,0.0016188488,0.0056259334,0.028993657,8389267,0,4.08905,0.5345976,0.018295718,0.0,0.031512313,0.018807294,0.0,0.0,0.0,0.0,3932170,3932170,3997730,396825,0,0,165,1,0,1,0,3,0,0,0,0,0,0,0
35827541,35826803,2.5446944e-08,3.9850845e-05,0.0008977353,0.0011773527,0.0042031724,0.024535567,8389267,0,4.078683,0.53971255,0.021460215,0.0,0.031279378,0.0049483553,0.0,0.0,0.0,0.0,3932170,3932170,3997730,396825,0,0,165,1,0,1,0,3,0,0,0,0,0,0,0
36027208,36026477,2.5620615e-08,4.1776548e-05,0.0010735869,0.0018941436,0.0044024186,0.026142526,8389267,0,4.069737,0.5384723,0.005016718,0.0,0.030972395,0.019009959,0.0,0.0,0.0,0.0,3932170,3932170,3997730,396825,0,0,165,1,0,1,0,3,0,0,0,0,0,0,0
36227055,36226151,2.0746047e-08,4.1449075e-05,0.0012144857,0.0015646205,0.003431701,0.022071164,8389267,0,4.062081,0.53722054,0.018338816,0.0,0.0306222,0.012538876,0.0,0.0,0.0,0.0,3932170,3932170,3997730,396825,0,0,165,1,0,1,0,3,0,0,0,0,0,0,0
36426695,36425825,1.8664917e-08,4.000336e-05,0.0012480366,0.0008512764,0.0035179167,0.019925606,8389267,0,4.0556083,0.53595537,0.00077191694,0.0,0.030536495,0.013882484,0.0,0.0,0.0,0.0,3932170,3932170,3997730,396825,0,0,165,1,0,1,0,3,0,0,0,0,0,0,0
36626489,36625559,2.018592e-08,4.5083212e-05,0.0014471178,0.00074761966,0.0026638082,0.014841674,8389267,0,4.050233,0.5410538,0.027641958,0.0,0.030782735,0.0054817693,0.0,0.0,0.0,0.0,3932170,3932170,3997730,396825,0,0,165,1,0,1,0,3,0,0,0,0,0,0,0
36821169,36820182,2.1683393e-08,4.5963017e-05,0.0014870724,0.0018504296,0.0032546509,0.01310513,8389267,0,4.03851,0.5385744,0.019954754,0.0,0.03096595,0.012195923,0.0,0.0,0.0,0.0,3932170,3932170,3997730,396825,0,0,165,1,0,1,0,3,0,0,0,0,0,0,0
37020774,37019856,2.42258e-08,4.5168457e-05,0.0014901139,0.0012452992,0.0046309694,0.017221661,8389267,0,4.0355864,0.5373196,0.00130853,0.0,0.031148173,0.008966291,0.0,0.0,0.0,0.0,3932170,3932170,3997730,396825,0,0,165,1,0,1,0,3,0,0,0,0,0,0,0
37429982,37429193,2.1186224e-08,4.0598614e-05,0.0011631235,0.0006337635,0.0063940375,0.025797952,8389267,0,4.0402174,0.5423942,0.02344327,0.0,0.0326927,0.017735517,0.0,0.0,0.0,0.0,3932170,3932170,3997730,396825,0,0,165,1,0,1,0,3,0,0,0,0,0,0,0
37629944,37628922,1.7335902e-08,3.722152e-05,0.0011176914,0.00062956044,0.007927812,0.032893673,8389267,0,4.0394344,0.5410276,0.041970026,0.0,0.03470727,0.0081128,0.0,0.0,0.0,0.0,3932170,3932170,3997730,396825,0,0,165,1,0,1,0,3,0,0,0,0,0,0,0
37829448,37828538,1.639257e-08,3.827057e-05,0.0010599857,0.0016845737,0.009408827,0.038292725,8389267,0,4.0390873,0.5396566,0.06482608,0.0,0.036493488,0.012330525,0.0,0.0,0.0,0.0,3932170,3932170,3997730,396825,0,0,165,1,0,1,0,3,0,0,0,0,0,0,0
38029015,38028213,1.923772e-08,3.8697668e-05,0.0011602168,0.0015619576,0.011336884,0.045232087,8389267,0,4.0390625,0.5447585,0.03680123,0.0,0.037877165,0.01759188,0.0,0.0,0.0,0.0,3932170,3932170,3997730,396825,0,0,165,1,0,1,0,3,0,0,0,0,0,0,0
38228812,38227888,2.3803443e-08,4.0588686e-05,0.0012449176,0.0027360648,0.013472172,0.05088519,8389267,0,4.0392227,0.54331684,0.08952367,0.0,0.03896391,0.012573288,0.0,0.0,0.0,0.0,3932170,3932170,3997730,396825,0,0,165,1,0,1,0,3,0,0,0,0,0,0,0
38428363,38427563,3.035661e-08,4.304473e-05,0.0014368108,0.002714618,0.015196139,0.05761267,8389267,0,4.0394607,0.54183626,0.029784676,0.0,0.040110704,0.017365064,0.0,0.0,0.0,0.0,3932170,3932170,3997730,396825,0,0,165,1,0,1,0,3,0,0,0,0,0,0,0
38628164,38627281,4.1200153e-08,4.5446675e-05,0.001469337,0.002745763,0.012547089,0.05842732,8389347,0,4.039317,0.5403081,0.05316728,0.0,0.04148837,0.012112065,0.0,0.0,0.0,0.0,3932170,3932170,3997730,396825,0,0,165,1,0,1,0,3,0,0,0,0,0,0,0
38829365,38826913,5.989851e-08,5.1503557e-05,0.001605848,0.001965335,0.012836806,0.06511219,8389347,0,4.039082,0.5452927,0.15538292,0.0,0.043945353,0.013601093,0.0,0.0,0.0,0.0,3932170,3932170,3997730,396825,0,0,165,1,0,1,0,3,0,0,0,0,0,0,0
39027334,39026589,6.430724e-08,4.95106e-05,0.0016332552,0.00031458095,0.0176453,0.08020502,8389347,0,4.038941,0.5437075,0.030889058,0.0,0.04574889,0.009379362,0.0,0.0,0.0,0.0,3932170,3932170,3997730,396825,0,0,165,1,0,1,0,3,0,0,0,0,0,0,0
39228677,39226267,6.5756545e-08,4.669555e-05,0.0015040248,0.0007175478,0.021347513,0.09456296,8389347,0,4.038653,0.54209846,0.076751515,0.0,0.04780387,0.0051193135,0.0,0.0,0.0,0.0,3932170,3932170,3997730,396825,0,0,165,1,0,1,0,3,0,0,0,0,0,0,0
39428326,39425943,6.334644e-08,4.343394e-05,0.0015393848,0.00048328703,0.025097076,0.10936065,8389347,0,4.0380955,0.5404671,0.1389919,0.0,0.049886595,0.015437476,0.0,0.0,0.0,0.0,3932170,3932170,3997730,396825,0,0,165,1,0,1,0,3,0,0,0,0,0,0,0
39626341,39625613,5.894491e-08,3.9873765e-05,0.0013608114,0.0003602041,0.029210709,0.124752335,8389347,0,4.037207,0.54537636,0.06953819,0.0,0.05184004,0.013759115,0.0,0.0,0.0,0.0,3932170,3932170,3997730,396825,0,0,165,1,0,1,0,3,0,0,0,0,0,0,0
39828258,39825388,5.4359205e-08,3.7729205e-05,0.0011755287,0.0016402267,0.032301698,0.1393138,8389347,0,4.035844,0.5436987,0.07505876,0.0,0.05390966,0.004165233,0.0,0.0,0.0,0.0,3932170,3932170,3997730,396825,0,0,165,1,0,1,0,3,0,0,0,0,0,0,0
40030852,40029956,5.3665442e-08,3.7222115e-05,0.0011584993,0.0018740401,0.03400096,0.1488127,8389347,0,4.034587,0.54202527,0.05689694,0.0,0.055771783,0.0058002044,0.0,0.0,0.0,0.0,3932170,3932170,3997730,396825,0,0,165,1,0,1,0,3,0,0,0,0,0,0,0
40431754,40429307,6.755317e-08,4.276849e-05,0.0012143954,0.002233864,0.019126471,0.07033115,8389347,0,4.2057076,0.54520905,0.17553604,0.0,0.0575298,0.0061992,0.0,0.0,0.0,0.0,3932170,3932170,3997730,396825,0,0,165,1,0,1,0,3,0,0,0,0,0,0,0
40621539,40618999,7.626627e-08,4.6265824e-05,0.0012084187,0.0023466216,0.018877674,0.06981351,8389347,0,4.1935077,0.5422428,0.09470058,0.0,0.05912841,0.016010277,0.0,0.0,0.0,0.0,3932170,3932170,3997730,396825,0,0,165,1,0,1,0,3,0,0,0,0,0,0,0
40819548,40818674,7.588635e-08,4.4801855e-05,0.0011446701,0.0021165598,0.017960394,0.06941702,8389347,0,4.189027,0.54050165,0.10235553,0.0,0.06028525,0.013676068,0.0,0.0,0.0,0.0,3932170,3932170,3997730,396825,0,0,165,1,0,1,0,3,0,0,0,0,0,0,0
41020919,41018349,7.155477e-08,4.17257e-05,0.0010493883,0.0018294222,0.017702237,0.07083582,8389347,0,4.1834097,0.5452509,0.119060285,0.0,0.061201353,0.0018702111,0.0,0.0,0.0,0.0,3932170,3932170,3997730,396825,0,0,165,1,0,1,0,3,0,0,0,0,0,0,0
41228813,41228008,6.939915e-08,4.079809e-05,0.00098744,0.00055934495,0.016371159,0.06930491,8389347,0,4.185298,0.5446317,0.02381922,0.0,0.0614902,0.0109115895,0.0,0.0,0.0,0.0,3932170,3932170,3997730,396825,0,0,165,1,0,1,0,3,0,0,0,0,0,0,0
41430112,41427685,6.6220515e-08,3.8621416e-05,0.0010653512,0.00020587484,0.016064739,0.0713643,8389347,0,4.1774416,0.54277927,0.014224437,0.0,0.061249763,0.0008433859,0.0,0.0,0.0,0.0,3932170,3932170,3997730,396825,0,0,165,1,0,1,0,3,0,0,0,0,0,0,0
41628275,41627360,6.4182146e-08,3.6807895e-05,0.0010692148,0.00049794745,0.015762405,0.073017396,8389347,0,4.1686234,0.5408781,0.10726492,0.0,0.060631912,0.002316456,0.0,0.0,0.0,0.0,3932170,3932170,3997730,396825,0,0,165,1,0,1,0,3,0,0,0,0,0,0,0
41829590,41827037,6.515272e-08,3.6603287e-05,0.0012017699,0.0007959535,0.014647784,0.07302832,8389347,0,4.1588926,0.54551446,0.11656364,0.0,0.059451625,0.013388887,0.0,0.0,0.0,0.0,3932170,3932170,3997730,396825,0,0,165,1,0,1,0,3,0,0,0,0,0,0,0
42029163,42026712,6.74102e-08,3.7302674e-05,0.0012317457,0.00059917767,0.014992742,0.07597844,8389347,0,4.1482964,0.5435577,0.070552744,0.0,0.05791457,0.0017114637,0.0,0.0,0.0,0.0,3932170,3932170,3997730,396825,0,0,165,1,0,1,0,3,0,0,0,0,0,0,0
42227176,42226388,6.553926e-08,3.539865e-05,0.0012489955,0.00061827904,0.016046254,0.08003775,8389347,0,4.136853,0.5415778,0.073675215,0.0,0.05618256,0.0034703491,0.0,0.0,0.0,0.0,3932170,3932170,3997730,396825,0,0,165,1,0,1,0,3,0,0,0,0,0,0,0
42421870,42421072,6.753305e-08,3.5784105e-05,0.0013404774,0.0007595084,0.015311366,0.08271184,8389347,0,4.117164,0.5449492,0.05314555,0.0,0.05417099,0.010210721,0.0,0.0,0.0,0.0,3932170,3932170,3997730,396825,0,0,165,1,0,1,0,3,0,0,0,0,0,0,0
42631543,42630733,8.3174186e-08,4.099871e-05,0.0013220657,0.0009402326,0.015322304,0.07893402,8389347,0,4.1131935,0.5441794,0.067530215,0.0,0.05218188,0.014806965,0.0,0.0,0.0,0.0,3932170,3932170,3997730,396825,0,0,165,1,0,1,0,3,0,0,0,0,0,0,0
42833033,42830419,8.4234365e-08,4.1791605e-05,0.0012695781,0.0002559799,0.018913336,0.08607361,8389347,0,4.1004205,0.54217046,0.091532156,0.0,0.049979202,0.0072481823,0.0,0.0,0.0,0.0,3932170,3932170,3997730,396825,0,0,165,1,0,1,0,3,0,0,0,0,0,0,0
43032490,43030084,8.7865864e-08,4.272378e-05,0.0012367106,0.00024856505,0.01796997,0.08610473,8389347,0,4.0871525,0.5401516,0.057249554,0.0,0.047525786,0.0013653109,0.0,0.0,0.0,0.0,3932170,3932170,3997730,396825,0,0,165,1,0,1,0,3,0,0,0,0,0,0,0
43222228,43219777,8.8296474e-08,4.275773e-05,0.0011964273,0.00036490872,0.02203973,0.09602508,8389347,0,4.0656085,0.5434175,0.086179964,0.0,0.04479552,0.00315831,0.0,0.0,0.0,0.0,3932170,3932170,3997730,396825,0,0,165,1,0,1,0,3,0,0,0,0,0,0,0
43420327,43419454,1.0134602e-07,4.609462e-05,0.001262525,0.00095738977,0.026212154,0.101581,8389347,0,4.0518293,0.54138976,0.16393806,0.0,0.04168675,0.0037571676,0.0,0.0,0.0,0.0,3932170,3932170,3997730,396825,0,0,165,1,0,1,0,3,0,0,0,0,0,0,0
43621944,43619129,9.113791e-08,4.2302392e-05,0.0013589151,0.0020761443,0.03170535,0.108299725,8389347,0,4.0380983,0.5393482,0.1707541,0.0,0.03845686,0.012354473,0.0,0.0,0.0,0.0,3932170,3932170,3997730,396825,0,0,165,1,0,1,0,3,0,0,0,0,0,0,0
43821360,43818807,8.209368e-08,3.9267456e-05,0.0013601828,0.003110254,0.034607567,0.110862955,8389347,0,4.0246663,0.53731936,0.17143998,0.0,0.035026774,0.007961457,0.0,0.0,0.0,0.0,3932170,3932170,3997730,396825,0,0,165,1,0,1,0,3,0,0,0,0,0,0,0
44019281,44018483,7.302122e-08,3.5587233e-05,0.0012805711,0.0031443625,0.03170501,0.10413377,8389347,0,4.011689,0.5417007,0.14407893,0.0,0.03156886,0.009653889,0.0,0.0,0.0,0.0,3932170,3932170,3997730,396825,0,0,165,1,0,1,0,3,0,0,0,0,0,0,0
44428827,44427819,6.768901e-08,3.622221e-05,0.0011272824,0.0028482843,0.027814012,0.0884395,8389347,0,3.995151,0.53879195,0.11363885,0.0,0.024816029,0.0040282765,0.0,0.0,0.0,0.0,3932170,3932170,3997730,396825,0,0,165,1,0,1,0,3,0,0,0,0,0,0,0
44630049,44627498,7.105381e-08,3.713477e-05,0.0010178629,0.0031689468,0.021777235,0.08357534,8389347,0,4.1528616,0.53672785,0.1535546,0.0,0.024816029,0.0029805503,0.0,0.0,0.0,0.0,3932170,3932170,3997730,396825,0,0,165,1,0,1,0,3,0,0,0,0,0,0,0
44827976,44827177,7.2270865e-08,3.842407e-05,0.0009942496,0.0038001828,0.020259876,0.08509911,8389347,0,4.1417956,0.5410779,0.13732526,0.0,0.02165437,0.0032073138,0.0,0.0,0.0,0.0,3932170,3932170,3997730,396825,0,0,165,1,0,1,0,3,0,0,0,0,0,0,0
45029506,45026854,7.3573474e-08,4.0316998e-05,0.0011046146,0.0040277564,0.021079117,0.08053442,8389347,0,4.1316643,0.53902704,0.13304555,0.0,0.018799692,0.0023966113,0.0,0.0,0.0,0.0,3932170,3932170,3997730,396825,0,0,165,1,0,1,0,3,0,0,0,0,0,0,0
45228950,45226527,8.2128274e-08,4.3130905e-05,0.0011685474,0.0045665666,0.020173173,0.081405245,8389347,0,4.1226716,0.5369857,0.17336549,0.0,0.015935952,0.004049228,0.0,0.0,0.0,0.0,3932170,3932170,3997730,396825,0,0,165,1,0,1,0,3,0,0,0,0,0,0,0
45427063,45426204,8.218024e-08,4.171185e-05,0.0012176663,0.005835664,0.023805784,0.07937698,8389347,0,4.115039,0.5349542,0.20628764,0.0,0.013371995,0.003323361,0.0,0.0,0.0,0.0,3932170,3932170,3997730,396825,0,0,165,1,0,1,0,3,0,0,0,0,0,0,0
45628425,45625882,8.489767e-08,4.2236075e-05,0.0014163565,0.0068848208,0.025178848,0.07269799,8389347,0,4.1088805,0.53927624,0.2667259,0.0,0.010573337,0.0015441111,0.0,0.0,0.0,0.0,3932170,3932170,3997730,396825,0,0,165,1,0,1,0,3,0,0,0,0,0,0,0
45826310,45825559,8.8297995e-08,4.280549e-05,0.0014320469,0.006393236,0.02057439,0.0600836,8389347,0,4.104305,0.5372626,0.24189615,0.0,0.0077819475,0.00091785786,0.0,0.0,0.0,0.0,3932170,3932170,3997730,396825,0,0,165,1,0,1,0,3,0,0,0,0,0,0,0
46025970,46025235,8.631927e-08,4.2354848e-05,0.0012778699,0.0054434836,0.012626637,0.06501101,8389347,0,4.1011825,0.53526825,0.21986817,0.0,0.0046008094,0.0040276186,0.0,0.0,0.0,0.0,3932170,3932170,3997730,396825,0,0,165,1,0,1,0,3,0,0,0,0,0,0,0
46227243,46224912,8.677469e-08,4.3434055e-05,0.0011073943,0.0054133385,0.010558561,0.07278867,8389347,0,4.099256,0.5395826,0.25642306,0.0,0.0019891018,0.0049538263,0.0,0.0,0.0,0.0,3932170,3932170,3997730,396825,0,0,165,1,0,1,0,3,0,0,0,0,0,0,0
46425380,46424589,8.234729e-08,4.1465442e-05,0.0010342157,0.0056490144,0.009884988,0.058927007,8389347,0,4.0984817,0.537571,0.19881345,0.0,0.006236154,0.0011246515,0.0,0.0,0.0,0.0,3932170,3932170,3997730,396825,0,0,165,1,0,1,0,3,0,0,0,0,0,0,0
46625050,46624266,8.748129e-08,4.3417647e-05,0.001075154,0.0057747457,0.006449061,0.071391486,8389347,0,4.0987487,0.5356028,0.23183927,0.0,0.010676269,0.002835589,0.0,0.0,0.0,0.0,3932170,3932170,3997730,396825,0,0,165,1,0,1,0,3,0,0,0,0,0,0,0
46826384,46823944,9.358532e-08,4.5128334e-05,0.001143728,0.0066874768,0.008867033,0.081344515,8389347,0,4.099997,0.533677,0.3097095,0.0,0.015626408,0.0022684725,0.0,0.0,0.0,0.0,3932170,3932170,3997730,396825,0,0,165,1,0,1,0,3,0,0,0,0,0,0,0
47024478,47023624,8.2353196e-08,4.021334e-05,0.0011239918,0.006649284,0.011053653,0.09154396,8389347,0,4.1023364,0.5380215,0.2650188,0.0,0.021239366,0.0025004651,0.0,0.0,0.0,0.0,3932170,3932170,3997730,396825,0,0,165,1,0,1,0,3,0,0,0,0,0,0,0
47428767,47427968,8.0697745e-08,4.2068037e-05,0.0010037101,0.0057906215,0.016788613,0.118522815,8389347,0,4.1102095,0.53423357,0.26221436,0.0,0.032864157,0.0076798443,0.0,0.0,0.0,0.0,3932170,3932170,3997730,396825,0,0,165,1,0,1,0,3,0,0,0,0,0,0,0
47630112,47627651,7.370254e-08,4.058266e-05,0.00094318634,0.005324066,0.01915842,0.13364488,8389347,0,4.115262,0.5324383,0.20111601,0.0,0.03890858,0.011829541,0.0,0.0,0.0,0.0,3932170,3932170,3997730,396825,0,0,165,1,0,1,0,3,0,0,0,0,0,0,0
47829733,47827351,6.872958e-08,3.947762e-05,0.0010093652,0.004835066,0.028487695,0.16241497,8389347,0,4.120499,0.5368632,0.25476864,0.0,0.045233674,0.0119361775,0.0,0.0,0.0,0.0,3932170,3932170,3997730,396825,0,0,165,1,0,1,0,3,0,0,0,0,0,0,0
48027840,48027001,6.508144e-08,3.9904367e-05,0.0009875424,0.0044356245,0.036239322,0.18907827,8389347,0,4.125648,0.5350553,0.16450901,0.0,0.051327076,0.010226246,0.0,0.0,0.0,0.0,3932170,3932170,3997730,396825,0,0,165,1,0,1,0,3,0,0,0,0,0,0,0
48229270,48226679,6.05905e-08,3.8454473e-05,0.00096000085,0.0047038486,0.03806302,0.20414892,8389347,0,4.130498,0.5332527,0.21662216,0.0,0.05759797,0.008857643,0.0,0.0,0.0,0.0,3932170,3932170,3997730,396825,0,0,165,1,0,1,0,3,0,0,0,0,0,0,0
48427299,48426357,5.9400342e-08,3.7326223e-05,0.0009543464,0.0046602213,0.05570249,0.2522549,8389347,0,4.1350703,0.53146505,0.22038017,0.0,0.06322707,0.002524486,0.0,0.0,0.0,0.0,3932170,3932170,3997730,396825,0,0,165,1,0,1,0,3,0,0,0,0,0,0,0
48623370,48621046,6.110626e-08,3.7969075e-05,0.0009909702,0.004063138,0.066500366,0.28920272,8389347,0,4.1305523,0.5347557,0.12552069,0.0,0.06822855,0.003635719,0.0,0.0,0.0,0.0,3932170,3932170,3997730,396825,0,0,165,1,0,1,0,3,0,0,0,0,0,0,0
48821657,48820727,6.241537e-08,3.81636e-05,0.00096044014,0.0037048173,0.07662988,0.3220131,8389347,0,4.134833,0.5330469,0.22991002,0.0,0.07371157,0.0016713361,0.0,0.0,0.0,0.0,3932170,3932170,3997730,396825,0,0,165,1,0,1,0,3,0,0,0,0,0,0,0
49422633,49419755,6.010836e-08,3.6007506e-05,0.0009294423,0.0021525444,0.033529554,0.12885849,8389347,0,4.335393,0.53420544,0.07184329,0.0,0.08436091,0.0029911504,0.0,0.0,0.0,0.0,3932170,3932170,3997730,396825,0,0,165,1,0,1,0,3,0,0,0,0,0,0,0
49621886,49619434,5.7039557e-08,3.5144913e-05,0.0008492728,0.0009132175,0.03903422,0.14302205,8389347,0,4.3368106,0.5324841,0.11704754,0.0,0.08892689,0.007374206,0.0,0.0,0.0,0.0,3932170,3932170,3997730,396825,0,0,165,1,0,1,0,3,0,0,0,0,0,0,0
49831565,49829095,5.2166026e-08,3.3962577e-05,0.00077893515,0.00031164556,0.041860826,0.14744754,8389347,0,4.346566,0.53194183,0.0713289,0.0,0.09255872,0.0022452697,0.0,0.0,0.0,0.0,3932170,3932170,3997730,396825,0,0,165,1,0,1,0,3,0,0,0,0,0,0,0
50029660,50028774,5.3141164e-08,3.5721765e-05,0.00077613397,0.0003516208,0.042499308,0.15219124,8389347,0,4.344786,0.5302709,0.13142301,0.0,0.095874794,0.0068866825,0.0,0.0,0.0,0.0,3932170,3932170,3997730,396825,0,0,165,1,0,1,0,3,0,0,0,0,0,0,0
50229192,50228452,5.3241834e-08,3.7464102e-05,0.00080510497,0.00051902985,0.0470464,0.16530287,8389347,0,4.3414464,0.5347856,0.083825976,0.0,0.0990643,0.008136591,0.0,0.0,0.0,0.0,3932170,3932170,3997730,396825,0,0,165,1,0,1,0,3,0,0,0,0,0,0,0
50430509,50428134,5.2290055e-08,3.748914e-05,0.00085613306,0.00061209657,0.04877915,0.17223443,8389347,0,4.3364224,0.53306955,0.05360155,0.0,0.101787634,0.005471381,0.0,0.0,0.0,0.0,3932170,3932170,3997730,396825,0,0,165,1,0,1,0,3,0,0,0,0,0,0,0
50628608,50627809,4.513631e-08,3.3745295e-05,0.0008318212,0.0007827205,0.048359834,0.17329933,8389347,0,4.329897,0.53137225,0.118929535,0.0,0.10414104,0.013570697,0.0,0.0,0.0,0.0,3932170,3932170,3997730,396825,0,0,165,1,0,1,0,3,0,0,0,0,0,0,0
50830065,50827487,3.9864215e-08,3.1317482e-05,0.0008040817,0.0011561947,0.0481519,0.17514041,8389347,0,4.321971,0.5358282,0.084056005,0.0,0.10593329,0.00896454,0.0,0.0,0.0,0.0,3932170,3932170,3997730,396825,0,0,165,1,0,1,0,3,0,0,0,0,0,0,0
51029556,51027166,3.9396042e-08,3.424778e-05,0.0007706171,0.0013855068,0.04723915,0.17450136,8389347,0,4.312651,0.5340723,0.073293604,0.0,0.10723173,0.010183973,0.0,0.0,0.0,0.0,3932170,3932170,3997730,396825,0,0,165,1,0,1,0,3,0,0,0,0,0,0,0
51227696,51226844,3.483061e-08,3.3658715e-05,0.0007679846,0.001743897,0.048660632,0.17840382,8389347,0,4.302068,0.53233516,0.092010796,0.0,0.10796019,0.0065499237,0.0,0.0,0.0,0.0,3932170,3932170,3997730,396825,0,0,165,1,0,1,0,3,0,0,0,0,0,0,0
51429077,51426523,2.892481e-08,3.2104163e-05,0.00075319887,0.002069551,0.04636537,0.17560099,8389347,0,4.290286,0.53056395,0.08792362,0.0,0.10841274,0.0044716774,0.0,0.0,0.0,0.0,3932170,3932170,3997730,396825,0,0,165,1,0,1,0,3,0,0,0,0,0,0,0
51627074,51626202,2.585658e-08,3.214654e-05,0.0007303507,0.0019477196,0.044272885,0.17507738,8389347,0,4.277495,0.5349917,0.088295154,0.0,0.108984195,0.00036375932,0.0,0.0,0.0,0.0,3932170,3932170,3997730,396825,0,0,165,1,0,1,0,3,0,0,0,0,0,0,0
51826689,51825881,2.2534941e-08,3.2957323e-05,0.0007456651,0.0022813187,0.04324321,0.1770645,8389347,0,4.2635813,0.5332354,0.14756759,0.0,0.10968332,0.00944,0.0,0.0,0.0,0.0,3932170,3932170,3997730,396825,0,0,165,1,0,1,0,3,0,0,0,0,0,0,0
52027962,52025560,1.7464764e-08,3.4064436e-05,0.00078094343,0.0024066577,0.043581184,0.18216822,8389347,0,4.248584,0.5314556,0.1084998,0.0,0.11007296,0.012214012,0.0,0.0,0.0,0.0,3932170,3932170,3997730,396825,0,0,165,1,0,1,0,3,0,0,0,0,0,0,0
52226120,52225238,1.3620145e-08,3.5812154e-05,0.00078601297,0.0022842814,0.04360791,0.1856309,8389347,0,4.2326474,0.52965814,0.1363574,0.0,0.11016264,0.008123034,0.0,0.0,0.0,0.0,3932170,3932170,3997730,396825,0,0,165,1,0,1,0,3,0,0,0,0,0,0,0
52425658,52424917,1.0352801e-08,3.487255e-05,0.0007924532,0.0020053855,0.043763604,0.19056123,8389347,0,4.215972,0.5340025,0.116745785,0.0,0.110024594,0.004774094,0.0,0.0,0.0,0.0,3932170,3932170,3997730,396825,0,0,165,1,0,1,0,3,0,0,0,0,0,0,0
52632146,52629588,8.2584855e-09,3.4690016e-05,0.0008159266,0.0016698792,0.04124017,0.18345487,8389347,0,4.1993504,0.53213,0.089768924,0.0,0.10924227,0.0094873775,0.0,0.0,0.0,0.0,3932170,3932170,3997730,396825,0,0,165,1,0,1,0,3,0,0,0,0,0,0,0
52830070,52829267,7.512472e-09,3.2683052e-05,0.0008364599,0.0012939133,0.040239025,0.18369588,8389347,0,4.1822605,0.53033036,0.07342953,0.0,0.10877398,0.0018943093,0.0,0.0,0.0,0.0,3932170,3932170,3997730,396825,0,0,165,1,0,1,0,3,0,0,0,0,0,0,0
53031428,53028947,6.6662054e-09,3.1781623e-05,0.000892485,0.0012393553,0.040853363,0.19036518,8389347,0,4.1647997,0.5285396,0.08410397,0.0,0.10775004,0.0040462296,0.0,0.0,0.0,0.0,3932170,3932170,3997730,396825,0,0,165,1,0,1,0,3,0,0,0,0,0,0,0
53429366,53428307,5.576957e-09,2.709915e-05,0.00090504374,0.0009843279,0.036520213,0.1843008,8389267,0,4.1290293,0.53090096,0.04890413,0.0,0.106002234,0.0009921845,0.0,0.0,0.0,0.0,3932170,3932170,3997730,396825,0,0,165,1,0,1,0,3,0,0,0,0,0,0,0
53618846,53618000,5.0447095e-09,3.1037256e-05,0.0008680823,0.0010790813,0.020523109,0.094991624,8389267,0,4.288615,0.527915,0.062199228,0.0,0.106002234,0.0015223747,0.0,0.0,0.0,0.0,3932170,3932170,3997730,396825,0,0,165,1,0,1,0,3,0,0,0,0,0,0,0
53828478,53827664,4.7564845e-09,3.4725002e-05,0.0008449549,0.0014245154,0.023647157,0.10758491,8389267,0,4.277027,0.53320354,0.06368595,0.0,0.10531224,0.0060818014,0.0,0.0,0.0,0.0,3932170,3932170,3997730,396825,0,0,165,1,0,1,0,3,0,0,0,0,0,0,0
54028431,54027343,6.4756143e-09,3.6372217e-05,0.00083833595,0.0014877983,0.023358746,0.105119325,8389267,0,4.2567105,0.5312408,0.077230275,0.0,0.10468344,0.009457389,0.0,0.0,0.0,0.0,3932170,3932170,3997730,396825,0,0,165,1,0,1,0,3,0,0,0,0,0,0,0
54227840,54227023,1.2129388e-08,3.6179834e-05,0.0008416283,0.0013654483,0.021100055,0.09702181,8389267,0,4.23637,0.5293146,0.061969966,0.0,0.10378389,0.015778458,0.0,0.0,0.0,0.0,3932170,3932170,3997730,396825,0,0,165,1,0,1,0,3,0,0,0,0,0,0,0
54427602,54426702,1.1673556e-08,3.5888097e-05,0.00079304853,0.0013481083,0.019385556,0.089673065,8389267,0,4.2160525,0.52739197,0.068925776,0.0,0.10274612,0.0040446566,0.0,0.0,0.0,0.0,3932170,3932170,3997730,396825,0,0,165,1,0,1,0,3,0,0,0,0,0,0,0
54627344,54626382,9.723255e-09,3.2873035e-05,0.00083440344,0.0011684549,0.017630534,0.07911004,8389267,0,4.195851,0.53154457,0.044306386,0.0,0.10193042,0.012995105,0.0,0.0,0.0,0.0,3932170,3932170,3997730,396825,0,0,165,1,0,1,0,3,0,0,0,0,0,0,0
54826918,54826061,1.0004842e-08,3.0494677e-05,0.00085163605,0.000833082,0.0150955925,0.06633811,8389267,0,4.17583,0.52962196,0.02653794,0.0,0.10147209,0.021569723,0.0,0.0,0.0,0.0,3932170,3932170,3997730,396825,0,0,165,1,0,1,0,3,0,0,0,0,0,0,0
55026538,55025741,1.0043601e-08,3.0982348e-05,0.0010109496,0.0005485316,0.0123338895,0.05253145,8389267,0,4.156077,0.52770674,0.017689105,0.0,0.10119333,0.020042868,0.0,0.0,0.0,0.0,3932170,3932170,3997730,396825,0,0,165,1,0,1,0,3,0,0,0,0,0,0,0
55226486,55225421,8.127725e-09,3.2479595e-05,0.0010225829,0.0010290495,0.011227179,0.044716623,8389267,0,4.1366005,0.5257908,0.06940869,0.0,0.101024665,0.009394682,0.0,0.0,0.0,0.0,3932170,3932170,3997730,396825,0,0,165,1,0,1,0,3,0,0,0,0,0,0,0
55425908,55425101,8.201859e-09,3.2573094e-05,0.0010349724,0.0008922126,0.008360955,0.033308316,8389267,0,4.117381,0.5299049,0.02803564,0.0,0.10094519,0.0153548,0.0,0.0,0.0,0.0,3932170,3932170,3997730,396825,0,0,165,1,0,1,0,3,0,0,0,0,0,0,0
55625706,55624781,8.578549e-09,3.140341e-05,0.0011520622,0.00055353326,0.0062927012,0.026775518,8389267,0,4.0984106,0.5279822,0.022798682,0.0,0.10027922,0.01688202,0.0,0.0,0.0,0.0,3932170,3932170,3997730,396825,0,0,165,1,0,1,0,3,0,0,0,0,0,0,0
55825410,55824463,7.47899e-09,3.2465392e-05,0.0010613247,0.0008821485,0.004629167,0.018291252,8389267,0,4.079771,0.52607286,0.055269446,0.0,0.09958345,0.010313928,0.0,0.0,0.0,0.0,3932170,3932170,3997730,396825,0,0,165,1,0,1,0,3,0,0,0,0,0,0,0
56024872,56024140,9.368725e-09,3.3112086e-05,0.0009898326,0.0010789301,0.0028643585,0.0051777666,8389267,0,4.0613894,0.53017443,0.06137471,0.0,0.099167824,0.0025163013,0.0,0.0,0.0,0.0,3932170,3932170,3997730,396825,0,0,165,1,0,1,0,3,0,0,0,0,0,0,0
56419496,56418511,6.892301e-09,3.4625522e-05,0.00094396214,0.0013804061,0.0028303727,0.025474727,8389267,0,4.018564,0.5252484,0.04742844,0.0,0.09811245,0.01721496,0.0,0.0,0.0,0.0,3932170,3932170,3997730,396825,0,0,165,1,0,1,0,3,0,0,0,0,0,0,0
56629153,56628173,6.951306e-09,3.9156872e-05,0.0009291704,0.0014787761,0.0032330698,0.02184269,8389267,0,4.008875,0.52449065,0.07171923,0.0,0.0973604,0.021534404,0.0,0.0,0.0,0.0,3932170,3932170,3997730,396825,0,0,165,1,0,1,0,3,0,0,0,0,0,0,0
56828577,56827853,7.3907644e-09,4.0106777e-05,0.00090847886,0.0017780521,0.0034251749,0.027433842,8389267,0,3.9919512,0.52858704,0.08081555,0.0,0.09646755,0.023586402,0.0,0.0,0.0,0.0,3932170,3932170,3997730,396825,0,0,165,1,0,1,0,3,0,0,0,0,0,0,0
57028315,57027533,1.1375336e-08,4.436032e-05,0.0009136471,0.0014352363,0.0053555313,0.03922634,8389267,0,3.9751823,0.526719,0.052770067,0.0,0.09522906,0.005538667,0.0,0.0,0.0,0.0,3932170,3932170,3997730,396825,0,0,165,1,0,1,0,3,0,0,0,0,0,0,0
57228119,57227214,1.5738378e-08,4.3600125e-05,0.00095852255,0.001018851,0.00804608,0.054291375,8389267,0,3.9586577,0.52487534,0.053987183,0.0,0.09369672,0.022872694,0.0,0.0,0.0,0.0,3932170,3932170,3997730,396825,0,0,165,1,0,1,0,3,0,0,0,0,0,0,0
57427757,57426894,1.1999492e-08,4.1068e-05,0.0010051258,0.00079286157,0.010462163,0.06585177,8389267,0,3.9424896,0.5230155,0.04371443,0.0,0.09161205,0.017672643,0.0,0.0,0.0,0.0,3932170,3932170,3997730,396825,0,0,165,1,0,1,0,3,0,0,0,0,0,0,0
57627381,57626576,1.7551427e-08,4.287329e-05,0.0009648942,0.00081813335,0.01225112,0.07470226,8389267,0,3.9267037,0.52708745,0.048684213,0.0,0.088899545,0.006929435,0.0,0.0,0.0,0.0,3932170,3932170,3997730,396825,0,0,165,1,0,1,0,3,0,0,0,0,0,0,0
57827302,57826261,2.5437588e-08,4.6165103e-05,0.00094811985,0.0012697293,0.012923493,0.08166141,8389267,0,3.9112797,0.52522576,0.043780774,0.0,0.08573342,0.009653344,0.0,0.0,0.0,0.0,3932170,3932170,3997730,396825,0,0,165,1,0,1,0,3,0,0,0,0,0,0,0
58026771,58025936,2.281349e-08,4.5623936e-05,0.00094612874,0.001484865,0.026477037,0.13393182,8389267,0,4.0536327,0.52337426,0.0926314,0.0,0.08573342,0.0164673,0.0,0.0,0.0,0.0,3932170,3932170,3997730,396825,0,0,165,1,0,1,0,3,0,0,0,0,0,0,0
58226639,58225616,3.4807186e-08,5.068e-05,0.0013046488,0.0022693963,0.026402138,0.13458909,8389267,0,4.037581,0.5215248,0.11503062,0.0,0.08196803,0.01332719,0.0,0.0,0.0,0.0,3932170,3932170,3997730,396825,0,0,165,1,0,1,0,3,0,0,0,0,0,0,0
58427766,58425298,5.5388387e-08,5.772467e-05,0.0015796646,0.0023422164,0.022235585,0.12635632,8389347,0,4.0216184,0.5255553,0.14276233,0.0,0.0776004,0.020689972,0.0,0.0,0.0,0.0,3932170,3932170,3997730,396825,0,0,165,1,0,1,0,3,0,0,0,0,0,0,0
58620784,58619986,6.435132e-08,5.525769e-05,0.002539409,0.0046676416,0.02209183,0.11436717,8389347,0,3.998103,0.5226327,0.13006654,0.0,0.07251065,0.020052051,0.0,0.0,0.0,0.0,3932170,3932170,3997730,396825,0,0,165,1,0,1,0,3,0,0,0,0,0,0,0
58820577,58819666,8.490041e-08,5.5833363e-05,0.0034470544,0.0036801358,0.023243535,0.11624886,8389347,0,3.9829605,0.52083373,0.13399525,0.0,0.06619537,0.016704755,0.0,0.0,0.0,0.0,3932170,3932170,3997730,396825,0,0,165,1,0,1,0,3,0,0,0,0,0,0,0
59021796,59019347,9.163708e-08,5.1667987e-05,0.0029929818,0.0011606317,0.027728783,0.13100632,8389347,0,3.9682524,0.52487004,0.082776986,0.0,0.06063428,0.01191396,0.0,0.0,0.0,0.0,3932170,3932170,3997730,396825,0,0,165,1,0,1,0,3,0,0,0,0,0,0,0
59431076,59428693,9.731476e-08,4.618254e-05,0.0023526012,0.004891484,0.0481043,0.18464077,8389347,0,3.9477973,0.52237236,0.22506353,0.0,0.053187784,0.014053524,0.0,0.0,0.0,0.0,3932170,3932170,3997730,396825,0,0,165,1,0,1,0,3,0,0,0,0,0,0,0
59629114,59628374,9.808555e-08,4.5642242e-05,0.0021712123,0.0042851446,0.051503386,0.18852922,8389347,0,3.9351883,0.52062255,0.1921618,0.0,0.050924942,0.012535798,0.0,0.0,0.0,0.0,3932170,3932170,3997730,396825,0,0,165,1,0,1,0,3,0,0,0,0,0,0,0
59830470,59828056,9.103198e-08,4.388129e-05,0.0017642591,0.0022729884,0.056145996,0.18755782,8389347,0,3.9230695,0.5189031,0.23712884,0.0,0.04809452,0.008455556,0.0,0.0,0.0,0.0,3932170,3932170,3997730,396825,0,0,165,1,0,1,0,3,0,0,0,0,0,0,0
60028485,60027737,7.7912006e-08,4.0455274e-05,0.0015361421,0.0018030809,0.05380311,0.17272715,8389347,0,3.9113648,0.5229517,0.23883851,0.0,0.044755068,0.022203457,0.0,0.0,0.0,0.0,3932170,3932170,3997730,396825,0,0,165,1,0,1,0,3,0,0,0,0,0,0,0
60228245,60227418,6.921563e-08,4.0981635e-05,0.0014598812,0.0022111842,0.04989754,0.15683138,8389347,0,3.8999264,0.52120495,0.27890393,0.0,0.044114396,0.0134448605,0.0,0.0,0.0,0.0,3932170,3932170,3997730,396825,0,0,165,1,0,1,0,3,0,0,0,0,0,0,0
60422965,60422107,6.212598e-08,4.613103e-05,0.0017476336,0.00231089,0.049690526,0.14239094,8389347,0,3.881881,0.52417725,0.3179292,0.0,0.048355434,0.015491831,0.0,0.0,0.0,0.0,3932170,3932170,3997730,396825,0,0,165,1,0,1,0,3,0,0,0,0,0,0,0
60624252,60621789,4.943373e-08,5.1483676e-05,0.0020850506,0.0029522823,0.054161496,0.14475997,8389347,0,3.871444,0.5224346,0.32420838,0.0,0.05222755,0.010499371,0.0,0.0,0.0,0.0,3932170,3932170,3997730,396825,0,0,165,1,0,1,0,3,0,0,0,0,0,0,0
60822275,60821470,3.5131897e-08,4.993628e-05,0.001989901,0.0020723047,0.04311296,0.116423585,8389347,0,3.8613148,0.52072036,0.27559564,0.0,0.056936864,0.006089933,0.0,0.0,0.0,0.0,3932170,3932170,3997730,396825,0,0,165,1,0,1,0,3,0,0,0,0,0,0,0
61023782,61021153,2.710705e-08,4.4931858e-05,0.0018427905,0.0018928625,0.035166975,0.10151951,8389347,0,3.8512976,0.5190319,0.25758705,0.0,0.06094471,0.025909666,0.0,0.0,0.0,0.0,3932170,3932170,3997730,396825,0,0,165,1,0,1,0,3,0,0,0,0,0,0,0
61221645,61220832,2.4344907e-08,4.485076e-05,0.0018450369,0.0017575126,0.025701685,0.09827046,8389347,0,3.8414562,0.5231149,0.3270234,0.0,0.064560264,0.016060917,0.0,0.0,0.0,0.0,3932170,3932170,3997730,396825,0,0,165,1,0,1,0,3,0,0,0,0,0,0,0
61421280,61420533,1.9020153e-08,4.2835454e-05,0.0016736004,0.002572522,0.02473256,0.12113115,8389347,0,3.8318195,0.5213989,0.29251745,0.0,0.067219384,0.024352161,0.0,0.0,0.0,0.0,3932170,3932170,3997730,396825,0,0,165,1,0,1,0,3,0,0,0,0,0,0,0
61622566,61620196,2.0865823e-08,4.298359e-05,0.0016334899,0.003446081,0.030430136,0.15030353,8389347,0,3.8224492,0.51968986,0.28230715,0.0,0.0691922,0.020401353,0.0,0.0,0.0,0.0,3932170,3932170,3997730,396825,0,0,165,1,0,1,0,3,0,0,0,0,0,0,0
61820775,61819889,3.2062317e-08,4.2209962e-05,0.0016371158,0.0026673365,0.03170435,0.17000586,8389347,0,3.8134513,0.5179885,0.22458377,0.0,0.070566535,0.012432735,0.0,0.0,0.0,0.0,3932170,3932170,3997730,396825,0,0,165,1,0,1,0,3,0,0,0,0,0,0,0
62020346,62019559,5.466444e-08,4.476468e-05,0.0014706186,0.0021050542,0.032391775,0.18184973,8389347,0,3.8046818,0.52205086,0.23790424,0.0,0.072294086,0.0035330458,0.0,0.0,0.0,0.0,3932170,3932170,3997730,396825,0,0,165,1,0,1,0,3,0,0,0,0,0,0,0
62230031,62229224,7.295184e-08,4.691073e-05,0.0013640497,0.0014057916,0.025090288,0.17001611,8389347,0,3.8026628,0.5214386,0.2040701,0.0,0.07438565,0.0147130275,0.0,0.0,0.0,0.0,3932170,3932170,3997730,396825,0,0,165,1,0,1,0,3,0,0,0,0,0,0,0
62431731,62428908,7.86192e-08,4.718818e-05,0.0013825936,0.0017711766,0.024283353,0.16444127,8389347,0,3.7938714,0.51975644,0.3792398,0.0,0.07725961,0.008447719,0.0,0.0,0.0,0.0,3932170,3932170,3997730,396825,0,0,165,1,0,1,0,3,0,0,0,0,0,0,0
62629386,62628588,7.646866e-08,4.6175035e-05,0.0015657179,0.0025947562,0.04308706,0.139334,8389347,0,3.9290113,0.51807994,0.39529258,0.0,0.07725961,0.008054219,0.0,0.0,0.0,0.0,3932170,3932170,3997730,396825,0,0,165,1,0,1,0,3,0,0,0,0,0,0,0
62829050,62828270,7.607515e-08,4.899199e-05,0.0018182085,0.0026912184,0.048096854,0.14614697,8389347,0,3.919925,0.52214473,0.40287495,0.0,0.08037555,0.0040544956,0.0,0.0,0.0,0.0,3932170,3932170,3997730,396825,0,0,165,1,0,1,0,3,0,0,0,0,0,0,0
63030313,63027952,7.355269e-08,4.9749782e-05,0.0017072648,0.0022927765,0.04606966,0.13943553,8389347,0,3.9109359,0.5204442,0.2988445,0.0,0.08456725,0.008593486,0.0,0.0,0.0,0.0,3932170,3932170,3997730,396825,0,0,165,1,0,1,0,3,0,0,0,0,0,0,0
63228421,63227633,6.55398e-08,4.866495e-05,0.0015420984,0.0020102072,0.040471897,0.12825643,8389347,0,3.9020176,0.51877093,0.362344,0.0,0.08812642,0.00084448425,0.0,0.0,0.0,0.0,3932170,3932170,3997730,396825,0,0,165,1,0,1,0,3,0,0,0,0,0,0,0
63428211,63427385,5.641512e-08,4.527807e-05,0.0014537708,0.00224228,0.038991183,0.12741712,8389347,0,3.8931236,0.51707894,0.342785,0.0,0.0918893,0.012311524,0.0,0.0,0.0,0.0,3932170,3932170,3997730,396825,0,0,165,1,0,1,0,3,0,0,0,0,0,0,0
63629561,63626998,4.7745747e-08,4.076228e-05,0.0014237785,0.002573931,0.043596797,0.13418914,8389347,0,3.8842921,0.5211201,0.34920585,0.0,0.09600225,0.011464564,0.0,0.0,0.0,0.0,3932170,3932170,3997730,396825,0,0,165,1,0,1,0,3,0,0,0,0,0,0,0
63827499,63826680,4.567606e-08,4.029121e-05,0.0011918567,0.0023728178,0.040051583,0.13214146,8389347,0,3.8756638,0.5194523,0.30511418,0.0,0.10020466,0.009645429,0.0,0.0,0.0,0.0,3932170,3932170,3997730,396825,0,0,165,1,0,1,0,3,0,0,0,0,0,0,0
64029179,64026362,4.6280935e-08,3.9540504e-05,0.0010350494,0.0023122034,0.038864907,0.13266782,8389347,0,3.867065,0.5177869,0.26888973,0.0,0.10358129,0.0020339133,0.0,0.0,0.0,0.0,3932170,3932170,3997730,396825,0,0,165,1,0,1,0,3,0,0,0,0,0,0,0
64228579,64226045,4.9637816e-08,4.15408e-05,0.0009828961,0.0018800569,0.03489666,0.13537505,8389347,0,3.8585222,0.516123,0.24518415,0.0,0.10729819,0.0022729049,0.0,0.0,0.0,0.0,3932170,3932170,3997730,396825,0,0,165,1,0,1,0,3,0,0,0,0,0,0,0
64426581,64425728,5.638389e-08,4.465836e-05,0.0009648421,0.0016124129,0.035168994,0.14558327,8389347,0,3.8499038,0.52015495,0.20267273,0.0,0.111065336,0.008841272,0.0,0.0,0.0,0.0,3932170,3932170,3997730,396825,0,0,165,1,0,1,0,3,0,0,0,0,0,0,0
64627992,64625410,6.036346e-08,4.5812685e-05,0.00091582054,0.0017771081,0.03677008,0.15215933,8389347,0,3.8411584,0.51845926,0.20577146,0.0,0.115406774,0.01012575,0.0,0.0,0.0,0.0,3932170,3932170,3997730,396825,0,0,165,1,0,1,0,3,0,0,0,0,0,0,0
64825956,64825091,6.013627e-08,4.4701555e-05,0.0009808588,0.0019196318,0.03889075,0.1609468,8389347,0,3.832441,0.5167877,0.2311162,0.0,0.12057326,0.010667237,0.0,0.0,0.0,0.0,3932170,3932170,3997730,396825,0,0,165,1,0,1,0,3,0,0,0,0,0,0,0
65025572,65024774,5.8131917e-08,4.2221403e-05,0.0009511786,0.0020587747,0.041731667,0.17106478,8389347,0,3.8237808,0.5208117,0.21470226,0.0,0.12717839,0.007249178,0.0,0.0,0.0,0.0,3932170,3932170,3997730,396825,0,0,165,1,0,1,0,3,0,0,0,0,0,0,0
65226918,65224456,6.019485e-08,4.3047075e-05,0.0010384315,0.0025092997,0.04698043,0.17628822,8389347,0,3.8151612,0.51911193,0.2581847,0.0,0.1344745,0.010548393,0.0,0.0,0.0,0.0,3932170,3932170,3997730,396825,0,0,165,1,0,1,0,3,0,0,0,0,0,0,0
65424924,65424139,7.082938e-08,4.588928e-05,0.0009903442,0.0019656264,0.04726731,0.20789702,8389347,0,3.8067865,0.5174403,0.15250106,0.0,0.14292221,0.0018313106,0.0,0.0,0.0,0.0,3932170,3932170,3997730,396825,0,0,165,1,0,1,0,3,0,0,0,0,0,0,0
65629642,65628816,7.661396e-08,4.729255e-05,0.0009092384,0.0014336873,0.050297435,0.23318419,8389347,0,3.798992,0.51579773,0.17590462,0.0,0.1497078,0.0021580097,0.0,0.0,0.0,0.0,3932170,3932170,3997730,396825,0,0,165,1,0,1,0,3,0,0,0,0,0,0,0
65829235,65828497,7.857692e-08,4.6089648e-05,0.0009225965,0.001561191,0.052863758,0.25169307,8389347,0,3.791216,0.5198253,0.22306429,0.0,0.15714934,0.02423188,0.0,0.0,0.0,0.0,3932170,3932170,3997730,396825,0,0,165,1,0,1,0,3,0,0,0,0,0,0,0
66028994,66028181,7.667913e-08,4.1664684e-05,0.0009843749,0.001777275,0.06263332,0.2895541,8389347,0,3.7835898,0.5181885,0.28052697,0.0,0.16321173,0.0016866601,0.0,0.0,0.0,0.0,3932170,3932170,3997730,396825,0,0,165,1,0,1,0,3,0,0,0,0,0,0,0
66230247,66227862,8.438132e-08,4.137593e-05,0.0010015307,0.0021831524,0.06725831,0.31337342,8389347,0,3.775937,0.5165788,0.27148163,0.0,0.16860373,0.0071980297,0.0,0.0,0.0,0.0,3932170,3932170,3997730,396825,0,0,165,1,0,1,0,3,0,0,0,0,0,0,0
66428276,66427545,8.947757e-08,3.9280774e-05,0.0009879881,0.0022009092,0.07220355,0.3444785,8389347,0,3.7684507,0.5149951,0.2751974,0.0,0.17444552,0.00033054504,0.0,0.0,0.0,0.0,3932170,3932170,3997730,396825,0,0,165,1,0,1,0,3,0,0,0,0,0,0,0
66627985,66627229,8.8408285e-08,3.5818575e-05,0.0009771828,0.0020301319,0.07546352,0.37372354,8389347,0,3.7610855,0.5190291,0.26242563,0.0,0.18062517,0.0032246863,0.0,0.0,0.0,0.0,3932170,3932170,3997730,396825,0,0,165,1,0,1,0,3,0,0,0,0,0,0,0
66829462,66826923,8.612104e-08,3.384816e-05,0.00089639757,0.0021651944,0.07850852,0.40154612,8389347,0,3.7538044,0.5174239,0.2777198,0.0,0.1864579,0.0008636524,0.0,0.0,0.0,0.0,3932170,3932170,3997730,396825,0,0,165,1,0,1,0,3,0,0,0,0,0,0,0
67027373,67026594,8.5122444e-08,3.3797824e-05,0.0008341489,0.0026244014,0.015512847,0.01767012,8389347,0,3.8861732,0.515823,0.23629159,0.0,0.1864579,0.005212422,0.0,0.0,0.0,0.0,3932170,3932170,3997730,396825,0,0,165,1,0,1,0,3,0,0,0,0,0,0,0
67228921,67226277,9.28993e-08,3.4417342e-05,0.00091081375,0.0037401011,0.023711322,0.040610623,8389347,0,3.8789043,0.5142268,0.25466272,0.0,0.19233742,0.0019221732,0.0,0.0,0.0,0.0,3932170,3932170,3997730,396825,0,0,165,1,0,1,0,3,0,0,0,0,0,0,0
67426772,67425960,1.02058614e-07,3.6267706e-05,0.0009977967,0.0046805656,0.0277251,0.057662822,8389347,0,3.8717833,0.51826996,0.25049886,0.0,0.19694953,0.011071255,0.0,0.0,0.0,0.0,3932170,3932170,3997730,396825,0,0,165,1,0,1,0,3,0,0,0,0,0,0,0
67626459,67625644,1.0248579e-07,3.3865752e-05,0.0008992472,0.004684852,0.028615385,0.0712718,8389347,0,3.8646789,0.516675,0.3164955,0.0,0.2015476,0.009415426,0.0,0.0,0.0,0.0,3932170,3932170,3997730,396825,0,0,165,1,0,1,0,3,0,0,0,0,0,0,0
67832728,67830318,1.0346438e-07,3.4361048e-05,0.0008642017,0.0048416145,0.013613746,0.028856942,8389347,0,3.8580577,0.51510775,0.36121058,0.0,0.20611133,0.004244319,0.0,0.0,0.0,0.0,3932170,3932170,3997730,396825,0,0,165,1,0,1,0,3,0,0,0,0,0,0,0
68030925,68030001,1.05285224e-07,3.4769146e-05,0.00080843264,0.0045487937,0.008276329,0.021129021,8389347,0,3.8517392,0.5135657,0.35884452,0.0,0.21355066,0.00039216483,0.0,0.0,0.0,0.0,3932170,3932170,3997730,396825,0,0,165,1,0,1,0,3,0,0,0,0,0,0,0
68232133,68229686,1.1246709e-07,3.6154728e-05,0.00084780605,0.0043019624,0.022647444,0.036497593,8389347,0,3.8454702,0.51764107,0.3613985,0.0,0.2215396,0.0043921582,0.0,0.0,0.0,0.0,3932170,3932170,3997730,396825,0,0,165,1,0,1,0,3,0,0,0,0,0,0,0
68430208,68429368,1.1253738e-07,3.7081423e-05,0.00082145754,0.004052277,0.02133397,0.038867995,8389347,0,3.8394647,0.5160777,0.3849039,0.0,0.23052233,0.006675468,0.0,0.0,0.0,0.0,3932170,3932170,3997730,396825,0,0,165,1,0,1,0,3,0,0,0,0,0,0,0
68621660,68619068,1.15474364e-07,3.774132e-05,0.0007888369,0.004253466,0.023731383,0.046613745,8389347,0,3.8268654,0.5134996,0.4516383,0.0,0.2412878,0.00905658,0.0,0.0,0.0,0.0,3932170,3932170,3997730,396825,0,0,165,1,0,1,0,3,0,0,0,0,0,0,0
68819564,68818751,1.16659486e-07,3.7380814e-05,0.00077208097,0.0032477218,0.024724921,0.075815655,8389347,0,3.8211045,0.5175841,0.38664344,0.0,0.2537747,0.0062877806,0.0,0.0,0.0,0.0,3932170,3932170,3997730,396825,0,0,165,1,0,1,0,3,0,0,0,0,0,0,0
69020873,69018438,1.06587905e-07,3.481244e-05,0.0007920233,0.0024981736,0.031413637,0.098814525,8389347,0,3.81534,0.5160778,0.37668255,0.0,0.2672684,0.0017186708,0.0,0.0,0.0,0.0,3932170,3932170,3997730,396825,0,0,165,1,0,1,0,3,0,0,0,0,0,0,0
69430173,69427787,9.3824085e-08,3.4776298e-05,0.0008418072,0.000875673,0.040838666,0.18657401,8389347,0,3.8110943,0.51409984,0.32849136,0.0,0.2967746,0.007611452,0.0,0.0,0.0,0.0,3932170,3932170,3997730,396825,0,0,165,1,0,1,0,3,0,0,0,0,0,0,0
69628272,69627469,9.7408545e-08,3.6602993e-05,0.0008314314,0.0007410276,0.04999382,0.25467426,8389347,0,3.805834,0.51819575,0.32614723,0.0,0.31143925,0.0009416631,0.0,0.0,0.0,0.0,3932170,3932170,3997730,396825,0,0,165,1,0,1,0,3,0,0,0,0,0,0,0
69829728,69827155,1.07114644e-07,4.0453564e-05,0.000996584,0.000813516,0.060945567,0.32194227,8389347,0,3.800499,0.51668435,0.26440307,0.0,0.32694075,0.003340924,0.0,0.0,0.0,0.0,3932170,3932170,3997730,396825,0,0,165,1,0,1,0,3,0,0,0,0,0,0,0
70027622,70026837,1.1899827e-07,5.056295e-05,0.0014070169,0.0008626467,0.08084946,0.41602,8389347,0,3.7953374,0.5152012,0.25992414,0.0,0.34126827,0.009646742,0.0,0.0,0.0,0.0,3932170,3932170,3997730,396825,0,0,165,1,0,1,0,3,0,0,0,0,0,0,0
70227386,70226539,1.0769238e-07,5.1677915e-05,0.0015343563,0.0017541619,0.111132294,0.52959675,8389347,0,3.790217,0.5136981,0.24838214,0.0,0.3538895,0.006470818,0.0,0.0,0.0,0.0,3932170,3932170,3997730,396825,0,0,165,1,0,1,0,3,0,0,0,0,0,0,0
70428741,70426204,1.0450417e-07,5.4743083e-05,0.0014218972,0.0016584247,0.120251,0.58358425,8389347,0,3.7849927,0.5178177,0.26447675,0.0,0.36588112,0.0017252511,0.0,0.0,0.0,0.0,3932170,3932170,3997730,396825,0,0,165,1,0,1,0,3,0,0,0,0,0,0,0
70626724,70625891,9.4395894e-08,5.416918e-05,0.0012228164,0.001764161,0.141838,0.6783424,8389347,0,3.7796967,0.5163386,0.22252023,0.0,0.37666756,0.009588539,0.0,0.0,0.0,0.0,3932170,3932170,3997730,396825,0,0,165,1,0,1,0,3,0,0,0,0,0,0,0
70826404,70825572,8.734775e-08,5.2918866e-05,0.0010994485,0.0022023206,0.166258,0.78185546,8389347,0,3.7741425,0.51486254,0.2048239,0.0,0.3851243,0.008719065,0.0,0.0,0.0,0.0,3932170,3932170,3997730,396825,0,0,165,1,0,1,0,3,0,0,0,0,0,0,0
71027726,71025256,7.5640884e-08,4.88521e-05,0.001088214,0.0031230676,0.18998171,0.8791432,8389347,0,3.768235,0.5133901,0.1650086,0.0,0.39284462,0.003801467,0.0,0.0,0.0,0.0,3932170,3932170,3997730,396825,0,0,165,1,0,1,0,3,0,0,0,0,0,0,0
71225884,71224941,6.571149e-08,4.3804124e-05,0.00097146584,0.0036332721,0.2171448,0.9854717,8389347,0,3.7622788,0.51753354,0.22962518,0.0,0.39833766,0.00621443,0.0,0.0,0.0,0.0,3932170,3932170,3997730,396825,0,0,165,1,0,1,0,3,0,0,0,0,0,0,0
71425484,71424625,6.581775e-08,4.3919463e-05,0.00097152,0.003321311,0.09101976,0.19271962,8389347,0,3.896814,0.51605314,0.22959256,0.0,0.39833766,0.003937108,0.0,0.0,0.0,0.0,3932170,3932170,3997730,396825,0,0,165,1,0,1,0,3,0,0,0,0,0,0,0
71621935,71619317,6.9313494e-08,4.618982e-05,0.0012690672,0.003374136,0.103680745,0.25461128,8389347,0,3.8835778,0.5135429,0.1895337,0.0,0.40186873,0.0034409736,0.0,0.0,0.0,0.0,3932170,3932170,3997730,396825,0,0,165,1,0,1,0,3,0,0,0,0,0,0,0
71819807,71819002,6.2992065e-08,5.3777516e-05,0.001962176,0.002745232,0.09328778,0.22736873,8389347,0,3.877788,0.5177452,0.2699668,0.0,0.404022,0.006782222,0.0,0.0,0.0,0.0,3932170,3932170,3997730,396825,0,0,165,1,0,1,0,3,0,0,0,0,0,0,0
72019534,72018686,5.6983026e-08,6.0865637e-05,0.0024591037,0.0030013716,0.10001299,0.25284365,8389347,0,3.8718195,0.5163196,0.24099582,0.0,0.40698513,0.0070963902,0.0,0.0,0.0,0.0,3932170,3932170,3997730,396825,0,0,165,1,0,1,0,3,0,0,0,0,0,0,0
72229216,72228353,4.2045098e-08,5.984629e-05,0.002645082,0.0035252003,0.09701895,0.23794718,8389347,0,3.8725166,0.5159125,0.25804818,0.0,0.40708932,0.007795777,0.0,0.0,0.0,0.0,3932170,3932170,3997730,396825,0,0,165,1,0,1,0,3,0,0,0,0,0,0,0
72430845,72428038,3.3333205e-08,5.816679e-05,0.0024281465,0.0038903826,0.088852525,0.22687715,8389347,0,3.8662486,0.5144657,0.26430652,0.0,0.40658343,0.0011606537,0.0,0.0,0.0,0.0,3932170,3932170,3997730,396825,0,0,165,1,0,1,0,3,0,0,0,0,0,0,0
72630064,72627725,2.9198779e-08,5.5995373e-05,0.002007778,0.0036978002,0.07306929,0.19991732,8389347,0,3.8597634,0.5186104,0.1814233,0.0,0.4068405,0.0049128546,0.0,0.0,0.0,0.0,3932170,3932170,3997730,396825,0,0,165,1,0,1,0,3,0,0,0,0,0,0,0
72828215,72827412,2.8031392e-08,5.722021e-05,0.001802796,0.0034842168,0.06362296,0.19031243,8389347,0,3.8528347,0.51711905,0.21343923,0.0,0.40740907,0.009069606,0.0,0.0,0.0,0.0,3932170,3932170,3997730,396825,0,0,165,1,0,1,0,3,0,0,0,0,0,0,0
73029695,73027092,3.166252e-08,5.52344e-05,0.0016349846,0.0037236004,0.06456404,0.20542888,8389347,0,3.8454373,0.5156397,0.24515156,0.0,0.40757018,0.009487326,0.0,0.0,0.0,0.0,3932170,3932170,3997730,396825,0,0,165,1,0,1,0,3,0,0,0,0,0,0,0
73227622,73226776,3.269061e-08,5.673934e-05,0.0015190896,0.0038888718,0.07109383,0.23740536,8389347,0,3.8377934,0.5141529,0.2612781,0.0,0.40679136,0.0131393755,0.0,0.0,0.0,0.0,3932170,3932170,3997730,396825,0,0,165,1,0,1,0,3,0,0,0,0,0,0,0
73427276,73426460,3.185989e-08,5.6571633e-05,0.0013689295,0.004076205,0.07351539,0.2614076,8389347,0,3.8298936,0.5182736,0.27847657,0.0,0.40556473,0.0019798102,0.0,0.0,0.0,0.0,3932170,3932170,3997730,396825,0,0,165,1,0,1,0,3,0,0,0,0,0,0,0
73628530,73626145,2.98307e-08,5.6026136e-05,0.0015078852,0.0046151117,0.09128322,0.32757714,8389347,0,3.8218086,0.51677465,0.32038322,0.0,0.4030302,0.003398753,0.0,0.0,0.0,0.0,3932170,3932170,3997730,396825,0,0,165,1,0,1,0,3,0,0,0,0,0,0,0
73826615,73825830,2.3783874e-08,5.36989e-05,0.0017162147,0.0037679777,0.075503096,0.30836722,8389267,0,3.813786,0.5152745,0.14208904,0.0,0.40050668,0.003568141,0.0,0.0,0.0,0.0,3932170,3932170,3997730,396825,0,0,165,1,0,1,0,3,0,0,0,0,0,0,0
74026376,74025514,2.2247807e-08,5.0746865e-05,0.0015920078,0.002578969,0.05741629,0.27392158,8389267,0,3.8057768,0.5137743,0.09333288,0.0,0.4033375,0.012549271,0.0,0.0,0.0,0.0,3932170,3932170,3997730,396825,0,0,165,1,0,1,0,3,0,0,0,0,0,0,0
74226180,74225199,2.0916328e-08,5.3234733e-05,0.0016533565,0.002222192,0.051463693,0.269724,8389267,0,3.7976365,0.51789594,0.09303205,0.0,0.40693063,0.001958819,0.0,0.0,0.0,0.0,3932170,3932170,3997730,396825,0,0,165,1,0,1,0,3,0,0,0,0,0,0,0
