timestamp,roll,pitch,yaw,thrust_body[0],thrust_body[1],thrust_body[2]
22224692,-0.013664808,-0.012515647,-1.5738695e-05,0.0,0.0,-0.0
22229754,-0.013429643,-0.012517805,2.0791274e-05,0.0,0.0,-0.0
22249688,-0.013453856,-0.012569209,-6.606451e-06,0.0,0.0,-0.0
22264705,-0.01354081,-0.012440829,-3.0635376e-05,0.0,0.0,-0.0
22284619,-0.013510825,-0.012742616,1.9083373e-05,0.0,0.0,-0.0
22309583,-0.013592344,-0.012496007,2.3433095e-05,0.0,0.0,-0.0
22329489,-0.013456315,-0.012177919,-8.191335e-05,0.0,0.0,-0.0
22344512,-0.0137350615,-0.012612648,-6.4623615e-05,0.0,0.0,-0.0
22369494,-0.013804613,-0.012267134,5.4835622e-05,0.0,0.0,-0.0
22389443,-0.0138110295,-0.012117994,-3.1848464e-05,0.0,0.0,-0.0
22404535,-0.013549674,-0.012316557,1.4905732e-05,0.0,0.0,-0.0
22429341,-0.0135043,-0.0120938225,-6.3109415e-05,0.0,0.0,-0.0
22449336,-0.0135874,-0.012194985,-3.549608e-05,0.0,0.0,-0.0
22469270,-0.013470899,-0.012072549,-4.422655e-05,0.0,0.0,-0.0
22484305,-0.013538718,-0.012294433,-1.1186484e-05,0.0,0.0,-0.0
22509257,-0.0133589525,-0.012126034,-5.0555136e-05,0.0,0.0,-0.0
22529258,-0.013459322,-0.011977879,-7.098136e-05,0.0,0.0,-0.0
22544231,-0.013314885,-0.011911849,-1.4481362e-05,0.0,0.0,-0.0
22569096,-0.013232798,-0.011959836,1.7312823e-06,0.0,0.0,-0.0
22589107,-0.0136658745,-0.012030985,-3.5512316e-05,0.0,0.0,-0.0
22609026,-0.013488825,-0.012069336,-8.764143e-05,0.0,0.0,-0.0
22623997,-0.013502158,-0.011959722,-3.9134968e-05,0.0,0.0,-0.0
22649026,-0.013581832,-0.011876049,-4.3079566e-05,0.0,0.0,-0.0
22668956,-0.013510665,-0.0119569395,-5.092191e-05,0.0,0.0,-0.0
22683907,-0.013454198,-0.011861448,-4.8364564e-05,0.0,0.0,-0.0
22708886,-0.013640166,-0.011862971,-4.9019603e-05,0.0,0.0,-0.0
22728925,-0.013449287,-0.011848192,-3.5908004e-05,0.0,0.0,-0.0
22748849,-0.013604347,-0.0119793555,-5.050958e-05,0.0,0.0,-0.0
22768832,-0.0133852875,-0.011920009,-5.0503913e-05,0.0,0.0,-0.0
22788840,-0.013644028,-0.011994251,-0.00010934133,0.0,0.0,-0.0
22808765,-0.013434465,-0.012160782,-0.00010069412,0.0,0.0,-0.0
22823671,-0.013396359,-0.011982772,-5.0531507e-05,0.0,0.0,-0.0
22848754,-0.013263158,-0.011866089,-1.4443784e-05,0.0,0.0,-0.0
22868704,-0.013378801,-0.012219749,-0.00014990322,0.0,0.0,-0.0
22888620,-0.013376193,-0.012092516,-4.1595355e-05,0.0,0.0,-0.0
22908590,-0.013355124,-0.011788708,-9.9434124e-05,0.0,0.0,-0.0
22928594,-0.0132271275,-0.011838983,-1.5825768e-05,0.0,0.0,-0.0
22948547,-0.01342845,-0.012060286,-6.4121945e-05,0.0,0.0,-0.019439252
22963441,-0.013128452,-0.011792565,-3.291182e-05,0.0,0.0,-0.03140187
22993415,-0.0133921,-0.011758522,-0.00024836537,0.0,0.0,-0.04838785
23008410,-0.013191801,-0.011726789,-0.00027879135,0.0,0.0,-0.05852804
23028364,-0.013476552,-0.011481607,-0.00030111248,0.0,0.0,-0.062149536
23048336,-0.013575914,-0.0113189025,-0.0003794585,0.0,0.0,-0.062149536
23068342,-0.012473783,-0.011481523,-0.0006829485,0.0,0.0,-0.070841126
23088284,-0.0141044855,-0.0127808945,-0.00095378526,0.0,0.0,-0.070841126
23108190,-0.015772125,-0.018729834,-0.0008702747,0.0,0.0,-0.070841126
23128268,-0.018701285,-0.02854317,-0.0007613155,0.0,0.0,-0.070841126
23148180,-0.018564729,-0.040057354,-0.0007384236,0.0,0.0,-0.070841126
23168217,-0.019670986,-0.049878486,-0.0010192884,0.0,0.0,-0.070841126
23188206,-0.02258463,-0.056776363,-0.0015379755,0.0,0.0,-0.070841126
23208162,-0.024879688,-0.06267308,-0.0020010823,0.0,0.0,-0.070841126
23228031,-0.027281122,-0.06905479,-0.002663197,0.0,0.0,-0.070841126
23248001,-0.031096242,-0.07010369,-0.0033241557,0.0,0.0,-0.070841126
23268013,-0.031141426,-0.06997654,-0.0040327115,0.0,0.0,-0.07156542
23287935,-0.024990048,-0.072497174,-0.00484699,0.0,0.0,-0.079532705
23307907,-0.016063705,-0.07905527,-0.0060953805,0.0,0.0,-0.08098131
23327931,-0.0068040695,-0.08273708,-0.007720869,0.0,0.0,-0.08315421
23347893,0.00040160172,-0.081658654,-0.009223621,0.0,0.0,-0.08315421
23367816,0.006556662,-0.08158567,-0.010679072,0.0,0.0,-0.086775705
23387793,0.012033713,-0.07888544,-0.012098308,0.0,0.0,-0.086775705
23407788,0.01651911,-0.080154434,-0.013666246,0.0,0.0,-0.086775705
23427718,0.023054238,-0.08433798,-0.01525713,0.0,0.0,-0.086775705
23447693,0.032789096,-0.09050062,-0.016693661,0.0,0.0,-0.086051404
23467805,0.042279534,-0.08935138,-0.017932443,0.0,0.0,-0.086775705
23487572,0.05063706,-0.07601887,-0.018890323,0.0,0.0,-0.086051404
23507534,0.058195695,-0.05226227,-0.019812562,0.0,0.0,-0.086051404
23527500,0.06485363,-0.027856043,-0.020510979,0.0,0.0,-0.086051404
23547514,0.06965197,-0.008765955,-0.02100044,0.0,0.0,-0.086775705
23567427,0.07230068,0.0031340464,-0.021503994,0.0,0.0,-0.086775705
23587405,0.072965,0.007197016,-0.021992588,0.0,0.0,-0.086775705
23607417,0.06771468,0.012294248,-0.02272053,0.0,0.0,-0.086775705
23627325,0.05838766,0.028971542,-0.023898406,0.0,0.0,-0.086051404
23647315,0.045577362,0.055868812,-0.025462825,0.0,0.0,-0.086051404
23667263,0.031080168,0.08984978,-0.027155802,0.0,0.0,-0.086775705
23687272,0.01628117,0.12451591,-0.029261649,0.0,0.0,-0.086775705
23707201,0.0029587804,0.15516213,-0.031539172,0.0,0.0,-0.086775705
23727159,-0.0074244984,0.18183415,-0.033987477,0.0,0.0,-0.086775705
23747183,-0.014284148,0.19542418,-0.036856376,0.0,0.0,-0.086775705
23767098,-0.017198741,0.19535193,-0.039995246,0.0,0.0,-0.086775705
23787079,-0.018712804,0.18366958,-0.043598022,0.0,0.0,-0.086051404
23807080,-0.016813984,0.16428775,-0.04735755,0.0,0.0,-0.086051404
23827042,-0.010984927,0.1362882,-0.050971173,0.0,0.0,-0.086051404
23846966,-0.0021723376,0.10760828,-0.05431313,0.0,0.0,-0.08242991
23866938,0.006517484,0.07896841,-0.057447776,0.0,0.0,-0.08098131
23886951,0.013827079,0.04994178,-0.06061352,0.0,0.0,-0.08170561
23906871,0.018164357,0.027122706,-0.06368892,0.0,0.0,-0.08170561
23926845,0.018296447,0.014356622,-0.066697806,0.0,0.0,-0.08170561
23946857,0.015195635,0.0037189284,-0.06978643,0.0,0.0,-0.08170561
23966784,0.009240735,-0.009154943,-0.07266741,0.0,0.0,-0.08098131
23986750,0.0019032812,-0.02605671,-0.07526339,0.0,0.0,-0.07735981
24006707,-0.0060951803,-0.044554304,-0.07775062,0.0,0.0,-0.069392525
24026716,-0.013192783,-0.0660855,-0.08001716,0.0,0.0,-0.070116825
24046652,-0.01929043,-0.08698371,-0.082105696,0.0,0.0,-0.070116825
24066610,-0.024384907,-0.10159103,-0.08412444,0.0,0.0,-0.070116825
24086630,-0.026761584,-0.108330965,-0.085892424,0.0,0.0,-0.07301402
24106559,-0.026995478,-0.10744918,-0.08764025,0.0,0.0,-0.07301402
24126514,-0.026545197,-0.10110918,-0.08920784,0.0,0.0,-0.07301402
24146474,-0.025870057,-0.09116062,-0.09075042,0.0,0.0,-0.07301402
24166499,-0.024790209,-0.08233749,-0.09193823,0.0,0.0,-0.07301402
24186460,-0.02448984,-0.07714743,-0.09282267,0.0,0.0,-0.07808411
24206421,-0.025315287,-0.07596913,-0.09349484,0.0,0.0,-0.08025701
24226425,-0.026503006,-0.07454688,-0.09390618,0.0,0.0,-0.08025701
24246355,-0.02635081,-0.06952876,-0.093956396,0.0,0.0,-0.08025701
24266267,-0.024400586,-0.06074963,-0.09368715,0.0,0.0,-0.08025701
24291255,-0.02184523,-0.046597406,-0.093317926,0.0,0.0,-0.08025701
24306252,-0.020906197,-0.03626121,-0.092929736,0.0,0.0,-0.08025701
24326182,-0.020171478,-0.02238133,-0.09231656,0.0,0.0,-0.08025701
24346144,-0.019703982,-0.012725374,-0.091247305,0.0,0.0,-0.0838785
24366144,-0.01922359,-0.0077526937,-0.089825235,0.0,0.0,-0.0875
24386084,-0.018485192,-0.005600159,-0.08812193,0.0,0.0,-0.0932944
24406065,-0.018081434,-0.0030051097,-0.08636251,0.0,0.0,-0.09836449
24431051,-0.015843937,0.0039194576,-0.083809875,0.0,0.0,-0.09764019
24445983,-0.013258692,0.01203519,-0.082165,0.0,0.0,-0.09764019
24465958,-0.009266734,0.022377156,-0.079886906,0.0,0.0,-0.09836449
24491001,-0.005579615,0.024536893,-0.076857954,0.0,0.0,-0.09836449
24505923,-0.006094071,0.018877752,-0.075151496,0.0,0.0,-0.09836449
24525855,-0.008476846,0.004893823,-0.07285463,0.0,0.0,-0.09908878
24545813,-0.011914644,-0.011439982,-0.07036288,0.0,0.0,-0.10271028
24570825,-0.017109595,-0.02732957,-0.06715565,0.0,0.0,-0.10488318
24585748,-0.021189768,-0.032823663,-0.06530032,0.0,0.0,-0.10488318
24605717,-0.02642892,-0.033551794,-0.062858775,0.0,0.0,-0.10560747
24630764,-0.030987846,-0.026292428,-0.059975415,0.0,0.0,-0.10560747
24645694,-0.033025023,-0.022357019,-0.05843015,0.0,0.0,-0.10560747
24665622,-0.03381958,-0.020233657,-0.056518905,0.0,0.0,-0.10633177
24685584,-0.032591283,-0.020629033,-0.05475893,0.0,0.0,-0.10705608
24710594,-0.028956387,-0.023514813,-0.05248264,0.0,0.0,-0.10705608
24725523,-0.026904369,-0.024810698,-0.051057905,0.0,0.0,-0.10705608
24745491,-0.024799429,-0.024016505,-0.049252503,0.0,0.0,-0.10705608
24770529,-0.02188051,-0.017533543,-0.046803594,0.0,0.0,-0.10705608
24785460,-0.019831419,-0.012583578,-0.045282885,0.0,0.0,-0.10705608
24805398,-0.018680317,-0.006602981,-0.04323082,0.0,0.0,-0.10705608
24830387,-0.01631663,-0.000610728,-0.04055806,0.0,0.0,-0.10705608
24850315,-0.01468852,0.002781129,-0.038577892,0.0,0.0,-0.10705608
24865302,-0.014019003,0.0035297214,-0.037034754,0.0,0.0,-0.10705608
24885259,-0.01155927,0.0011710055,-0.03494524,0.0,0.0,-0.10705608
24910201,-0.0094809,-0.0028111348,-0.013816616,0.0,0.0,-0.10415888
24925292,-0.007633483,-0.00330501,0.025357725,0.0,0.0,-0.10126168
24945194,-0.0057047624,-0.0024564215,0.029248178,0.0,0.0,-0.10126168
24970150,-0.0045039663,0.0014431124,0.08556812,0.0,0.0,-0.09908878
24990086,-0.0032781174,0.0067491527,0.091316976,0.0,0.0,-0.09908878
25005092,-0.003094095,0.01016285,0.15863097,0.0,0.0,-0.0932944
25025060,-0.0029473405,0.01243569,0.1913995,0.0,0.0,-0.09401869
25049983,-0.0024678514,0.011905698,0.2139392,0.0,0.0,-0.0932944
25064995,-0.0025710023,0.009403363,0.25722605,0.0,0.0,-0.0932944
25084969,-0.0022002696,0.0061585563,0.26573145,0.0,0.0,-0.0932944
25110024,-0.0022810823,0.004001975,0.27543905,0.0,0.0,-0.0932944
25129860,-0.0027401496,0.006666941,0.28901455,0.0,0.0,-0.0932944
25144862,-0.004231649,0.01052178,0.29436672,0.0,0.0,-0.0932944
25169837,-0.005443948,0.019629678,0.29656503,0.0,0.0,-0.0932944
25189755,-0.0058740913,0.028047394,0.30235752,0.0,0.0,-0.0932944
25204792,-0.0064498666,0.03320236,0.3064131,0.0,0.0,-0.0932944
25224747,-0.0071715945,0.038385447,0.31144416,0.0,0.0,-0.0932944
25249678,-0.007800436,0.043060582,0.3171879,0.0,0.0,-0.0896729
25269624,-0.009344779,0.045363907,0.32753167,0.0,0.0,-0.086775705
25284638,-0.009633671,0.04624519,0.3241221,0.0,0.0,-0.0846028
25309608,-0.010445268,0.047334857,0.3405457,0.0,0.0,-0.0846028
25329522,-0.010989511,0.048140652,0.34979346,0.0,0.0,-0.08242991
25344567,-0.011087516,0.04827111,0.36442143,0.0,0.0,-0.08098131
25364579,-0.01213371,0.04835963,0.36717087,0.0,0.0,-0.08098131
25389462,-0.012433248,0.047592063,0.3763486,0.0,0.0,-0.08098131
25409444,-0.012791401,0.04536808,0.3846584,0.0,0.0,-0.08098131
25424352,-0.012631519,0.044068653,0.38614962,0.0,0.0,-0.08098131
25449429,-0.011817683,0.04304097,0.3879619,0.0,0.0,-0.08170561
25469340,-0.010329627,0.042466763,0.38900962,0.0,0.0,-0.08242991
25484257,-0.009533426,0.042148367,0.38955888,0.0,0.0,-0.08242991
25509328,-0.007127845,0.04236495,0.38990724,0.0,0.0,-0.08315421
25529241,-0.0050658113,0.041760024,0.3898793,0.0,0.0,-0.08315421
25549213,-0.00484882,0.040055703,0.39583835,0.0,0.0,-0.08315421
25564122,-0.004702132,0.03791687,0.39569098,0.0,0.0,-0.08315421
25589203,-0.0059483945,0.034240257,0.40769425,0.0,0.0,-0.08315421
25609087,-0.007898324,0.031255487,0.41369966,0.0,0.0,-0.08315421
25624020,-0.009625576,0.029390262,0.4196243,0.0,0.0,-0.08315421
25649106,-0.012543633,0.020606022,0.42517275,0.0,0.0,-0.08315421
25668968,-0.013656089,0.012441335,0.4309148,0.0,0.0,-0.0838785
25688937,-0.0145490095,0.008690192,0.4364283,0.0,0.0,-0.0846028
25703924,-0.014682494,0.00862531,0.43593228,0.0,0.0,-0.0846028
25728917,-0.015017418,0.0007935283,0.43435964,0.0,0.0,-0.0846028
25748855,-0.014609129,-0.00043189447,0.43290287,0.0,0.0,-0.0846028
25763817,-0.015290138,-0.0020671014,0.43155792,0.0,0.0,-0.0846028
25788887,-0.016884005,-0.0026367465,0.42897487,0.0,0.0,-0.086051404
25808771,-0.018755566,0.0012670294,0.42655984,0.0,0.0,-0.0882243
25823764,-0.020182092,0.006852836,0.42455623,0.0,0.0,-0.0896729
25848730,-0.021405976,0.0061313966,0.42086977,0.0,0.0,-0.091121495
25868639,-0.007149608,0.0117218355,0.4177354,0.0,0.0,-0.091121495
25888603,0.0012611629,0.014612104,0.41431427,0.0,0.0,-0.091121495
25903618,0.002409493,0.017062081,0.41165972,0.0,0.0,-0.091121495
25928577,0.019919543,0.017631967,0.40690544,0.0,0.0,-0.091121495
25948513,0.02612053,0.011465197,0.4091572,0.0,0.0,-0.091121495
25968479,0.028156966,0.009349504,0.40530753,0.0,0.0,-0.091121495
25988493,0.029502958,0.0051136594,0.40770882,0.0,0.0,-0.091121495
26008426,0.018234782,-0.0043612015,0.41654214,0.0,0.0,-0.091121495
26028381,-0.0017577629,-0.016634624,0.41912884,0.0,0.0,-0.091121495
26048406,-0.015244774,-0.026276369,0.42810962,0.0,0.0,-0.091121495
26068376,-0.01695506,-0.02875048,0.4247536,0.0,0.0,-0.091121495
26088272,-0.016976897,-0.0575943,0.43380386,0.0,0.0,-0.091121495
26108242,-0.014930134,-0.08825682,0.4368302,0.0,0.0,-0.091121495
26128249,-0.011719919,-0.10352347,0.43370518,0.0,0.0,-0.091121495
26148190,-0.0079692425,-0.11574495,0.4242333,0.0,0.0,-0.091121495
26168139,-0.004096136,-0.11671627,0.42058954,0.0,0.0,-0.091121495
26188162,-0.0003837,-0.11703659,0.4168153,0.0,0.0,-0.091121495
26208084,0.0025308994,-0.11298798,0.40055233,0.0,0.0,-0.09257009
26228040,0.00456627,-0.104369074,0.39607504,0.0,0.0,-0.09257009
26248030,0.0056692334,-0.102409825,0.38508052,0.0,0.0,-0.096191585
26268016,0.0058756275,-0.09254116,0.3802443,0.0,0.0,-0.09691589
26287947,0.0050642397,-0.09783162,0.36913493,0.0,0.0,-0.09691589
26307909,0.0038981289,-0.09972762,0.3640129,0.0,0.0,-0.09691589
26327933,0.0023742246,-0.094755724,0.36527327,0.0,0.0,-0.09691589
26347881,0.0006148831,-0.08599977,0.3606477,0.0,0.0,-0.09691589
26367937,-0.00087008765,-0.077653386,0.34963602,0.0,0.0,-0.09691589
26387886,-0.0015647087,-0.061392833,0.34467292,0.0,0.0,-0.09691589
26407835,-0.0021728964,-0.04146124,0.3334779,0.0,0.0,-0.09691589
26427755,-0.002000902,-0.02509513,0.3221547,0.0,0.0,-0.09691589
26447733,2.5703186e-05,-0.015145521,0.31686693,0.0,0.0,-0.09691589
26467737,0.0017475468,-0.00023148744,0.30534574,0.0,0.0,-0.09691589
26487661,0.003758641,0.01135864,0.30022377,0.0,0.0,-0.09691589
26507585,0.0058325343,0.021154486,0.282502,0.0,0.0,-0.09691589
26527619,0.0076123686,0.028238382,0.2771439,0.0,0.0,-0.09691589
26547576,0.009200622,0.025455259,0.27201885,0.0,0.0,-0.09691589
26567484,0.010895246,0.06958918,0.26703626,0.0,0.0,-0.09836449
26587462,0.012248244,0.086589895,0.26227033,0.0,0.0,-0.10053739
26607459,0.013625818,0.10511339,0.2515986,0.0,0.0,-0.10198598
26627382,0.01442367,0.13311996,0.2532024,0.0,0.0,-0.10198598
26647360,0.014812544,0.13301556,0.24905393,0.0,0.0,-0.10198598
26667372,0.015390462,0.13959771,0.24513966,0.0,0.0,-0.10198598
26687300,0.0155930305,0.13450694,0.24149379,0.0,0.0,-0.10198598
26707260,0.01695473,0.1281263,0.23805742,0.0,0.0,-0.10198598
26727236,0.018016668,0.1314646,0.23472509,0.0,0.0,-0.10198598
26747228,0.019733109,0.15213807,0.22541033,0.0,0.0,-0.10198598
26767142,0.021917254,0.1642046,0.22248964,0.0,0.0,-0.10053739
26787111,0.02328161,0.15394919,0.21342668,0.0,0.0,-0.095467284
26807139,0.065573424,0.14271124,0.20424598,0.0,0.0,-0.0875
26827046,0.071748234,0.13293192,0.20175494,0.0,0.0,-0.0875
26847033,0.0684343,0.12389729,0.19960286,0.0,0.0,-0.0875
26866993,0.06111083,0.11363612,0.19788031,0.0,0.0,-0.0875
26887004,0.038823787,0.09520023,0.19656862,0.0,0.0,-0.08894859
26906924,0.018549858,0.07144632,0.19561704,0.0,0.0,-0.091845796
26926899,0.011289681,0.04271622,0.19471587,0.0,0.0,-0.09257009
26946902,0.0045866105,0.025904277,0.19418661,0.0,0.0,-0.09257009
26966824,-0.002817516,-0.0035238953,0.18779437,0.0,0.0,-0.09257009
26986828,-0.007849536,-0.012084502,0.18753764,0.0,0.0,-0.09257009
27006877,-0.011754764,-0.03704872,0.17488112,0.0,0.0,-0.091121495
27026827,-0.014598684,-0.056399897,0.16840309,0.0,0.0,-0.0903972
27046737,-0.015479522,-0.07766095,0.16207269,0.0,0.0,-0.0903972
27066719,-0.015186072,-0.086085014,0.1620701,0.0,0.0,-0.0903972
27086715,-0.01316376,-0.0888109,0.16243073,0.0,0.0,-0.0903972
27106636,-0.010913731,-0.09324849,0.16307792,0.0,0.0,-0.0903972
27126607,-0.008877692,-0.091005616,0.16388464,0.0,0.0,-0.0903972
27146626,-0.0054484694,-0.0828585,0.16494586,0.0,0.0,-0.0903972
27166572,-0.0022419752,-0.07650745,0.16621962,0.0,0.0,-0.0903972
27186503,0.00031776124,-0.069319,0.16769348,0.0,0.0,-0.0903972
27206474,0.0033147961,-0.05825734,0.16926715,0.0,0.0,-0.0903972
27231382,0.0056820298,-0.049140036,0.17154641,0.0,0.0,-0.0903972
27246421,0.0063968664,-0.042293236,0.17289549,0.0,0.0,-0.0903972
27266394,0.0071482,-0.037644804,0.17480637,0.0,0.0,-0.0903972
27286397,0.00842874,-0.030457942,0.17683041,0.0,0.0,-0.0903972
27306408,0.010127944,-0.023659674,0.1790023,0.0,0.0,-0.0903972
27326288,0.011642102,-0.009569184,0.17476088,0.0,0.0,-0.0903972
27346307,0.013203733,-0.0034456141,0.17664115,0.0,0.0,-0.0903972
27371165,0.0156102795,-0.003927017,0.17288162,0.0,0.0,-0.0903972
27386137,0.017527444,-0.00011107552,0.1742687,0.0,0.0,-0.0903972
27406111,0.019671451,0.0040050903,0.17622957,0.0,0.0,-0.0903972
27426113,0.020537911,0.0036328596,0.18451066,0.0,0.0,-0.0903972
27446041,0.020668795,0.003061781,0.19310956,0.0,0.0,-0.091845796
27466008,0.02032577,0.002692391,0.19575049,0.0,0.0,-0.09257009
27486100,0.020371798,0.005879674,0.19845793,0.0,0.0,-0.09257009
27510949,0.020372821,0.009274559,0.20196788,0.0,0.0,-0.09257009
27525957,0.020362051,0.010844154,0.2040533,0.0,0.0,-0.09257009
27545884,0.019769052,0.011654664,0.20691082,0.0,0.0,-0.0932944
27570877,0.018443696,0.018914737,0.21039093,0.0,0.0,-0.0932944
27585824,0.017296145,0.022177644,0.21252762,0.0,0.0,-0.0932944
27605785,0.016068585,0.024859482,0.21528456,0.0,0.0,-0.0932944
27625807,0.014843714,0.024354205,0.21810016,0.0,0.0,-0.0932944
27650703,0.012582765,0.020284204,0.22157784,0.0,0.0,-0.0932944
27665684,0.015081105,0.023714222,0.22363849,0.0,0.0,-0.0932944
27685644,0.02464873,0.026771387,0.22625656,0.0,0.0,-0.0932944
27710634,0.037383396,0.021918297,0.22952987,0.0,0.0,-0.0932944
27725607,0.036280952,0.021167884,0.2314526,0.0,0.0,-0.0932944
27745606,0.038470034,0.015564078,0.2339464,0.0,0.0,-0.0932944
27770530,0.036437605,0.012755179,0.23706403,0.0,0.0,-0.0932944
27790487,0.034169436,0.010573814,0.23937492,0.0,0.0,-0.0932944
27805498,0.039292663,0.0017814253,0.24097364,0.0,0.0,-0.0932944
27825499,0.039952222,0.00048221365,0.24305964,0.0,0.0,-0.0932944
27850376,0.040451296,-0.00018123299,0.24560134,0.0,0.0,-0.0932944
27865391,0.04986924,-0.00047588372,0.24695212,0.0,0.0,-0.0932944
27885342,0.047754176,-0.004609056,0.24880725,0.0,0.0,-0.09401869
27910285,0.04871348,-0.012633821,0.2510753,0.0,0.0,-0.09401869
27925335,0.046758574,-0.016609343,0.25240624,0.0,0.0,-0.09474299
27945323,0.04386857,-0.016851608,0.25409022,0.0,0.0,-0.09474299
27965285,0.037063267,-0.02367844,0.25574023,0.0,0.0,-0.09474299
27990155,0.032916497,-0.032732006,0.25156963,0.0,0.0,-0.09474299
28005175,0.030762015,-0.030654665,0.25245205,0.0,0.0,-0.09474299
28025130,0.031108791,-0.034722075,0.24729075,0.0,0.0,-0.09474299
28050056,0.030664183,-0.033948068,0.23562647,0.0,0.0,-0.09401869
28070015,0.028220804,-0.033991553,0.23601435,0.0,0.0,-0.08894859
28085053,0.030429857,-0.035118293,0.23631515,0.0,0.0,-0.0875
28105051,0.028679218,-0.0354089,0.23054194,0.0,0.0,-0.0875
28129918,0.027134862,-0.030884333,0.23083532,0.0,0.0,-0.086775705
28144954,0.02642836,-0.027782852,0.23091441,0.0,0.0,-0.086775705
28164911,0.025937978,-0.026453013,0.23748942,0.0,0.0,-0.086775705
28189820,0.025162147,-0.019934963,0.23799059,0.0,0.0,-0.086775705
28209785,0.02487947,-0.014671144,0.2383527,0.0,0.0,-0.086775705
28224754,0.024853736,-0.010954055,0.2387012,0.0,0.0,-0.086775705
28249726,0.017757585,-0.017888566,0.2393674,0.0,0.0,-0.086775705
28269689,0.01808442,-0.023536108,0.23981139,0.0,0.0,-0.0875
28284679,0.018261056,-0.02307944,0.24015966,0.0,0.0,-0.0875
28304618,0.0075162062,-0.0339751,0.24075718,0.0,0.0,-0.08894859
28329702,0.004184448,-0.040923975,0.24142008,0.0,0.0,-0.0896729
28349645,0.0005812022,-0.050566792,0.24193776,0.0,0.0,-0.091121495
28364525,-0.0030866382,-0.056413233,0.24246272,0.0,0.0,-0.091845796
28389535,-0.014467292,-0.051682662,0.24326877,0.0,0.0,-0.09257009
28409490,-0.029349662,-0.046916362,0.24397947,0.0,0.0,-0.09257009
28424425,-0.03933642,-0.035547998,0.25705218,0.0,0.0,-0.095467284
28444453,-0.04175772,-0.011862648,0.25807425,0.0,0.0,-0.09764019
28469390,-0.038620576,0.00536254,0.25923514,0.0,0.0,-0.09836449
28489375,-0.03466226,0.01733173,0.26008263,0.0,0.0,-0.09981308
28504301,-0.030992582,0.020059366,0.2607485,0.0,0.0,-0.09981308
28529296,-0.024024729,0.027035424,0.26169077,0.0,0.0,-0.09981308
28549270,-0.018164653,0.02870363,0.2624376,0.0,0.0,-0.09981308
28564223,-0.013790937,0.033267558,0.2629579,0.0,0.0,-0.09981308
28589213,-0.007345275,0.03426456,0.26367572,0.0,0.0,-0.09981308
28609185,-0.0027964835,0.0308694,0.2641692,0.0,0.0,-0.09981308
28624092,-5.7460496e-05,0.027040733,0.2646039,0.0,0.0,-0.09981308
28644055,0.0033331385,0.026324544,0.26499784,0.0,0.0,-0.09981308
28669072,0.0073132967,0.021327276,0.26549995,0.0,0.0,-0.10415888
28689056,0.010328021,0.023457024,0.2658085,0.0,0.0,-0.10633177
28703965,0.0127001805,0.021656347,0.26611567,0.0,0.0,-0.10633177
28728974,0.01663979,0.025778336,0.2665667,0.0,0.0,-0.107780375
28748900,0.018934589,0.026676448,0.26694435,0.0,0.0,-0.107780375
28768914,0.020239942,0.024428897,0.2674295,0.0,0.0,-0.107780375
28788881,0.020942904,0.030632427,0.26779807,0.0,0.0,-0.107780375
28808803,0.021150822,0.044708863,0.26818705,0.0,0.0,-0.107780375
28828773,0.020651214,0.06624513,0.26844004,0.0,0.0,-0.107780375
28843798,0.019597145,0.083664924,0.26858398,0.0,0.0,-0.107780375
28868702,0.054702777,0.07564366,0.26863515,0.0,0.0,-0.107780375
28888669,0.06797031,0.06539166,0.26875317,0.0,0.0,-0.107780375
28908693,0.0769094,0.053141408,0.26891896,0.0,0.0,-0.107780375
28928655,0.08833367,0.04406775,0.2690913,0.0,0.0,-0.107780375
28948659,0.07724586,0.020892223,0.26948303,0.0,0.0,-0.103434585
28968538,0.06933948,0.021657841,0.26984167,0.0,0.0,-0.10271028
28983575,0.06559181,0.01809429,0.27000642,0.0,0.0,-0.10271028
29008475,0.062379584,0.03670164,0.27679268,0.0,0.0,-0.10271028
29028438,0.06360643,0.034861032,0.27722368,0.0,0.0,-0.10271028
29048452,0.06485382,0.04748885,0.27766576,0.0,0.0,-0.10271028
29068387,0.058661513,0.044582214,0.27828288,0.0,0.0,-0.10271028
29088338,0.056210738,0.04077178,0.27874506,0.0,0.0,-0.10271028
29108307,0.054312777,0.029401433,0.27924955,0.0,0.0,-0.10271028
29128326,0.052841417,0.014312867,0.2797358,0.0,0.0,-0.10271028
29148230,0.047932196,0.011474687,0.28025493,0.0,0.0,-0.10271028
29168207,0.03588503,0.0025071488,0.2808374,0.0,0.0,-0.10271028
29188224,0.020279037,0.0026192851,0.2876121,0.0,0.0,-0.10271028
29208172,0.015380957,0.014752412,0.2882811,0.0,0.0,-0.10271028
29228158,0.028506443,0.041626815,0.28224126,0.0,0.0,-0.10271028
29248170,0.034767848,0.045828145,0.28856272,0.0,0.0,-0.10271028
29268141,0.026246302,0.049233634,0.28899997,0.0,0.0,-0.10271028
29288053,0.022077227,0.047512133,0.28937018,0.0,0.0,-0.10271028
29308029,-0.0001473065,0.041284867,0.28973737,0.0,0.0,-0.10271028
29328029,-0.010367481,0.038920935,0.29006454,0.0,0.0,-0.10271028
29347968,-0.030700896,0.03335006,0.29043394,0.0,0.0,-0.10271028
29367920,-0.04238415,0.0316876,0.2906456,0.0,0.0,-0.10126168
29387951,-0.04191567,0.033719976,0.29066706,0.0,0.0,-0.0932944
29407879,-0.043991953,0.03588256,0.29692984,0.0,0.0,-0.091845796
29427818,-0.038377754,0.034009602,0.29715183,0.0,0.0,-0.091121495
29447795,-0.03594109,0.03185116,0.29731378,0.0,0.0,-0.091121495
29467799,-0.036769737,0.026189081,0.2974946,0.0,0.0,-0.091121495
29487741,-0.03342763,0.021111326,0.2976126,0.0,0.0,-0.091121495
29507704,-0.029638242,0.02044632,0.29757524,0.0,0.0,-0.091121495
29527724,-0.036339648,0.012961795,0.29753155,0.0,0.0,-0.091121495
29547639,-0.04982716,0.012813113,0.29744926,0.0,0.0,-0.091121495
29567645,-0.055454608,0.011509132,0.29724798,0.0,0.0,-0.091121495
29587696,-0.05340056,0.024250275,0.29685286,0.0,0.0,-0.091121495
29607575,-0.04753484,0.051172066,0.29640022,0.0,0.0,-0.091121495
29627507,-0.041199945,0.059145305,0.29599887,0.0,0.0,-0.091121495
29647479,-0.03474908,0.073834345,0.29546252,0.0,0.0,-0.091121495
29667486,-0.028268423,0.08445087,0.2886987,0.0,0.0,-0.091121495
29687404,-0.021609044,0.083594196,0.2879739,0.0,0.0,-0.091121495
29707387,-0.015134985,0.093137145,0.28711167,0.0,0.0,-0.091121495
29727386,-0.008908638,0.08710118,0.2862468,0.0,0.0,-0.091121495
29747327,-0.0027390427,0.069378845,0.28537124,0.0,0.0,-0.091121495
29767220,0.0031196796,0.06189486,0.28444266,0.0,0.0,-0.091121495
29787194,0.008579984,0.03473199,0.28351086,0.0,0.0,-0.091121495
29807218,0.013169703,0.0108806435,0.2825385,0.0,0.0,-0.091121495
29827121,0.016643707,-0.00906961,0.2880203,0.0,0.0,-0.091845796
29847092,0.018777918,-0.024358641,0.28725457,0.0,0.0,-0.09257009
29867118,0.019922042,-0.033944823,0.28651163,0.0,0.0,-0.09257009
29887046,0.02033853,-0.044419713,0.28574967,0.0,0.0,-0.09257009
29906990,0.020287529,-0.067273445,0.28501529,0.0,0.0,-0.09257009
29926975,0.02002587,-0.08074057,0.28424504,0.0,0.0,-0.09257009
29946963,0.019382048,-0.078376345,0.27727023,0.0,0.0,-0.096191585
29966900,0.018485544,-0.09113739,0.2763651,0.0,0.0,-0.09836449
29986867,0.017416542,-0.088963926,0.27548844,0.0,0.0,-0.09836449
30006907,0.016351912,-0.08962739,0.27460942,0.0,0.0,-0.09836449
30026825,0.015535469,-0.096419536,0.267372,0.0,0.0,-0.09836449
30046838,0.015049192,-0.097860195,0.25988606,0.0,0.0,-0.09836449
30066822,0.01462739,-0.09800747,0.24591202,0.0,0.0,-0.09836449
30086753,0.015106337,-0.089190945,0.2443206,0.0,0.0,-0.09836449
30106688,0.015940221,-0.08683723,0.24282269,0.0,0.0,-0.09836449
30126685,0.016209409,-0.076357655,0.23506163,0.0,0.0,-0.09836449
30146715,0.01614367,-0.065876864,0.23348151,0.0,0.0,-0.09836449
30166614,0.016048849,-0.052390642,0.2320715,0.0,0.0,-0.09836449
30186596,0.016206974,-0.04346738,0.23071086,0.0,0.0,-0.09836449
30211526,0.016357215,-0.02990839,0.22917843,0.0,0.0,-0.09836449
30231470,0.01618911,-0.00816845,0.2279643,0.0,0.0,-0.09836449
30246470,0.016075045,-0.0036140177,0.22707859,0.0,0.0,-0.09836449
30266457,0.016296394,0.0051956675,0.21955934,0.0,0.0,-0.09764019
30291359,0.031455606,0.01798768,0.211475,0.0,0.0,-0.0932944
30306370,0.0314318,0.020932257,0.21039346,0.0,0.0,-0.0932944
30326354,0.046101995,0.024075244,0.20258732,0.0,0.0,-0.0932944
30346385,0.050003592,0.02641843,0.19472794,0.0,0.0,-0.09257009
30371245,0.05078009,0.031217864,0.19911222,0.0,0.0,-0.09257009
30386255,0.061721627,0.03819281,0.19807784,0.0,0.0,-0.09257009
30406220,0.06454215,0.037058152,0.19681165,0.0,0.0,-0.09257009
30426227,0.06279291,0.035359643,0.19574566,0.0,0.0,-0.09257009
30446167,0.0640603,0.03314721,0.19473282,0.0,0.0,-0.09257009
30466130,0.07197611,0.02369291,0.19366959,0.0,0.0,-0.09257009
30486149,0.075728774,0.021679386,0.19268395,0.0,0.0,-0.09257009
30506139,0.07160707,0.019273918,0.1918522,0.0,0.0,-0.09257009
30531026,0.06963533,0.0155196525,0.18468776,0.0,0.0,-0.09257009
30546065,0.0660147,0.012849799,0.1839762,0.0,0.0,-0.09257009
30566032,0.060713142,0.0089753205,0.18312502,0.0,0.0,-0.09257009
30590876,0.053737808,0.015823705,0.18224065,0.0,0.0,-0.09257009
30605910,0.04531732,0.017828116,0.1754211,0.0,0.0,-0.09257009
30625921,0.03964877,0.015882332,0.17468604,0.0,0.0,-0.08894859
30645859,0.026423628,0.018165762,0.16149986,0.0,0.0,-0.0875
30665801,0.016941996,0.016540833,0.15418407,0.0,0.0,-0.0875
30685807,0.0044783126,0.014289154,0.15312406,0.0,0.0,-0.0875
30705725,-0.0031465832,0.007975285,0.1522034,0.0,0.0,-0.0875
30725656,-0.0208078,0.005307096,0.15153533,0.0,0.0,-0.0875
30745620,-0.04873452,0.0026548007,0.15106323,0.0,0.0,-0.0875
30765618,-0.049995493,-0.00046788718,0.15049043,0.0,0.0,-0.0875
30785567,-0.057056982,-0.0029913941,0.1501578,0.0,0.0,-0.0875
30805541,-0.05527777,-0.012701216,0.14991581,0.0,0.0,-0.0875
30825555,-0.052359372,-0.022084951,0.14980827,0.0,0.0,-0.0875
30845459,-0.048355635,-0.023489725,0.14978619,0.0,0.0,-0.0875
30865426,-0.04388953,-0.024092894,0.14362979,0.0,0.0,-0.0875
30885386,-0.038440548,-0.02367317,0.14362217,0.0,0.0,-0.0875
30905386,-0.032897905,-0.022754133,0.14376538,0.0,0.0,-0.0875
30930344,-0.026484199,-0.021350136,0.14401612,0.0,0.0,-0.0875
30945287,-0.022795016,-0.02506108,0.14434986,0.0,0.0,-0.0875
30965310,-0.018006615,-0.03281968,0.1448128,0.0,0.0,-0.0875
30990267,-0.011791213,-0.04188823,0.14556746,0.0,0.0,-0.0875
31005235,-0.008082287,-0.042826332,0.14611565,0.0,0.0,-0.0875
31025257,-0.004402207,-0.054607686,0.14695947,0.0,0.0,-0.0875
31045208,-0.0013646283,-0.06093826,0.15423645,0.0,0.0,-0.0875
31070091,0.0016508547,-0.067406125,0.15580425,0.0,0.0,-0.0875
31085095,0.0033786953,-0.06654881,0.15678811,0.0,0.0,-0.0875
31105100,0.0055839675,-0.060024016,0.15814018,0.0,0.0,-0.0875
31129984,0.007955321,-0.051464856,0.15991877,0.0,0.0,-0.0875
31150007,0.009423253,-0.045426697,0.16146523,0.0,0.0,-0.0875
31165036,0.010228174,-0.041990653,0.1625932,0.0,0.0,-0.0875
31184975,0.010933801,-0.034239274,0.15794136,0.0,0.0,-0.0875
31209973,0.0114663355,-0.03466556,0.15345989,0.0,0.0,-0.0875
31224883,0.011548684,-0.03307156,0.14187273,0.0,0.0,-0.0875
31244887,0.012276368,-0.031059096,0.14255406,0.0,0.0,-0.0875
31269764,0.01325732,-0.025102153,0.13698915,0.0,0.0,-0.0875
31289785,0.014254984,-0.023230117,0.13751246,0.0,0.0,-0.0875
31304800,0.015139929,-0.014953596,0.13794957,0.0,0.0,-0.0875
31329680,0.016430859,-0.013726539,0.13879798,0.0,0.0,-0.0875
31349642,0.01740348,-0.009985597,0.13952836,0.0,0.0,-0.0875
31364701,0.018136878,-0.0098505905,0.14009999,0.0,0.0,-0.0875
31384670,0.018784331,-0.002629638,0.13469462,0.0,0.0,-0.08894859
31409536,0.018975172,-0.0025910556,0.13550083,0.0,0.0,-0.0903972
31429570,0.0187621,-0.0030666473,0.13610724,0.0,0.0,-0.0903972
31444662,0.018138984,-0.0037323865,0.13665119,0.0,0.0,-0.0903972
31464424,0.017177518,-0.0046783234,0.13744242,0.0,0.0,-0.0903972
31489446,0.0155814765,-0.002563944,0.13839172,0.0,0.0,-0.0903972
31504381,0.01445538,-0.0037548877,0.13899218,0.0,0.0,-0.0903972
31529343,0.013071108,0.00840427,0.14008862,0.0,0.0,-0.0903972
31549303,0.011949193,0.009503358,0.14097859,0.0,0.0,-0.091121495
31569306,0.010843963,0.0063439286,0.14193054,0.0,0.0,-0.091121495
31584289,0.010285456,0.0071965083,0.14268434,0.0,0.0,-0.091121495
31609239,0.009515292,0.0024081084,0.14392057,0.0,0.0,-0.091121495
31629266,0.009203976,-0.0013678896,0.14494406,0.0,0.0,-0.091845796
31644205,0.009208738,-0.011532913,0.1457109,0.0,0.0,-0.09257009
31669150,0.009223332,-0.016852729,0.14696433,0.0,0.0,-0.09257009
31689118,0.009251201,-0.021567367,0.1479761,0.0,0.0,-0.09257009
31709127,0.009387271,-0.022131514,0.14900059,0.0,0.0,-0.095467284
31724115,0.009266153,-0.024892462,0.14970541,0.0,0.0,-0.09691589
31749013,0.00820004,-0.023602704,0.15083414,0.0,0.0,-0.09908878
31769026,0.006759887,-0.023389414,0.15173337,0.0,0.0,-0.09981308
31783966,0.0052459068,-0.021901429,0.14613858,0.0,0.0,-0.09981308
31808928,0.0026725659,-0.017469054,0.1467914,0.0,0.0,-0.09981308
31823855,0.0011284878,-0.014306997,0.1471297,0.0,0.0,-0.09981308
31853810,-0.0009835388,-0.022905316,0.14774215,0.0,0.0,-0.09981308
31873778,0.0023589917,-0.019677084,0.14801659,0.0,0.0,-0.09981308
31888793,0.0024285198,-0.017700978,0.14825627,0.0,0.0,-0.09981308
31908818,0.0018925208,-0.019126749,0.14855863,0.0,0.0,-0.09981308
31923749,0.012376991,-0.02108824,0.1487218,0.0,0.0,-0.09981308
31948704,0.022162838,-0.02060403,0.14891562,0.0,0.0,-0.09981308
31968715,0.024738682,-0.023584219,0.14911486,0.0,0.0,-0.09981308
31988670,0.019382294,-0.022519426,0.14937405,0.0,0.0,-0.10271028
32008609,0.013238277,-0.017208632,0.14958255,0.0,0.0,-0.10415888
32028570,-0.0007365712,-0.019686796,0.14980175,0.0,0.0,-0.10560747
32048574,-0.010611526,-0.01573042,0.15001585,0.0,0.0,-0.10560747
32063598,-0.015751328,-0.013517677,0.15019947,0.0,0.0,-0.10633177
32088470,-0.017919805,-0.0028507914,0.1502614,0.0,0.0,-0.10633177
32108480,-0.019241942,0.0040233377,0.1502814,0.0,0.0,-0.10633177
32128408,-0.018852899,0.015065683,0.15034649,0.0,0.0,-0.10633177
32148396,-0.017444806,0.018862791,0.1504111,0.0,0.0,-0.10633177
32168278,-0.015761359,0.022368219,0.15045083,0.0,0.0,-0.10633177
32188307,-0.013116835,0.028683396,0.15045469,0.0,0.0,-0.10633177
32208227,-0.009694025,0.029908191,0.15052481,0.0,0.0,-0.10633177
32228194,-0.0073959944,0.034198873,0.15053731,0.0,0.0,-0.10633177
32248214,-0.006235317,0.034313254,0.15050286,0.0,0.0,-0.10633177
32263227,-0.004948067,0.034463253,0.15053387,0.0,0.0,-0.10633177
32288080,-0.0028437632,0.03484457,0.15057692,0.0,0.0,-0.10633177
32308049,-0.0017036219,0.031460166,0.15050963,0.0,0.0,-0.10633177
32328065,0.0010172883,0.027126439,0.1504728,0.0,0.0,-0.10633177
32347989,0.00462917,0.021455424,0.1504879,0.0,0.0,-0.10633177
32367971,0.006892975,0.018609827,0.15042932,0.0,0.0,-0.10633177
32387975,0.009182798,0.015095193,0.15039746,0.0,0.0,-0.10488318
32407906,0.011372636,0.012017132,0.15041979,0.0,0.0,-0.10415888
32427852,0.011420471,0.013444687,0.14415433,0.0,0.0,-0.10271028
32447884,0.0104623465,0.019631673,0.13766855,0.0,0.0,-0.10198598
32472792,0.009947645,0.018949786,0.13708574,0.0,0.0,-0.10053739
32487772,0.009036884,0.018999591,0.13670208,0.0,0.0,-0.10053739
32507738,0.008143644,0.026545417,0.1362183,0.0,0.0,-0.09981308
32527744,0.008954716,0.0411321,0.13582422,0.0,0.0,-0.09981308
32547691,0.009968762,0.040123843,0.13539104,0.0,0.0,-0.09981308
32567675,0.011128037,0.038298704,0.13495201,0.0,0.0,-0.09981308
32587745,0.012980328,0.035764996,0.12826048,0.0,0.0,-0.09981308
32607693,0.0150567,0.03288419,0.12149369,0.0,0.0,-0.096191585
32627586,0.015654232,0.029462827,0.11453112,0.0,0.0,-0.0903972
32647561,0.015181817,0.026027657,0.113612115,0.0,0.0,-0.08894859
32667543,0.014478839,0.022878116,0.112785615,0.0,0.0,-0.0882243
32687490,0.016658051,0.027828285,0.10577338,0.0,0.0,-0.0882243
32707452,0.026137803,0.021892453,0.11094665,0.0,0.0,-0.0882243
32727458,0.024094997,0.01967203,0.11038602,0.0,0.0,-0.0882243
32747386,0.03386717,0.013244934,0.116154686,0.0,0.0,-0.0882243
32767355,0.040788602,0.0103386855,0.12229581,0.0,0.0,-0.0882243
32787394,0.0439324,0.01807479,0.12239428,0.0,0.0,-0.0882243
32807324,0.046448465,0.017939003,0.12250957,0.0,0.0,-0.0882243
32827250,0.040806927,0.014089908,0.12271602,0.0,0.0,-0.0882243
32847213,0.038039804,0.010875888,0.12291749,0.0,0.0,-0.0882243
32867232,0.03076629,0.0077008936,0.123225674,0.0,0.0,-0.0882243
32887156,0.026886912,0.004579051,0.12356547,0.0,0.0,-0.0882243
32907112,0.019057231,0.0013239139,0.12389758,0.0,0.0,-0.0882243
32927141,0.0075938767,-0.0052999877,0.12434018,0.0,0.0,-0.0882243
32947101,0.0037581578,-0.007959692,0.12475018,0.0,0.0,-0.0882243
32967033,-0.0072285705,-0.013707737,0.12524675,0.0,0.0,-0.08894859
32987002,-0.010479759,-0.025488254,0.12570567,0.0,0.0,-0.08894859
33007027,-0.012934973,-0.024914812,0.12618987,0.0,0.0,-0.08894859
33031878,-0.010940963,-0.023013663,0.12673265,0.0,0.0,-0.08894859
33046918,0.0074357428,-0.018002408,0.12693028,0.0,0.0,-0.08894859
33066914,0.015352466,-0.0092878165,0.1273145,0.0,0.0,-0.08894859
33086932,0.02027396,-0.004513536,0.12775233,0.0,0.0,-0.08894859
33106818,0.024674566,-0.0044788634,0.12201006,0.0,0.0,-0.08894859
33126773,0.032217216,-0.00875869,0.122226365,0.0,0.0,-0.08894859
33146786,0.0235638,-0.013334564,0.122621566,0.0,0.0,-0.08894859
33166694,0.021372579,-0.014300915,0.12293286,0.0,0.0,-0.08894859
33186616,0.0074820756,-0.01847938,0.12332083,0.0,0.0,-0.0896729
33206705,-0.002839831,-0.01809605,0.117275685,0.0,0.0,-0.091845796
33226565,-0.02339021,-0.017113596,0.11742011,0.0,0.0,-0.0932944
33246526,-0.035966877,-0.016079612,0.11755025,0.0,0.0,-0.0932944
33266491,-0.036435723,-0.015501645,0.117619075,0.0,0.0,-0.0932944
33286508,-0.036239367,-0.015690155,0.11769781,0.0,0.0,-0.0932944
33306417,-0.035232835,-0.016644549,0.11150756,0.0,0.0,-0.0932944
33326392,-0.03359131,-0.014071159,0.09892582,0.0,0.0,-0.0932944
33346405,-0.030682826,-0.014992361,0.09823327,0.0,0.0,-0.0932944
33366319,-0.0126087405,-0.004535137,0.085120045,0.0,0.0,-0.0932944
33386292,-0.009154612,-0.004213809,0.08399519,0.0,0.0,-0.0932944
33406324,0.001303518,-0.0036158683,0.08283315,0.0,0.0,-0.0932944
33426276,0.003655501,-0.0025418226,0.081785806,0.0,0.0,-0.0932944
33446199,0.0022249517,-0.0016346896,0.08086539,0.0,0.0,-0.0932944
33466165,-0.0036367308,-0.0009450334,0.0800151,0.0,0.0,-0.0932944
33486182,-0.013599105,-0.00045692053,0.08551585,0.0,0.0,-0.0932944
33506096,-0.013300726,-7.38732e-05,0.0849507,0.0,0.0,-0.0932944
33531115,-0.016135251,-0.00022700716,0.084267825,0.0,0.0,-0.0932944
33546080,-0.014946907,-0.00071071205,0.083859265,0.0,0.0,-0.0932944
33566068,-0.013649317,-0.0015915821,0.08334633,0.0,0.0,-0.0932944
33586004,-0.01258502,-0.0018728223,0.082775526,0.0,0.0,-0.0932944
33605974,-0.011706837,-0.0011909021,0.08221349,0.0,0.0,-0.0932944
33625985,-0.010397715,0.0002004549,0.08164486,0.0,0.0,-0.0932944
33645910,-0.009318026,0.0020121813,0.08112326,0.0,0.0,-0.0932944
33670877,-0.008017851,0.0033531631,0.08050703,0.0,0.0,-0.0932944
33685889,-0.006847539,0.0032553,0.08014952,0.0,0.0,-0.0932944
33705820,-0.0052625,0.0027838883,0.0797386,0.0,0.0,-0.0932944
33730802,-0.0046534133,0.0051394603,0.07918976,0.0,0.0,-0.0932944
33745802,-0.0048891357,0.004626182,0.07257662,0.0,0.0,-0.0932944
33765761,-0.0048317383,0.004979913,0.0720322,0.0,0.0,-0.091121495
33785679,-0.0052543557,0.009204248,0.06532249,0.0,0.0,-0.091121495
33810658,-0.006421434,0.013700746,0.058106307,0.0,0.0,-0.091121495
33825659,-0.006990264,0.0137521615,0.057374943,0.0,0.0,-0.091121495
33845588,-0.0068143834,0.012955892,0.056484465,0.0,0.0,-0.091121495
33870562,-0.005994216,0.011563893,0.061860554,0.0,0.0,-0.091121495
33885585,-0.0056871986,0.010605438,0.06145419,0.0,0.0,-0.091121495
33905536,-0.0045368588,0.013454951,0.06096494,0.0,0.0,-0.091121495
33930403,-0.0019271929,0.013246995,0.060400646,0.0,0.0,-0.091121495
33945424,-0.0005944778,0.0131046865,0.060050618,0.0,0.0,-0.091121495
33965433,0.0013653751,0.00863595,0.065930426,0.0,0.0,-0.091121495
33985377,0.0034285123,0.007332202,0.06583481,0.0,0.0,-0.091121495
34010321,0.0044504674,0.00490297,0.059283733,0.0,0.0,-0.091121495
34025434,0.004234787,0.0034543443,0.05901995,0.0,0.0,-0.091121495
34045262,0.004515867,0.0016034236,0.058705457,0.0,0.0,-0.091121495
34070178,0.0060765217,-0.00068551773,0.058341954,0.0,0.0,-0.091121495
34090184,0.00724888,-0.0023810787,0.058056746,0.0,0.0,-0.091121495
34105206,0.0077043627,-0.010970209,0.057835184,0.0,0.0,-0.091121495
34125075,0.008848815,-0.012242356,0.06376699,0.0,0.0,-0.0903972
34150084,0.008608862,-0.02401342,0.06374502,0.0,0.0,-0.0903972
34165067,0.00755541,-0.024570117,0.06372956,0.0,0.0,-0.0903972
34184982,0.005664054,-0.03622597,0.06377614,0.0,0.0,-0.0903972
34210015,0.0039512888,-0.04816079,0.063882925,0.0,0.0,-0.0903972
34229980,0.0025968193,-0.05611618,0.063973814,0.0,0.0,-0.0903972
34244939,0.0016173695,-0.055774502,0.06413775,0.0,0.0,-0.0903972
34264852,0.0011988519,-0.06185667,0.07056074,0.0,0.0,-0.0903972
34289905,0.0013601724,-0.058709282,0.07111891,0.0,0.0,-0.0903972
34304898,0.0014291437,-0.05980134,0.07143428,0.0,0.0,-0.0903972
34324793,0.0018954317,-0.06013446,0.07191636,0.0,0.0,-0.0903972
34349807,0.0033984922,-0.056018464,0.072597995,0.0,0.0,-0.0903972
34369695,0.0042476035,-0.057464916,0.07313696,0.0,0.0,-0.0903972
34384699,0.0038298606,-0.056418933,0.06737284,0.0,0.0,-0.0903972
34409818,0.0030212319,-0.054619614,0.067794845,0.0,0.0,-0.0903972
34429674,0.0018907295,-0.06021401,0.068162024,0.0,0.0,-0.0903972
34444611,0.0006802164,-0.057981145,0.06851595,0.0,0.0,-0.0903972
34464538,-0.0016524439,-0.057841413,0.06902067,0.0,0.0,-0.0896729
34489541,-0.0048272707,-0.055226848,0.06969324,0.0,0.0,-0.0875
34509454,-0.006589791,-0.049299918,0.070357196,0.0,0.0,-0.0875
34524502,-0.007755409,-0.045170534,0.0708531,0.0,0.0,-0.0875
34549433,-0.009617349,-0.039499775,0.071827985,0.0,0.0,-0.086051404
34569387,-0.010959316,-0.036091015,0.06630665,0.0,0.0,-0.0846028
34584407,-0.011808872,-0.031002758,0.060576737,0.0,0.0,-0.0846028
34609321,-0.012461843,-0.025234418,0.06123439,0.0,0.0,-0.08315421
34629305,-0.012865817,-0.023206733,0.061906766,0.0,0.0,-0.08242991
34649224,-0.012872573,-0.020620817,0.06269317,0.0,0.0,-0.08242991
34664271,-0.012429031,-0.010873601,0.063289285,0.0,0.0,-0.08242991
34689189,-0.010121947,-0.0030812211,0.07065071,0.0,0.0,-0.08242991
34709168,-0.007923636,0.003587075,0.07187102,0.0,0.0,-0.08242991
34724181,-0.0059342477,0.005359522,0.079051755,0.0,0.0,-0.08242991
34749075,-0.003310522,0.011647731,0.08104162,0.0,0.0,-0.08242991
34769072,-0.0018920953,0.013042246,0.082628,0.0,0.0,-0.08242991
34789006,-0.00076994795,0.013303326,0.09049902,0.0,0.0,-0.08242991
34804031,-0.0008519398,0.013225075,0.09194342,0.0,0.0,-0.08242991
34828986,-0.0023841185,0.012453526,0.09434309,0.0,0.0,-0.08242991
34848915,-0.0039502755,0.015532599,0.09630112,0.0,0.0,-0.08242991
34864019,-0.00874144,0.022822458,0.09773692,0.0,0.0,-0.08242991
34888858,-0.02819252,0.026653629,0.10027526,0.0,0.0,-0.08242991
34908852,-0.0573535,0.042181037,0.10239332,0.0,0.0,-0.08242991
34928770,-0.07027439,0.05039859,0.105729766,0.0,0.0,-0.08242991
34948755,-0.07860844,0.059016686,0.11040216,0.0,0.0,-0.08242991
34968762,-0.071469925,0.059807286,0.11606177,0.0,0.0,-0.08242991
34988671,-0.06801521,0.06079954,0.12261633,0.0,0.0,-0.08242991
35003676,-0.0688839,0.061182715,0.12797587,0.0,0.0,-0.08242991
35028611,-0.06297453,0.060732484,0.13831882,0.0,0.0,-0.08242991
35048620,-0.0568416,0.059609447,0.14766258,0.0,0.0,-0.08242991
35068555,-0.04957471,0.057899587,0.1568285,0.0,0.0,-0.08315421
35088518,-0.04166089,0.055266164,0.16561447,0.0,0.0,-0.08315421
35108522,-0.03379421,0.056015488,0.17416236,0.0,0.0,-0.08315421
35128459,-0.026652697,0.053685006,0.18230212,0.0,0.0,-0.08315421
35143435,-0.021912709,0.052634984,0.18775912,0.0,0.0,-0.08315421
35168466,-0.0154597955,0.052152596,0.19549572,0.0,0.0,-0.08315421
35188422,-0.011000093,0.05257384,0.20075677,0.0,0.0,-0.0838785
35208352,-0.0111884065,0.05299747,0.2052234,0.0,0.0,-0.085327104
35228343,-0.009389939,0.053340025,0.20869383,0.0,0.0,-0.086775705
35248338,-0.008681014,0.049478445,0.21132837,0.0,0.0,-0.0882243
35268254,-0.024203235,0.04869788,0.20684816,0.0,0.0,-0.091845796
35288232,-0.03960376,0.055340026,0.20798215,0.0,0.0,-0.095467284
35308246,-0.04349107,0.058696922,0.21443962,0.0,0.0,-0.096191585
35328212,-0.054421056,0.057914548,0.21455309,0.0,0.0,-0.096191585
35348149,-0.053281207,0.060477898,0.21408345,0.0,0.0,-0.096191585
35368157,-0.04281246,0.05373652,0.21305709,0.0,0.0,-0.096191585
35388100,-0.027382344,0.047791675,0.20578793,0.0,0.0,-0.09764019
35408030,-0.020904226,0.038527776,0.20398924,0.0,0.0,-0.09764019
35428000,-0.00916587,0.020104624,0.20185955,0.0,0.0,-0.09908878
35448025,0.006942707,0.008726077,0.19945423,0.0,0.0,-0.09981308
35467941,0.016023654,-0.0058036256,0.19681045,0.0,0.0,-0.10053739
35487853,0.02397658,-0.011295925,0.20031992,0.0,0.0,-0.10053739
35507831,0.030727223,-0.022092206,0.19758813,0.0,0.0,-0.10053739
35527844,0.03595977,-0.02740593,0.18825793,0.0,0.0,-0.10053739
35547770,0.039881673,-0.031720158,0.19107379,0.0,0.0,-0.10053739
35567740,0.03876326,-0.035180546,0.18784705,0.0,0.0,-0.10053739
35587745,0.025619738,-0.03898434,0.1847515,0.0,0.0,-0.10053739
35607680,0.015435327,-0.042613123,0.1816938,0.0,0.0,-0.10053739
35627638,-0.010078775,-0.046047103,0.16618913,0.0,0.0,-0.10053739
35647667,-0.032139216,-0.04815583,0.14393911,0.0,0.0,-0.09764019
35667669,-0.068689086,-0.049486425,0.13958701,0.0,0.0,-0.09691589
35687559,-0.06779067,-0.04820591,0.13493566,0.0,0.0,-0.09691589
35707511,-0.09910364,-0.06471267,0.11138434,0.0,0.0,-0.09691589
35727509,-0.14808354,-0.070651785,0.10664491,0.0,0.0,-0.09691589
35767401,-0.18469532,-0.09589033,0.09107578,0.0,0.0,-0.09691589
35787422,-0.19266821,-0.1102139,0.055154998,0.0,0.0,-0.096191585
35807336,-0.18327424,-0.10854862,0.037233435,0.0,0.0,-0.096191585
35827310,-0.15360115,-0.10091679,0.025507415,0.0,0.0,-0.096191585
35847273,-0.12495348,-0.091557175,0.020151893,0.0,0.0,-0.096191585
35867271,-0.085419044,-0.080857135,0.015058219,0.0,0.0,-0.096191585
35887211,-0.06360126,-0.07010078,0.0104786735,0.0,0.0,-0.096191585
35907170,-0.04990817,-0.060198516,0.006232229,0.0,0.0,-0.096191585
35927195,-0.023149148,-0.04019142,0.00245581,0.0,0.0,-0.096191585
35947099,0.009509363,-0.021659814,-0.001012626,0.0,0.0,-0.096191585
35967080,0.02482679,-0.016239762,-0.00432154,0.0,0.0,-0.096191585
35987079,0.023304569,-0.01123259,-0.007249946,0.0,0.0,-0.096191585
36007055,0.014284103,0.0047334298,-0.00982311,0.0,0.0,-0.096191585
36026982,0.014863802,0.016596856,-0.012310602,0.0,0.0,-0.096191585
36046946,0.021206148,0.02852418,-0.014550179,0.0,0.0,-0.096191585
36066954,0.032184523,0.03239907,-0.01672762,0.0,0.0,-0.096191585
36086882,0.04337297,0.035480004,-0.018655725,0.0,0.0,-0.096191585
36106854,0.03844445,0.037152823,-0.020290388,0.0,0.0,-0.096191585
36126870,0.033759877,0.037201554,-0.021754712,0.0,0.0,-0.096191585
36146838,0.042864513,0.039506853,-0.023248386,0.0,0.0,-0.096191585
36166804,0.038643915,0.037134793,-0.024426552,0.0,0.0,-0.096191585
36186768,0.06429749,0.034103423,-0.025807384,0.0,0.0,-0.096191585
36206780,0.08258788,0.03865758,-0.026912302,0.0,0.0,-0.096191585
36226693,0.10903552,0.035496045,-0.02808509,0.0,0.0,-0.096191585
36246656,0.17137279,0.03906982,-0.035821486,0.0,0.0,-0.096191585
36266680,0.1709115,0.03933489,-0.03677194,0.0,0.0,-0.096191585
36286595,0.15324938,0.03981309,-0.031205125,0.0,0.0,-0.096191585
36306593,0.13993903,0.041075796,-0.04415076,0.0,0.0,-0.096191585
36326546,0.13227837,0.042571194,-0.07034813,0.0,0.0,-0.096191585
36346545,0.1180439,0.04053265,-0.103852846,0.0,0.0,-0.096191585
36366464,0.10329767,0.043980777,-0.10666499,0.0,0.0,-0.096191585
36386436,0.08844039,0.043954294,-0.12178215,0.0,0.0,-0.096191585
36406464,0.08041394,0.046573956,-0.124678195,0.0,0.0,-0.096191585
36426380,0.06629876,0.04250193,-0.12737164,0.0,0.0,-0.096191585
36446347,0.06470127,0.0531572,-0.12333939,0.0,0.0,-0.096191585
36471291,0.051785145,0.060667988,-0.1383069,0.0,0.0,-0.096191585
36486335,0.04406916,0.05801135,-0.14010015,0.0,0.0,-0.096191585
36506251,0.039421666,0.06590583,-0.16154678,0.0,0.0,-0.096191585
36526211,0.03580636,0.06931864,-0.16431922,0.0,0.0,-0.096191585
36546239,0.029713588,0.06449132,-0.16687635,0.0,0.0,-0.096191585
36566160,0.024705747,0.05531966,-0.15660818,0.0,0.0,-0.096191585
36586062,0.021577617,0.04573923,-0.15820086,0.0,0.0,-0.096191585
36606125,0.017360412,0.03618883,-0.17224096,0.0,0.0,-0.095467284
36626123,0.008072597,0.019171167,-0.17388347,0.0,0.0,-0.0932944
36645962,-0.00073582487,0.006220613,-0.17522426,0.0,0.0,-0.0932944
36671021,-0.009903143,-0.014561242,-0.17659414,0.0,0.0,-0.0932944
36685950,-0.009732421,-0.017944107,-0.17721815,0.0,0.0,-0.0932944
36705880,-0.013342831,-0.040464237,-0.17796613,0.0,0.0,-0.0932944
36725840,-0.016653845,-0.05483719,-0.18488741,0.0,0.0,-0.0932944
36750854,-0.040141728,-0.06814924,-0.18544425,0.0,0.0,-0.0932944
36765777,-0.036923103,-0.06878024,-0.18572,0.0,0.0,-0.0932944
36785738,-0.03213534,-0.07133971,-0.18586999,0.0,0.0,-0.0932944
36810808,-0.024518274,-0.06768854,-0.18575123,0.0,0.0,-0.0932944
36825718,-0.02320191,-0.06435286,-0.17922015,0.0,0.0,-0.0932944
36845642,-0.016141303,-0.06358975,-0.17225793,0.0,0.0,-0.0932944
36865607,0.0050697015,-0.070493,-0.16496879,0.0,0.0,-0.09691589
36890568,0.02026709,-0.072960325,-0.15694961,0.0,0.0,-0.10198598
36905635,0.021053795,-0.074032165,-0.14933062,0.0,0.0,-0.10271028
36925668,0.024915729,-0.07076716,-0.147385,0.0,0.0,-0.10271028
36950522,0.03366184,-0.0814785,-0.13196582,0.0,0.0,-0.10271028
36965522,0.036133375,-0.07808666,-0.13016278,0.0,0.0,-0.10271028
36985471,0.039290722,-0.072955765,-0.12784502,0.0,0.0,-0.10271028
37010449,0.04171224,-0.0654213,-0.124980606,0.0,0.0,-0.10271028
37025439,0.049331933,-0.07211551,-0.117006235,0.0,0.0,-0.10198598
37045380,0.052991975,-0.06594159,-0.11459813,0.0,0.0,-0.10053739
37065322,0.050078176,-0.059606366,-0.11220827,0.0,0.0,-0.0932944
37090259,0.04454772,-0.05053497,-0.10938804,0.0,0.0,-0.0903972
37105320,0.037195746,-0.04485053,-0.107700996,0.0,0.0,-0.0896729
37125219,0.035016246,-0.033810414,-0.09307628,0.0,0.0,-0.0896729
37150200,0.027219241,-0.024238855,-0.08361413,0.0,0.0,-0.0896729
37170117,0.022720871,-0.010133109,-0.055772856,0.0,0.0,-0.0896729
37185149,0.018993909,-0.00539879,-0.053055476,0.0,0.0,-0.0896729
37205106,0.014361568,0.004166674,-0.049548406,0.0,0.0,-0.0896729
37230024,0.009847468,0.006304318,-0.045430727,0.0,0.0,-0.0896729
37245049,0.018902687,0.009014354,-0.043268755,0.0,0.0,-0.0896729
37265001,0.024147559,0.012107076,-0.040441874,0.0,0.0,-0.0896729
37289965,0.02908388,0.015132046,-0.037079133,0.0,0.0,-0.0896729
37309905,0.056689166,-0.0023311235,-0.0349487,0.0,0.0,-0.0903972
37324914,0.0549736,-0.0057971776,-0.026856493,0.0,0.0,-0.091121495
37349871,0.057672698,-0.010498259,-0.017394666,0.0,0.0,-0.091121495
37369798,0.059390474,-0.019362517,-0.014830602,0.0,0.0,-0.091121495
37384818,0.054047447,-0.024110338,-0.01296334,0.0,0.0,-0.091121495
37404780,0.045982383,-0.02523039,-0.010617417,0.0,0.0,-0.091121495
37429746,0.035955813,-0.025540374,-0.0013759405,0.0,0.0,-0.091121495
37449654,0.027918167,-0.020853166,0.0009193369,0.0,0.0,-0.091845796
37464633,0.022269957,-0.019728674,0.0025256027,0.0,0.0,-0.091845796
37489667,0.013593752,-0.010519047,0.0049916278,0.0,0.0,-0.091121495
37509560,0.0072610574,-0.009759676,0.006777142,0.0,0.0,-0.091121495
37524540,0.0030781778,-0.0022062368,0.0080522075,0.0,0.0,-0.091121495
37544524,-0.0028768484,0.0006305379,-0.0030358443,0.0,0.0,-0.0903972
37569507,-0.009638806,0.0059633083,-0.0018797074,0.0,0.0,-0.0903972
37589449,-0.014841308,0.030279113,0.005302523,0.0,0.0,-0.0903972
37604412,-0.022109991,0.04019293,0.012330458,0.0,0.0,-0.0903972
37629548,-0.03486526,0.05317429,0.013945423,0.0,0.0,-0.091121495
37649374,-0.045615453,0.066347346,0.015142558,0.0,0.0,-0.091121495
37664293,-0.04751587,0.064991936,0.015948044,0.0,0.0,-0.091121495
37689351,-0.05035342,0.19582886,0.017074987,0.0,0.0,-0.09257009
37709270,-0.039680053,0.19153371,0.0179656,0.0,0.0,-0.09257009
37729198,-0.039216544,0.18527147,0.018925786,0.0,0.0,-0.09257009
37744172,-0.030958379,0.17873454,0.019533819,0.0,0.0,-0.09257009
37769235,-0.028853271,0.16380577,0.020586312,0.0,0.0,-0.09257009
37789170,-0.026354918,0.14894785,0.021395795,0.0,0.0,-0.09257009
37804069,-0.028444272,0.13613792,0.0029663227,0.0,0.0,-0.09257009
37829097,-0.03627549,0.11384629,-0.022582646,0.0,0.0,-0.09257009
37848995,-0.06308542,0.09613133,-0.0487938,0.0,0.0,-0.09257009
37868973,-0.09277688,0.07962443,-0.056931805,0.0,0.0,-0.09257009
37884027,-0.08992444,0.06840299,-0.05852266,0.0,0.0,-0.09257009
37908959,-0.10656851,0.05149792,-0.07345817,0.0,0.0,-0.09257009
37928878,-0.10868151,0.03933195,-0.10712957,0.0,0.0,-0.091121495
37943886,-0.10460802,0.030632546,-0.10965953,0.0,0.0,-0.091121495
37968853,-0.105033904,0.017256495,-0.12656449,0.0,0.0,-0.091121495
37988805,-0.123550415,0.007959949,-0.13639574,0.0,0.0,-0.091121495
38008761,-0.12664023,-0.00027398553,-0.13974072,0.0,0.0,-0.091121495
38028783,-0.12421746,-0.00612158,-0.1427908,0.0,0.0,-0.091121495
38048684,-0.12019055,-0.010149588,-0.15201811,0.0,0.0,-0.091121495
38068663,-0.11173039,-0.012984163,-0.1548904,0.0,0.0,-0.091121495
38083661,-0.10520938,-0.014227581,-0.15683405,0.0,0.0,-0.091121495
38108625,-0.08859348,-0.014851677,-0.17244624,0.0,0.0,-0.091121495
38128557,-0.08115314,-0.014167375,-0.20033842,0.0,0.0,-0.091121495
38148519,-0.06758361,-0.012307225,-0.23496877,0.0,0.0,-0.0903972
38168548,-0.05790703,-0.010497294,-0.25166985,0.0,0.0,-0.0896729
38188460,-0.046224397,-0.008575391,-0.268553,0.0,0.0,-0.08894859
38208422,-0.034945264,-0.0072910986,-0.27278334,0.0,0.0,-0.08894859
38228450,-0.026125731,-0.0063053807,-0.27662033,0.0,0.0,-0.08894859
38248430,-0.022588076,-0.0052520465,-0.2734289,0.0,0.0,-0.08894859
38268349,-0.017493607,-0.0032567054,-0.2760951,0.0,0.0,-0.08894859
38288291,-0.016306374,-0.0004779195,-0.2847115,0.0,0.0,-0.08894859
38308308,-0.024834504,0.002563571,-0.28688502,0.0,0.0,-0.08894859
38328225,-0.033655424,0.0060407883,-0.28870103,0.0,0.0,-0.08894859
38348196,-0.028096646,0.008501638,-0.296355,0.0,0.0,-0.0896729
38368224,-0.026531337,0.0105334325,-0.29762417,0.0,0.0,-0.0896729
38388201,-0.026045362,0.011406306,-0.29862404,0.0,0.0,-0.0903972
38408099,-0.025478682,0.011198258,-0.29939866,0.0,0.0,-0.0903972
38428066,-0.02435344,0.010839062,-0.29977062,0.0,0.0,-0.091121495
38448075,-0.02450141,0.009930821,-0.2999735,0.0,0.0,-0.091121495
38467999,-0.023863096,0.009287723,-0.30000663,0.0,0.0,-0.091121495
38487981,-0.005372113,0.008586331,-0.31263176,0.0,0.0,-0.091121495
38507993,-0.000666519,0.008130125,-0.319088,0.0,0.0,-0.09474299
38527948,0.006807211,0.0071263863,-0.32563525,0.0,0.0,-0.09836449
38547870,0.018612457,0.00576014,-0.3256264,0.0,0.0,-0.10053739
38567999,0.018209513,0.004904513,-0.33175528,0.0,0.0,-0.10198598
38587885,0.013055605,0.0032243584,-0.33142915,0.0,0.0,-0.10271028
38607784,0.008711218,0.0012629989,-0.33080927,0.0,0.0,-0.10271028
38627789,0.0024778356,-0.0010602997,-0.33612862,0.0,0.0,-0.10271028
38647800,-0.008747063,-0.0041574785,-0.32896063,0.0,0.0,-0.10271028
38667734,-0.01888479,-0.00805448,-0.32760945,0.0,0.0,-0.10271028
38687689,-0.028304065,-0.012068355,-0.3260104,0.0,0.0,-0.10271028
38707714,-0.03245459,-0.01534624,-0.3243993,0.0,0.0,-0.10271028
38727659,-0.03829819,-0.017538501,-0.32270136,0.0,0.0,-0.10271028
38747591,-0.03242376,-0.017683629,-0.31449163,0.0,0.0,-0.10488318
38767568,-0.008865893,-0.016118143,-0.31236202,0.0,0.0,-0.10488318
38792476,0.015155439,-0.011159684,-0.31631917,0.0,0.0,-0.10488318
38807505,0.04892968,-0.00737149,-0.32758608,0.0,0.0,-0.10488318
38827470,0.06970808,-0.0022811787,-0.32605675,0.0,0.0,-0.10488318
38847477,0.08128428,0.0025833044,-0.32454506,0.0,0.0,-0.10488318
38867392,0.11252385,-0.019068409,-0.32315305,0.0,0.0,-0.10488318
38887328,0.11688745,-0.021726193,-0.32154173,0.0,0.0,-0.10488318
38907284,0.10402798,-0.02009314,-0.3198554,0.0,0.0,-0.103434585
38927287,0.069784634,-0.013300927,-0.33060244,0.0,0.0,-0.09691589
38947230,0.06557866,-0.0069003315,-0.32936198,0.0,0.0,-0.09691589
38967189,0.040308822,0.0073555694,-0.33440724,0.0,0.0,-0.096191585
38987232,-0.0020775201,0.025138238,-0.33316696,0.0,0.0,-0.096191585
39007126,-0.033629186,0.049481645,-0.33189207,0.0,0.0,-0.096191585
39027093,-0.041761518,0.05427953,-0.32430908,0.0,0.0,-0.096191585
39047061,-0.045035977,0.05842878,-0.32280335,0.0,0.0,-0.09764019
39067055,-0.03880178,0.061353,-0.3213391,0.0,0.0,-0.10053739
39086991,-0.03483517,0.06366255,-0.3199018,0.0,0.0,-0.10198598
39106962,-0.026422983,0.06482352,-0.3247601,0.0,0.0,-0.103434585
39126978,-0.01875419,0.064747915,-0.32341874,0.0,0.0,-0.10488318
39146890,-0.0073176906,0.06361942,-0.3222095,0.0,0.0,-0.10633177
39166870,0.012052144,0.062381223,-0.3208169,0.0,0.0,-0.107780375
39186883,0.039375484,0.060587108,-0.31945872,0.0,0.0,-0.10922897
39206838,0.05429758,0.059348393,-0.3181057,0.0,0.0,-0.10995327
39226776,0.0571544,0.058503598,-0.3167096,0.0,0.0,-0.10995327
39246747,0.06270997,0.05749564,-0.31525573,0.0,0.0,-0.10995327
39271780,0.056745768,0.055125978,-0.30687857,0.0,0.0,-0.10995327
39286671,0.056044206,0.052781474,-0.30565378,0.0,0.0,-0.10995327
39306631,0.040377136,0.048903957,-0.29746416,0.0,0.0,-0.10995327
39326654,0.031304795,0.044933323,-0.29552758,0.0,0.0,-0.10995327
39346611,0.021358466,0.04108645,-0.29359844,0.0,0.0,-0.10995327
39366545,0.02058267,0.038006533,-0.29169688,0.0,0.0,-0.10995327
39386518,-0.02590177,0.002110967,-0.29002228,0.0,0.0,-0.107780375
39406522,-0.026948333,-0.003182968,-0.28820702,0.0,0.0,-0.10633177
39426440,-0.027449923,-0.011599181,-0.280261,0.0,0.0,-0.10271028
39446461,-0.028576668,-0.015539369,-0.27834436,0.0,0.0,-0.10198598
39466471,-0.031243164,-0.023189466,-0.27648422,0.0,0.0,-0.10198598
39486370,-0.030656867,-0.023272615,-0.27474123,0.0,0.0,-0.10198598
39506344,-0.025860878,-0.022357294,-0.27299103,0.0,0.0,-0.09981308
39526290,-0.020020884,-0.019847877,-0.27136832,0.0,0.0,-0.09981308
39546284,-0.0071093445,-0.015823616,-0.26984775,0.0,0.0,-0.09981308
39566200,0.010023965,-0.010348746,-0.26203823,0.0,0.0,-0.09981308
39586180,0.023243058,-0.004118121,-0.26039785,0.0,0.0,-0.09908878
39606194,0.03579915,-0.009456337,-0.25899807,0.0,0.0,-0.09908878
39626107,0.036716096,-0.0048926147,-0.257571,0.0,0.0,-0.09908878
39646084,0.07030128,-0.030970346,-0.26293695,0.0,0.0,-0.09908878
39666111,0.0693852,-0.028709928,-0.2618475,0.0,0.0,-0.09908878
39691011,0.09995779,-0.055092145,-0.26087743,0.0,0.0,-0.09908878
39705984,0.09692408,-0.052465007,-0.26008245,0.0,0.0,-0.09908878
39725958,0.10627249,-0.051297612,-0.26557207,0.0,0.0,-0.09908878
39745962,0.107255645,-0.055798337,-0.27776882,0.0,0.0,-0.09908878
39765885,0.10747288,-0.051964886,-0.28402635,0.0,0.0,-0.09908878
39785870,0.11368138,-0.0517323,-0.2968982,0.0,0.0,-0.09908878
39805909,0.10788881,-0.05597352,-0.3038179,0.0,0.0,-0.09764019
39825975,0.097743824,-0.0493664,-0.3107357,0.0,0.0,-0.09691589
39845843,0.07993654,-0.03938049,-0.31157437,0.0,0.0,-0.09691589
39865772,0.054378383,-0.032737736,-0.3123001,0.0,0.0,-0.09691589
39890702,0.041404817,-0.023484608,-0.30695885,0.0,0.0,-0.096191585
39905704,0.03426084,-0.017729351,-0.30725637,0.0,0.0,-0.096191585
39925678,0.021153832,-0.00294638,-0.3076304,0.0,0.0,-0.096191585
39945685,0.012924561,0.0032249752,-0.30803585,0.0,0.0,-0.096191585
39970570,0.004504162,0.016283253,-0.3084618,0.0,0.0,-0.096191585
39985531,-0.007859781,0.02621252,-0.30860656,0.0,0.0,-0.096191585
40005491,-0.03260679,0.035982523,-0.3087335,0.0,0.0,-0.096191585
40030462,-0.06055885,0.072044544,-0.31522495,0.0,0.0,-0.096191585
40045445,-0.08968755,0.09541664,-0.3279118,0.0,0.0,-0.096191585
40065402,-0.10388486,0.12237343,-0.32880607,0.0,0.0,-0.096191585
40090356,-0.11616889,0.1522787,-0.3361216,0.0,0.0,-0.096191585
40105342,-0.115286805,0.15114838,-0.3369519,0.0,0.0,-0.096191585
40125298,-0.11666312,0.15509142,-0.3379863,0.0,0.0,-0.096191585
40145325,-0.11257138,0.16072036,-0.34539905,0.0,0.0,-0.096191585
40170261,-0.10478684,0.15065286,-0.35336137,0.0,0.0,-0.095467284
40185193,-0.09536316,0.1432698,-0.35439783,0.0,0.0,-0.091845796
40205159,-0.070977755,0.13195716,-0.35559234,0.0,0.0,-0.091121495
40230223,-0.0035154517,0.115821175,-0.36372182,0.0,0.0,-0.091121495
40265070,0.014263967,0.09061948,-0.37185246,0.0,0.0,-0.091121495
40290071,0.011838799,0.07287816,-0.3858953,0.0,0.0,-0.0903972
40310051,0.0048509645,0.060731675,-0.387343,0.0,0.0,-0.0903972
40324975,-0.01524539,0.05234086,-0.3884098,0.0,0.0,-0.0903972
40344952,-0.014245418,0.04296034,-0.38965344,0.0,0.0,-0.0903972
40369950,-0.07014902,0.032161675,-0.39088726,0.0,0.0,-0.091121495
40389910,-0.06960867,0.023815168,-0.39179954,0.0,0.0,-0.091121495
40404858,-0.080277115,0.017432628,-0.3924576,0.0,0.0,-0.091121495
40429874,-0.07047154,0.0063892817,-0.393353,0.0,0.0,-0.091121495
40454822,-0.046646338,-0.0032913517,-0.4004786,0.0,0.0,-0.0875
40464757,-0.044510014,-0.0064720605,-0.40080497,0.0,0.0,-0.0875
40484711,-0.013026684,-0.018110856,-0.4140546,0.0,0.0,-0.086051404
40509727,0.002570226,-0.024721358,-0.4149708,0.0,0.0,-0.086051404
40529803,0.0121163335,-0.02860987,-0.41560584,0.0,0.0,-0.086051404
40544609,0.027966548,-0.03159215,-0.40969855,0.0,0.0,-0.086051404
40569652,0.049361367,-0.03739479,-0.40982795,0.0,0.0,-0.086051404
40589593,0.06307895,-0.04447666,-0.39703056,0.0,0.0,-0.0875
40604535,0.064185046,-0.043833267,-0.39649147,0.0,0.0,-0.0882243
40624554,0.06383517,-0.04341013,-0.39567947,0.0,0.0,-0.0882243
40649503,0.078822404,-0.049411353,-0.39435664,0.0,0.0,-0.0882243
40669487,0.07425048,-0.04687638,-0.39338467,0.0,0.0,-0.0882243
40684403,0.09249376,-0.059302177,-0.39278656,0.0,0.0,-0.0882243
40709412,0.092042245,-0.05348748,-0.38499138,0.0,0.0,-0.0882243
