timestamp,timestamp_sample,accel_device_id,gyro_device_id,delta_angle[0],delta_angle[1],delta_angle[2],delta_velocity[0],delta_velocity[1],delta_velocity[2],delta_angle_dt,delta_velocity_dt,delta_velocity_clipping,calibration_count
22727048,22726938,4259850,4325386,1.3052269e-05,-1.4061179e-05,2.511561e-05,0.0023630988,0.00075592805,-0.05672983,4549,5713,0,2
23227291,23227177,4259850,4325386,0.00017663089,0.00028950177,3.174791e-05,0.00017886065,0.00094315875,-0.043177735,4400,4286,0,2
23727819,23727374,4259850,4325386,0.00043756736,-0.0011730741,0.00022333885,-0.001803516,-0.0009688676,-0.053960618,4463,5574,0,2
24727962,24727848,4259850,4325386,-0.00016216146,9.139938e-05,-0.0003118947,-6.265333e-05,-0.0032518443,-0.04795616,4489,4476,0,2
25729525,25728641,4259850,4325386,-1.4908518e-06,7.2476236e-05,0.0016616088,-0.00075371173,-0.00054129254,-0.055859033,4820,5713,0,2
26724601,26724495,4259850,4325386,1.0657815e-05,0.00044028045,0.0017532024,-0.0007023411,-0.0006346894,-0.04506542,4655,4285,0,2
27724887,27724782,4259850,4325386,0.000104107334,6.6644076e-05,0.0008637725,-0.0021523458,0.0005144571,-0.041060675,4421,4283,0,2
28725414,28725311,4259850,4325386,-8.661716e-05,0.00012167072,0.0010870432,-0.0017696705,0.0009711126,-0.04209266,4553,4277,0,2
29225615,29225505,4259850,4325386,0.00027079257,1.616805e-05,0.0010884156,-0.0011886555,0.00062498596,-0.04492234,4461,4284,0,2
29725967,29725816,4259850,4325386,-0.00025430348,0.00032700857,0.0012963605,-0.00045261477,-0.0011049834,-0.05170229,4576,5707,0,2
30230996,30230495,4259850,4325386,6.9089016e-05,-0.00030028838,0.0011678166,-0.00074995274,-0.0005925664,-0.040717572,4260,4034,0,2
30727759,30726232,4259850,4325386,0.00013010984,0.00019021804,0.00095779117,-0.0014708724,0.00037396245,-0.037642803,4496,4083,0,2
31726818,31726715,4259850,4325386,2.8111335e-05,0.00017020426,0.00059605873,0.00044517813,-0.0006458341,-0.038244296,4462,4281,0,2
32227065,32226958,4259850,4325386,-8.370832e-05,-5.941664e-06,0.0007013313,-0.0017726141,-0.00014051145,-0.04132272,4507,4138,0,2
32729699,32727196,4259850,4325386,0.00012894179,0.0001234934,0.0006185644,-0.0021893326,-0.0007655692,-0.045514014,4461,4463,0,2
33227685,33227572,4259850,4325386,0.00013376446,-2.0146806e-05,0.0005535307,-0.0032510704,0.0005295551,-0.039904397,4635,4033,0,2
33733083,33732196,4259850,4325386,-4.923957e-06,5.4956334e-05,0.00046647643,-0.00066445343,-0.0012624118,-0.054945365,4460,5707,0,2
34728300,34728177,4259850,4325386,-0.00010391108,-9.65861e-05,0.00021623314,-0.0011415102,0.001003112,-0.036912028,4304,4186,0,2
35228889,35228420,4259850,4325386,-1.124465e-05,-1.3146273e-05,0.0004010577,-0.0032479048,0.0020800561,-0.036094293,4507,4290,0,2
36229085,36228952,4259850,4325386,0.00015209918,0.00012441422,0.00010386121,-0.00018006739,-7.81344e-05,-0.04215378,4549,4394,0,2
36729494,36729345,4259850,4325386,-6.900723e-05,0.00017885478,-0.00047286926,-0.0013514167,0.00032382944,-0.05683785,4651,5781,0,2
37729868,37729651,4259850,4325386,-6.373385e-05,0.0003757934,-0.00010690794,-0.0032717404,-0.0013593336,-0.042986576,4422,4760,0,2
38225513,38225381,4259850,4325386,-0.00044073138,-1.2168515e-05,-0.0005955324,-0.0014899669,0.001855328,-0.04049692,4505,4287,0,2
39226018,39225917,4259850,4325386,-0.00016034042,9.988298e-05,-0.0014873864,-0.0009933653,0.00010917938,-0.04287818,4382,4238,0,2
39728295,39726122,4259850,4325386,0.0002565046,-0.00022042322,-0.0014025542,0.0006683401,0.00049860147,-0.05671578,4464,5878,0,2
40726756,40726655,4259850,4325386,0.00037690008,-0.00024680575,-0.0019173834,-0.0015888552,7.683238e-06,-0.04035591,4548,4428,0,2
41227131,41227025,4259850,4325386,5.9414942e-05,0.00020183896,-0.0018904067,-0.00089058845,0.00031169606,-0.04257776,4674,4283,0,2
41731897,41731613,4259850,4325386,-1.2725019e-05,-0.0002279843,-0.0017586747,-0.002267977,0.0023195918,-0.061289854,4463,5553,0,2
42227460,42227354,4259850,4325386,0.00014443469,0.000107491374,-0.0019228678,-0.0020573966,0.0012026149,-0.04467753,4439,4393,0,2
42727704,42727600,4259850,4325386,-1.940359e-05,0.0004228888,-0.002039717,-0.0011157695,0.00077096873,-0.03550586,4242,3965,0,2
43227949,43227847,4259850,4325386,0.00030175093,-0.00047899067,-0.0022360375,-0.0014401763,0.00019458462,-0.04093823,4506,4190,0,2
43728281,43728094,4259850,4325386,-0.00020196993,6.717383e-05,-0.0019461248,-0.0019539942,0.00077224785,-0.057512026,4505,5711,0,2
44730348,44728850,4259850,4325386,-0.00024725322,4.9103634e-05,-0.0019380308,6.79294e-05,0.00082325353,-0.05266814,4716,5956,0,2
45229144,45228842,4259850,4325386,-0.00039112425,-1.6304557e-05,-0.0019430852,-0.0014797057,-0.0005979987,-0.045537267,4508,4282,0,2
45724836,45724733,4259850,4325386,0.00012517971,-0.0003255523,-0.002101999,-0.0018588924,0.00049778254,-0.04416524,4655,4281,0,2
46229448,46229342,4259850,4325386,3.098255e-05,0.00040994864,-0.0019749538,-0.0007158437,0.0014700592,-0.037937175,4511,4298,0,2
46729758,46729634,4259850,4325386,-0.0005387188,-0.00022442036,-0.0019813667,-0.002618162,0.00030173553,-0.044742588,4552,4281,0,2
47730390,47730241,4259850,4325386,0.000115760915,4.2326945e-05,-0.001652219,-0.0012150585,-0.0014992947,-0.052571133,4659,5727,0,2
48225946,48225836,4259850,4325386,1.970728e-05,2.5914534e-05,-0.001540675,-0.0011211722,-0.00034555784,-0.05635008,4512,5707,0,2
48726530,48726142,4259850,4325386,-0.00014709863,0.00014879332,-0.0016249302,-0.0006023736,-0.0010925839,-0.023924535,4565,2674,0,2
49726732,49726628,4259850,4325386,-5.7576526e-05,8.387923e-05,-0.0014661836,-0.0018030916,0.0020705296,-0.04353494,4554,4510,0,2
50226937,50226837,4259850,4325386,0.0003754476,-0.00039217327,-0.0012733331,-0.0020819486,-0.0002450889,-0.04208155,4363,4244,0,2
50727187,50727083,4259850,4325386,-7.691597e-05,0.00015309562,-0.0010608038,-0.00220843,0.00083452713,-0.044970874,4507,4280,0,2
51227870,51227353,4259850,4325386,-0.00021699275,0.0001821664,-0.000604719,-0.0011307943,-0.0009525694,-0.059983574,4525,5710,0,2
52228103,52227990,4259850,4325386,-6.3049505e-05,7.136226e-05,-5.7174093e-05,-0.0012233733,0.00074172893,-0.03669286,4659,4174,0,2
52728224,52728094,4259850,4325386,7.7920995e-05,-0.00026544966,-6.752624e-05,-0.00075245515,-0.0008589748,-0.044894412,4465,4535,0,2
53729122,53728596,4259850,4325386,3.3143584e-05,7.735736e-05,-0.00010974663,-0.0025783423,-0.0003187198,-0.0453706,4246,4404,0,2
54228953,54228846,4259850,4325386,-0.00078819355,0.00027233787,-6.675742e-07,-0.002805008,-0.0008322014,-0.040804073,4459,4280,0,2
55229531,55229428,4259850,4325386,-5.204256e-05,4.779924e-05,-2.1265836e-05,-0.0007604428,0.000111806956,-0.04061504,4538,4278,0,2
55725582,55725099,4259850,4325386,-8.6872955e-05,-1.6737411e-05,-4.984335e-05,-0.0011332446,0.0010843122,-0.042820882,4461,4278,0,2
56725936,56725787,4259850,4325386,-8.688431e-05,0.00023671881,-5.2234973e-05,-0.0022279792,-0.00011756035,-0.055329114,4689,5844,0,2
57225989,57225859,4259850,4325386,0.00017799666,-0.0003374673,-6.790297e-05,-0.0017476459,-0.00020764317,-0.042225152,4507,4244,0,2
57726310,57726206,4259850,4325386,0.0009610983,0.0010759771,-8.254273e-05,-0.0024873866,-0.00054585346,-0.041235346,4506,4278,0,2
58226814,58226371,4259850,4325386,-0.00089626067,1.5395475e-05,0.00084205065,0.00025314707,-0.00074555405,-0.051627014,4236,4353,0,2
58726733,58726623,4259850,4325386,1.0905044e-05,0.00012159464,0.0022122886,-0.0056686485,-0.00040606165,-0.03767457,4459,4278,0,2
59727325,59727223,4259850,4325386,7.808765e-05,-0.00010774261,0.0020443718,-0.0006588437,-0.0012544215,-0.038734537,4598,4215,0,2
60228421,60227689,4259850,4325386,0.000102756094,6.176455e-05,0.0011278362,-0.0014407465,-0.00015260429,-0.054122347,4809,6012,0,2
60727748,60727642,4259850,4325386,6.96531e-05,0.000105886065,2.3138087e-05,-0.0021375075,0.0025079306,-0.035499476,4462,2851,0,2
61228061,61227898,4259850,4325386,0.00011417326,3.7264195e-05,-0.00023850697,-0.00085072574,0.001498528,-0.045932982,4302,4279,0,2
61732942,61732791,4259850,4325386,-0.00014115674,-0.00012715334,0.001477759,-0.002558298,0.00059751293,-0.061778963,4638,5802,0,2
62724263,62724160,4259850,4325386,5.225549e-05,2.4273779e-05,0.0014664013,-0.00057349115,-0.0010884043,-0.042302262,4503,4154,0,2
63224565,63224461,4259850,4325386,5.917635e-05,0.00019710841,0.0009824455,-0.0017480275,0.00090098375,-0.043458357,4551,4231,0,2
63729709,63729179,4259850,4325386,-0.00033058663,0.00027645807,0.0010217457,-0.00053580577,-0.00089958956,-0.038296256,4507,4011,0,2
64229547,64229436,4259850,4325386,0.000104428276,0.00015445577,0.0011990783,-0.0015994144,-0.0001556075,-0.038614087,4362,4280,0,2
64729798,64729693,4259850,4325386,-5.8487814e-05,-0.00039336717,0.0013319595,-0.0009630231,0.0005275535,-0.03949724,4507,4277,0,2
65227167,65225443,4259850,4325386,0.00066905614,-0.00032470308,0.0013884411,-0.00093678746,0.002430713,-0.043371815,4466,4277,0,2
66230788,66230682,4259850,4325386,3.7255846e-05,-0.00031789494,0.0029799195,-0.0027838354,0.0010010699,-0.051518053,4724,5933,0,2
66726319,66726216,4259850,4325386,0.00015282356,4.222849e-05,0.0031161616,-0.0016382213,0.0013491113,-0.044056986,4506,4019,0,2
67229258,67226548,4259850,4325386,-4.4972094e-05,9.828501e-05,0.003341533,0.0006563021,-0.0011349107,-0.04533892,4581,4277,0,2
67726855,67726735,4259850,4325386,0.00010447922,3.1558422e-05,0.003449356,-0.002769492,0.0010635032,-0.04554953,4510,4282,0,2
68232474,68231540,4259850,4325386,-3.0686562e-05,0.00022513124,0.0034229555,-0.0010763996,0.0002786262,-0.05473555,4504,5701,0,2
68727354,68727249,4259850,4325386,0.0002640375,0.00027715164,0.0032385273,-0.0015757539,0.0016627125,-0.04388301,4320,4268,0,2
69732413,69732277,4259850,4325386,-0.00076792785,8.47331e-05,0.0027063638,-0.00085971114,0.00046270507,-0.042064525,4511,4196,0,2
70228203,70228096,4259850,4325386,0.0008063263,8.7053995e-05,0.0014281902,-0.0022690042,0.0014920474,-0.058778573,4569,5828,0,2
70728618,70728503,4259850,4325386,-0.00069124514,-0.00043327082,0.0013402929,-0.0026286258,0.00089705014,-0.04133203,4721,4276,0,2
71228651,71228545,4259850,4325386,0.00039177202,-1.661509e-05,0.001375065,-0.00023981094,0.0004617747,-0.044631645,4462,4423,0,2
71728906,71728805,4259850,4325386,-0.00048317015,-0.00020749371,0.0004961003,0.00088306866,0.0010079738,-0.040538054,4328,4022,0,2
72730445,72729325,4259850,4325386,-9.252367e-05,-0.00033142956,-0.0003630004,-0.00083383714,0.0015720137,-0.03969056,4501,4274,0,2
73225182,73225081,4259850,4325386,-0.0005509484,0.0002099007,-0.00038917418,-0.0015904696,-0.0004941823,-0.0435831,4283,4276,0,2
73725499,73725385,4259850,4325386,-9.200528e-05,0.00012820537,8.42966e-05,-0.0016028415,-0.00093181053,-0.04526831,4552,4183,0,2
74730508,74730370,4259850,4325386,-0.0003429507,0.0004972461,-0.00022296817,-0.0012070042,-0.00051728997,-0.035964143,4442,4274,0,2
75226489,75226383,4259850,4325386,0.00091070385,-0.00048657815,-0.00038860866,-0.0020117601,0.00080211327,-0.039951067,4768,4100,0,2
75726484,75726384,4259850,4325386,-0.00047803283,0.00027889814,-0.00020595767,-0.0016962397,-0.000319297,-0.043592684,4507,4278,0,2
76226791,76226690,4259850,4325386,-0.00074036163,0.00083225826,-6.673575e-06,-0.0026065656,-0.0005176437,-0.034350958,4370,4134,0,2
76727298,76726908,4259850,4325386,0.00042170266,-0.00035874237,0.00016751577,-0.0024518971,0.0004430086,-0.043940447,4458,4250,0,2
77727554,77727447,4259850,4325386,1.174642e-05,0.00029215397,5.2450094e-05,-0.0010767743,0.00018788104,-0.03977092,4523,4273,0,2
78228045,78227904,4259850,4325386,-0.00038130445,-0.00047297194,-9.013171e-05,-0.0029561697,-0.00014371473,-0.0418581,4718,4069,0,2
78728130,78728001,4259850,4325386,0.00021676482,0.00016552591,4.865947e-05,-0.0015934305,0.0012554791,-0.04297641,4552,4275,0,2
79724099,79723974,4259850,4325386,-0.00019768965,-0.0001555976,-8.189596e-05,-0.0015232015,0.00019989038,-0.041376267,4461,4273,0,2
80724600,80724500,4259850,4325386,5.25089e-05,-1.2630996e-05,-2.2520313e-05,-0.0034437003,0.0019897455,-0.030494926,4251,2850,0,2
81729672,81729534,4259850,4325386,7.65586e-05,1.6628746e-05,-9.564731e-06,-0.0016439494,0.002012997,-0.038663264,4462,4273,0,2
82229952,82229798,4259850,4325386,0.00023370727,-6.6910885e-05,-0.00022857146,-0.0012613682,0.0013097874,-0.04337347,4426,4275,0,2
82725674,82725554,4259850,4325386,2.6352604e-05,0.0003726378,-0.0005920405,-0.000186783,-0.0006626336,-0.03967459,4506,4276,0,2
83230442,83230325,4259850,4325386,-0.000112928545,6.523355e-05,-0.00056842755,-0.0011840279,0.00020425166,-0.044348225,4506,4233,0,2
83726229,83726083,4259850,4325386,-5.351821e-05,0.00018508034,-0.0009049054,-0.0026427535,0.0026434078,-0.045365028,4287,4287,0,2
84726723,84726613,4259850,4325386,-8.496926e-06,-4.835646e-05,-0.0002838029,-0.00090325694,-0.00023240721,-0.042971976,4460,4248,0,2
85227067,85226935,4259850,4325386,0.0005150704,0.00023053338,-0.00015021475,-2.9978886e-05,-0.00028685766,-0.04246273,4565,4397,0,2
85728132,85727395,4259850,4325386,-0.00016508352,-0.00030586804,-0.0002647958,-0.0034266687,0.0018280332,-0.057916887,4758,5915,0,2
86227614,86227410,4259850,4325386,0.00014485522,2.387885e-05,2.8943484e-06,-0.0018452551,0.00032706343,-0.041017048,4509,4432,0,2
86727826,86727719,4259850,4325386,-4.273455e-06,2.2873772e-05,-1.1455446e-05,-0.002654496,0.000784294,-0.04310315,4394,4276,0,2
87728310,87728204,4259850,4325386,0.00015952726,4.7983053e-06,-0.0004184217,-0.0025789654,0.0010177074,-0.042432453,4507,4274,0,2
88229306,88228487,4259850,4325386,0.0001160754,-8.6406035e-05,-0.00048474726,-0.0016616018,0.0016586841,-0.039848533,4524,4273,0,2
88729057,88728949,4259850,4325386,-3.5082045e-05,-5.270127e-05,-0.0005275652,-0.0006467296,0.0010826795,-0.03642591,4720,4244,0,2
89729375,89729272,4259850,4325386,0.0001346729,3.523965e-05,-0.00018687214,-0.0010493296,-0.000930896,-0.04204887,4355,4276,0,2
90725436,90725324,4259850,4325386,5.7522902e-05,0.00032904046,-0.0008339767,-0.0020383082,-6.6703404e-05,-0.052078094,4478,5663,0,2
91725934,91725828,4259850,4325386,0.0006085788,3.6751575e-05,-0.00095690077,-0.0012894279,0.0005617673,-0.042940233,4507,4274,0,2
92226245,92226140,4259850,4325386,-0.00032378818,-0.0001342385,-0.0011432621,-0.0010814044,0.00016433184,-0.042462397,4551,4272,0,2
92726833,92726461,4259850,4325386,0.00019745255,0.00024855626,-0.0013281422,-0.0016674404,0.0004485964,-0.037538223,4557,4064,0,2
93226750,93226630,4259850,4325386,-1.6374715e-06,2.7946953e-05,-0.0014956279,-0.0004268375,0.0008806709,-0.03768926,4507,4288,0,2
93732512,93731409,4259850,4325386,-0.00013521707,-0.00012051207,-0.0015930869,-0.0013313082,-0.0010253456,-0.053209674,4511,5699,0,2
94231865,94231719,4259850,4325386,-0.00039801723,0.00013301501,-0.0015643974,-0.00090802193,-2.9325158e-05,-0.041677583,4553,4276,0,2
94727583,94727479,4259850,4325386,-0.00044714246,0.00070232636,-0.0016766943,-0.0010516577,0.0024175602,-0.041300513,4552,4274,0,2
95728156,95728050,4259850,4325386,-2.0473422e-05,0.00034805472,-0.0012025748,-0.0026629441,0.0014890776,-0.05102838,4586,4273,0,2
96228771,96228241,4259850,4325386,0.00041960378,0.00021265692,0.0003875645,0.0004909277,0.0014895615,-0.040878158,4506,4041,0,2
96728610,96728508,4259850,4325386,-0.00032307595,6.752537e-05,0.00055851,-0.00042695226,9.2661125e-05,-0.043169007,4508,4428,0,2
97724723,97724585,4259850,4325386,8.2945226e-05,0.00035826102,-0.0010799561,0.00011747151,0.001273553,-0.037524194,4552,4273,0,2
98224914,98224810,4259850,4325386,-4.6721965e-05,-0.00077006314,-0.0007572885,0.00047211483,0.0005380175,-0.04624111,4370,4478,0,2
98725178,98725079,4259850,4325386,-0.00012202821,0.00068520894,3.7489615e-05,0.00055604853,0.0005685027,-0.036767863,4507,4457,0,2
99225453,99225350,4259850,4325386,-0.00021811236,-0.00029971416,0.00018667532,-0.0003909972,-0.00031438054,-0.04363474,4508,4273,0,2
99730282,99730172,4259850,4325386,6.2024345e-05,8.4780295e-05,0.000104810104,-4.995184e-05,0.0010859228,-0.041370872,4554,4321,0,2
100726305,100726164,4259850,4325386,0.000799425,0.00033394195,-5.290421e-05,-0.0012961966,0.001242698,-0.037364684,4467,4062,0,2
101226529,101226429,4259850,4325386,-0.0005754908,-0.00032810084,2.891199e-05,-0.0009529192,0.001403993,-0.04330883,4410,4448,0,2
101726799,101726700,4259850,4325386,-0.0006823982,0.0004439685,6.0679354e-06,-0.001302257,0.0015227058,-0.044648677,4507,4534,0,2
102227612,102226972,4259850,4325386,0.00090693036,-8.948661e-05,1.2572283e-05,-0.002874926,0.0037961616,-0.056157697,4509,5592,0,2
102727392,102727287,4259850,4325386,-0.000119838434,-5.0257106e-05,4.0823572e-05,-0.0016658955,0.0009055485,-0.057432365,4552,5697,0,2
103727917,103727785,4259850,4325386,1.1356094e-05,8.934145e-05,-8.3661245e-05,-0.0005732092,0.0018557147,-0.04140435,4509,4270,0,2
104228162,104228056,4259850,4325386,4.7973896e-05,0.00016567505,-8.618778e-06,-0.0011411182,0.0006406272,-0.04267422,4420,4273,0,2
104728748,104728330,4259850,4325386,-1.9068297e-05,-0.00013178005,6.679606e-05,-0.0020004378,-0.0045704725,-0.05551869,4510,5698,0,2
105228755,105228644,4259850,4325386,-6.768702e-06,0.00014802262,-3.3519624e-05,0.0007060448,-0.0012950305,-0.05313739,4552,5697,0,2
105728973,105728871,4259850,4325386,0.00023576173,9.5551026e-05,-0.00012915808,-0.0016315856,-0.00023640216,-0.04212468,4463,4273,0,2
106729542,106729414,4259850,4325386,1.3557385e-05,-0.0003936218,0.00016711939,-0.00021182466,0.0013896947,-0.045254704,4503,4268,0,2
107229855,107229688,4259850,4325386,-2.7610611e-05,0.00016071954,-2.3826635e-05,-0.0011491582,0.0005131858,-0.042393282,4444,4272,0,2
107730109,107730005,4259850,4325386,0.00024745803,-0.00048017557,3.0799652e-05,-2.864227e-05,0.0018264726,-0.04137155,4549,4266,0,2
108225899,108225770,4259850,4325386,0.00042182463,5.0801602e-05,-4.3904874e-05,-0.0015612774,0.0020482657,-0.04140267,4555,4274,0,2
108726101,108725998,4259850,4325386,-5.9726633e-05,8.837398e-05,8.198669e-05,-0.00058717455,-0.0014097181,-0.043045122,4304,4275,0,2
109726717,109726602,4259850,4325386,0.00015215338,-0.00015312886,-8.4046806e-05,-0.0028332348,-0.00055373844,-0.05805308,4565,5701,0,2
110727469,110727357,4259850,4325386,-0.00063281716,0.00023845825,4.202988e-06,-0.0010540318,0.0013573807,-0.037351914,4772,4273,0,2
111727795,111727640,4259850,4325386,1.99271e-05,-0.0008169195,2.3194201e-05,0.01192459,0.0037548693,-0.046085063,4328,4398,0,2
112728343,112728188,4259850,4325386,3.3510303e-05,1.8790166e-05,-5.7179284e-05,0.00079586,0.0010616177,-0.053825494,4508,5696,0,2
113729830,113728986,4259850,4325386,1.214902e-05,1.673641e-06,2.4705585e-05,-0.00024999958,-0.00014388267,-0.041551217,4709,4276,0,2
