timestamp,timestamp_sample,gps_hvel[0],gps_hvel[1],gps_vvel,gps_hpos[0],gps_hpos[1],gps_vpos,ev_hvel[0],ev_hvel[1],ev_vvel,ev_hpos[0],ev_hpos[1],ev_vpos,rng_vpos,baro_vpos,aux_hvel[0],aux_hvel[1],aux_vvel,flow[0],flow[1],heading,mag_field[0],mag_field[1],mag_field[2],drag[0],drag[1],airspeed,beta,hagl
22227473,22226924,0.0,0.0,0.0,-0.014210668,0.012392997,0.0,0.0,0.0,0.0,0.0,0.0,0.0,0.0,0.011838913,0.0,0.0,nan,0.0,0.0,0.0049370825,0.0,0.0,0.0,0.0,0.0,0.0,0.0,0.0
22727622,22726938,0.0,0.0,0.0,-0.03559955,0.013971265,0.0,0.0,0.0,0.0,0.0,0.0,0.0,0.0,0.11119175,0.0,0.0,nan,0.0,0.0,-0.016185611,0.0,0.0,0.0,0.0,0.0,0.0,0.0,0.0
23223465,23222777,0.0,0.0,0.0,-0.061005495,0.016699191,0.0,0.0,0.0,0.0,0.0,0.0,0.0,0.0,0.0035247803,0.0,0.0,nan,0.0,0.0,-0.04616043,0.0,0.0,0.0,0.0,0.0,0.0,0.0,0.0
23728380,23727374,0.0,0.0,0.0,-0.13771525,0.035429522,0.0,0.0,0.0,0.0,0.0,0.0,0.0,0.0,-0.19394016,0.0,0.0,nan,0.0,0.0,-0.05641955,0.0,0.0,0.0,0.0,0.0,0.0,0.0,0.0
24227981,24227610,0.0,0.0,0.0,-0.3189363,0.038017787,0.0,0.0,0.0,0.0,0.0,0.0,0.0,0.0,-0.12493038,0.0,0.0,nan,0.0,0.0,-0.066882536,0.0,0.0,0.0,0.0,0.0,0.0,0.0,0.0
24723883,24723359,0.0,0.0,0.0,-0.48098952,0.017360663,0.0,0.0,0.0,0.0,0.0,0.0,0.0,0.0,0.006960869,0.0,0.0,nan,0.0,0.0,-0.10587193,0.0,0.0,0.0,0.0,0.0,0.0,0.0,0.0
25730000,25728641,0.0,0.0,0.0,-1.0509601,-0.07255417,0.0,0.0,0.0,0.0,0.0,0.0,0.0,0.0,0.08390236,0.0,0.0,nan,0.0,0.0,-0.06056896,0.0,0.0,0.0,0.0,0.0,0.0,0.0,0.0
26724895,26724495,0.0,0.0,0.0,-1.6683214,-0.17531532,0.0,0.0,0.0,0.0,0.0,0.0,0.0,0.0,-0.042146683,0.0,0.0,nan,0.0,0.0,-0.10361609,0.0,0.0,0.0,0.0,0.0,0.0,0.0,0.0
27721221,27720361,0.0,0.0,0.0,-1.9340053,-0.22886063,0.0,0.0,0.0,0.0,0.0,0.0,0.0,0.0,0.18136501,0.0,0.0,nan,0.0,0.0,-0.0780707,0.0,0.0,0.0,0.0,0.0,0.0,0.0,0.0
28721542,28720758,0.0,0.0,0.0,-1.7854699,-0.14361992,0.0,0.0,0.0,0.0,0.0,0.0,0.0,0.0,-0.09261894,0.0,0.0,nan,0.0,0.0,-0.058597088,0.0,0.0,0.0,0.0,0.0,0.0,0.0,0.0
29217010,29216635,0.0,0.0,0.0,-1.6409521,-0.03744975,0.0,0.0,0.0,0.0,0.0,0.0,0.0,0.0,-0.29594898,0.0,0.0,nan,0.0,0.0,-0.070598364,0.0,0.0,0.0,0.0,0.0,0.0,0.0,0.0
29728569,29725816,0.0,0.0,0.0,-1.4001231,0.1466685,0.0,0.0,0.0,0.0,0.0,0.0,0.0,0.0,-0.24021721,0.0,0.0,nan,0.0,0.0,-0.01662445,0.0054557323,-0.003215015,-0.0072033852,0.0,0.0,0.0,0.0,0.0
30230909,30226235,0.0,0.0,0.0,-1.274747,0.26398444,0.0,0.0,0.0,0.0,0.0,0.0,0.0,0.0,-0.09285641,0.0,0.0,nan,0.0,0.0,-0.01662445,0.001465559,0.007987261,0.010903373,0.0,0.0,0.0,0.0,0.0
30728192,30726232,0.0,0.0,0.0,-1.1731187,0.35067344,0.0,0.0,0.0,0.0,0.0,0.0,0.0,0.0,-0.114762306,0.0,0.0,nan,0.0,0.0,-0.01662445,-0.016032837,0.0055363774,0.0042779744,0.0,0.0,0.0,0.0,0.0
31222486,31222097,0.0,0.0,0.0,-1.061173,0.46630618,0.0,0.0,0.0,0.0,0.0,0.0,0.0,0.0,-0.12798023,0.0,0.0,nan,0.0,0.0,-0.01662445,-0.0056418516,-0.00387609,-0.0068981946,0.0,0.0,0.0,0.0,0.0
31722867,31722253,0.0,0.0,0.0,-1.0103192,0.5247851,0.0,0.0,0.0,0.0,0.0,0.0,0.0,0.0,-0.025096893,0.0,0.0,nan,0.0,0.0,-0.01662445,0.013591773,-0.00076654553,-6.058812e-05,0.0,0.0,0.0,0.0,0.0
32223347,32222451,0.0,0.0,0.0,-0.96937346,0.6021382,0.0,0.0,0.0,0.0,0.0,0.0,0.0,0.0,0.023394585,0.0,0.0,nan,0.0,0.0,-0.01662445,0.00046466012,0.008278817,-0.005743116,0.0,0.0,0.0,0.0,0.0
32725022,32722735,0.0,0.0,0.0,-0.9665423,0.64752704,0.0,0.0,0.0,0.0,0.0,0.0,0.0,0.0,0.0075244904,0.0,0.0,nan,0.0,0.0,-0.01662445,-0.015558563,0.010348082,-0.013396978,0.0,0.0,0.0,0.0,0.0
33228205,33227572,0.0,0.0,0.0,-0.98082185,0.7207065,0.0,0.0,0.0,0.0,0.0,0.0,0.0,0.0,-0.05469513,0.0,0.0,nan,0.0,0.0,0.09838617,-0.025755927,0.0048282146,0.0047378093,0.0,0.0,0.0,0.0,0.0
33733485,33732196,0.0,0.0,0.0,-1.0182388,0.74288905,0.0,0.0,0.0,0.0,0.0,0.0,0.0,0.0,-0.13336182,0.0,0.0,nan,0.0,0.0,0.015896082,-0.025755927,0.0048282146,0.0047378093,0.0,0.0,0.0,0.0,0.0
34228628,34227939,0.0,0.0,0.0,-1.0622942,0.7365244,0.0,0.0,0.0,0.0,0.0,0.0,0.0,0.0,-0.11905861,0.0,0.0,nan,0.0,0.0,-0.010276794,-0.025755927,0.0048282146,0.0047378093,0.0,0.0,0.0,0.0,0.0
34720163,34719208,0.0,0.0,0.0,-1.137299,0.682682,0.0,0.0,0.0,0.0,0.0,0.0,0.0,0.0,0.09526062,0.0,0.0,nan,0.0,0.0,0.02497089,-0.025755927,0.0048282146,0.0047378093,0.0,0.0,0.0,0.0,0.0
35224568,35223913,0.0,0.0,0.0,-1.19111,0.6354804,0.0,0.0,0.0,0.0,0.0,0.0,0.0,0.0,0.0142765045,0.0,0.0,nan,0.0,0.0,-0.010232806,-0.025755927,0.0048282146,0.0047378093,0.0,0.0,0.0,0.0,0.0
35729039,35728663,0.0,0.0,0.0,-1.249767,0.56052655,0.0,0.0,0.0,0.0,0.0,0.0,0.0,0.0,0.08708477,0.0,0.0,nan,0.0,0.0,0.012811422,-0.025755927,0.0048282146,0.0047378093,0.0,0.0,0.0,0.0,0.0
36229516,36228952,0.0,0.0,0.0,-1.2352834,0.5083624,0.0,0.0,0.0,0.0,0.0,0.0,0.0,0.0,0.06343365,0.0,0.0,nan,0.0,0.0,0.010445118,-0.025755927,0.0048282146,0.0047378093,0.0,0.0,0.0,0.0,0.0
36730028,36729345,0.0,0.0,0.0,-1.0948691,0.47608197,0.0,0.0,0.0,0.0,0.0,0.0,0.0,0.0,0.053588867,0.0,0.0,nan,0.0,0.0,-0.04404235,-0.025755927,0.0048282146,0.0047378093,0.0,0.0,0.0,0.0,0.0
37231103,37229397,0.0,0.0,0.0,-0.97498596,0.4445113,0.0,0.0,0.0,0.0,0.0,0.0,0.0,0.0,0.12517738,0.0,0.0,nan,0.0,0.0,-0.004681468,-0.025755927,0.0048282146,0.0047378093,0.0,0.0,0.0,0.0,0.0
37725595,37725229,0.0,0.0,0.0,-0.8461649,0.40506545,0.0,0.0,0.0,0.0,0.0,0.0,0.0,0.0,-0.0014886856,0.0,0.0,nan,0.0,0.0,0.03936863,-0.025755927,0.0048282146,0.0047378093,0.0,0.0,0.0,0.0,0.0
38221300,38220876,0.0,0.0,0.0,-0.6993495,0.33654106,0.0,0.0,0.0,0.0,0.0,0.0,0.0,0.0,0.08462715,0.0,0.0,nan,0.0,0.0,0.07093537,-0.025755927,0.0048282146,0.0047378093,0.0,0.0,0.0,0.0,0.0
38726288,38725627,0.0,0.0,0.0,-0.5799399,0.2573321,0.0,0.0,0.0,0.0,0.0,0.0,0.0,0.0,0.12799358,0.0,0.0,nan,0.0,0.0,0.059097886,0.0065074638,0.0055270195,-0.014377996,0.0,0.0,0.0,0.0,0.0
39222227,39221535,0.0,0.0,0.0,-0.32281247,0.091157556,0.0,0.0,0.0,0.0,0.0,0.0,0.0,0.0,-0.020363808,0.0,0.0,nan,0.0,0.0,0.059097886,-0.0011612289,-0.0053697824,-0.0073238164,0.0,0.0,0.0,0.0,0.0
39723792,39721658,0.0,0.0,0.0,-0.13623634,-0.06776725,0.0,0.0,0.0,0.0,0.0,0.0,0.0,0.0,0.21928692,0.0,0.0,nan,0.0,0.0,0.059097886,-7.152464e-05,-0.010957092,-0.011604026,0.0,0.0,0.0,0.0,0.0
40226748,40226365,0.0,0.0,0.0,0.06077064,-0.19122231,0.0,0.0,0.0,0.0,0.0,0.0,0.0,0.0,0.13444328,0.0,0.0,nan,0.0,0.0,0.059097886,-0.01730287,-0.005372554,0.00032290816,0.0,0.0,0.0,0.0,0.0
40722540,40717857,0.0,0.0,0.0,0.3242342,-0.305089,0.0,0.0,0.0,0.0,0.0,0.0,0.0,0.0,0.080690384,0.0,0.0,nan,0.0,0.0,0.059097886,-0.0123784095,-0.012554884,0.008032784,0.0,0.0,0.0,0.0,0.0
41227411,41227025,0.0,0.0,0.0,0.45320338,-0.381395,0.0,0.0,0.0,0.0,0.0,0.0,0.0,0.0,0.13245678,0.0,0.0,nan,0.0,0.0,0.059097886,0.004029453,-0.009797394,0.0005233884,0.0,0.0,0.0,0.0,0.0
41731840,41727150,0.0,0.0,0.0,0.53675735,-0.52804726,0.0,0.0,0.0,0.0,0.0,0.0,0.0,0.0,0.20993805,0.0,0.0,nan,0.0,0.0,0.059097886,-0.0025843382,-0.0034365952,0.0017437786,0.0,0.0,0.0,0.0,0.0
42227969,42227354,0.0,0.0,0.0,0.54106355,-0.60881764,0.0,0.0,0.0,0.0,0.0,0.0,0.0,0.0,-0.1180439,0.0,0.0,nan,0.0,0.0,0.059097886,0.007627785,-0.0015935302,0.009303942,0.0,0.0,0.0,0.0,0.0
42725424,42723358,0.0,0.0,0.0,0.52501476,-0.6632584,0.0,0.0,0.0,0.0,0.0,0.0,0.0,0.0,0.17243004,0.0,0.0,nan,0.0,0.0,0.059097886,0.008613437,0.0028607696,-0.0066105872,0.0,0.0,0.0,0.0,0.0
43223879,43223341,0.0,0.0,0.0,0.4836777,-0.6421987,0.0,0.0,0.0,0.0,0.0,0.0,0.0,0.0,-0.0058107376,0.0,0.0,nan,0.0,0.0,0.059097886,0.01801005,0.0068871044,0.0011912286,0.0,0.0,0.0,0.0,0.0
43720380,43719235,0.0,0.0,0.0,0.40631798,-0.5332875,0.0,0.0,0.0,0.0,0.0,0.0,0.0,0.0,0.0639143,0.0,0.0,nan,0.0,0.0,0.059097886,0.039797723,0.01535194,0.016346738,0.0,0.0,0.0,0.0,0.0
44231192,44228413,0.0,0.0,0.0,0.24635091,-0.2516887,0.0,0.0,0.0,0.0,0.0,0.0,0.0,0.0,-0.024186134,0.0,0.0,nan,0.0,0.0,0.059097886,0.032808915,0.012164593,-0.0012465864,0.0,0.0,0.0,0.0,0.0
44732402,44728850,0.0,0.0,0.0,0.15080532,-0.030628989,0.0,0.0,0.0,0.0,0.0,0.0,0.0,0.0,-0.03864193,0.0,0.0,nan,0.0,0.0,0.059097886,0.024195626,0.016376555,-0.0006200224,0.0,0.0,0.0,0.0,0.0
45231246,45228842,0.0,0.0,0.0,0.07751121,0.29245704,0.0,0.0,0.0,0.0,0.0,0.0,0.0,0.0,-0.0023326874,0.0,0.0,nan,0.0,0.0,0.059097886,0.02249451,0.02451852,0.0053557307,0.0,0.0,0.0,0.0,0.0
45725112,45724733,0.0,0.0,0.0,0.025930068,0.5909584,0.0,0.0,0.0,0.0,0.0,0.0,0.0,0.0,-0.06916523,0.0,0.0,nan,0.0,0.0,0.059097886,0.04501199,0.021177188,0.0038894564,0.0,0.0,0.0,0.0,0.0
46229322,46224831,0.0,0.0,0.0,-0.08864455,0.947324,0.0,0.0,0.0,0.0,0.0,0.0,0.0,0.0,-0.16061592,0.0,0.0,nan,0.0,0.0,0.059097886,0.041826855,0.021465361,0.0029760152,0.0,0.0,0.0,0.0,0.0
46725493,46725082,0.0,0.0,0.0,-0.23239933,1.2260146,0.0,0.0,0.0,0.0,0.0,0.0,0.0,0.0,0.14011192,0.0,0.0,nan,0.0,0.0,0.059097886,0.036167506,0.025653943,-0.011573151,0.0,0.0,0.0,0.0,0.0
47227506,47225375,0.0,0.0,0.0,-0.33190742,1.5080191,0.0,0.0,0.0,0.0,0.0,0.0,0.0,0.0,-0.100486755,0.0,0.0,nan,0.0,0.0,0.059097886,0.042807557,0.022213355,0.005888939,0.0,0.0,0.0,0.0,0.0
47730751,47730241,0.0,0.0,0.0,-0.51393574,1.942954,0.0,0.0,0.0,0.0,0.0,0.0,0.0,0.0,-0.24197578,0.0,0.0,nan,0.0,0.0,0.059097886,0.02800195,0.017337203,0.005724907,0.0,0.0,0.0,0.0,0.0
48218353,48216966,0.0,0.0,0.0,-0.61278063,2.2313197,0.0,0.0,0.0,0.0,0.0,0.0,0.0,0.0,0.07469463,0.0,0.0,nan,0.0,0.0,0.059097886,0.026747495,0.01908803,0.013575733,0.0,0.0,0.0,0.0,0.0
48728472,48726142,0.0,0.0,0.0,-0.6732447,2.554739,0.0,0.0,0.0,0.0,0.0,0.0,0.0,0.0,-0.17406845,0.0,0.0,nan,0.0,0.0,0.059097886,0.030132428,0.013309419,-0.003886804,0.0,0.0,0.0,0.0,0.0
49727203,49726628,0.0,0.0,0.0,-0.62270254,2.929284,0.0,0.0,0.0,0.0,0.0,0.0,0.0,0.0,-0.25316048,0.0,0.0,nan,0.0,0.0,0.059097886,0.024244875,-0.0063613057,-0.0006208718,0.0,0.0,0.0,0.0,0.0
50224790,50222474,0.0,0.0,0.0,-0.5842239,3.0118852,0.0,0.0,0.0,0.0,0.0,0.0,0.0,0.0,-0.23554707,0.0,0.0,nan,0.0,0.0,0.059097886,0.013908416,-0.009167429,-0.0005747378,0.0,0.0,0.0,0.0,0.0
50723600,50722576,0.0,0.0,0.0,-0.4429024,3.0473764,0.0,0.0,0.0,0.0,0.0,0.0,0.0,0.0,-0.07277584,0.0,0.0,nan,0.0,0.0,0.059097886,0.02078852,-0.01051243,-0.0034187734,0.0,0.0,0.0,0.0,0.0
51228175,51227353,0.0,0.0,0.0,-0.40436375,3.017505,0.0,0.0,0.0,0.0,0.0,0.0,0.0,0.0,-0.21870708,0.0,0.0,nan,0.0,0.0,0.059097886,0.009929538,-0.015665473,-0.0035165101,0.0,0.0,0.0,0.0,0.0
51719187,51718814,0.0,0.0,0.0,-0.36993244,2.9776862,0.0,0.0,0.0,0.0,0.0,0.0,0.0,0.0,-0.041449547,0.0,0.0,nan,0.0,0.0,0.059097886,0.0020379722,-0.017028235,0.0028976798,0.0,0.0,0.0,0.0,0.0
52228455,52227990,0.0,0.0,0.0,-0.35538852,2.973365,0.0,0.0,0.0,0.0,0.0,0.0,0.0,0.0,-0.23312855,0.0,0.0,nan,0.0,0.0,0.059097886,0.0017437935,-0.022192009,0.006690219,0.0,0.0,0.0,0.0,0.0
52728685,52728094,0.0,0.0,0.0,-0.39214608,2.9441895,0.0,0.0,0.0,0.0,0.0,0.0,0.0,0.0,0.034607887,0.0,0.0,nan,0.0,0.0,0.059097886,0.0069169104,-0.009769436,0.013986394,0.0,0.0,0.0,0.0,0.0
53729874,53728596,0.0,0.0,0.0,-0.53392404,2.7922146,0.0,0.0,0.0,0.0,0.0,0.0,0.0,0.0,0.2863083,0.0,0.0,nan,0.0,0.0,-0.061995983,0.00981003,-0.008954175,0.0074688345,0.0,0.0,0.0,0.0,0.0
54224924,54224387,0.0,0.0,0.0,-0.6154561,2.7170866,0.0,0.0,0.0,0.0,0.0,0.0,0.0,0.0,0.26930332,0.0,0.0,nan,0.0,0.0,-0.053993225,0.00981003,-0.008954175,0.0074688345,0.0,0.0,0.0,0.0,0.0
54729513,54729144,0.0,0.0,0.0,-0.64554983,2.6822248,0.0,0.0,0.0,0.0,0.0,0.0,0.0,0.0,0.25924492,0.0,0.0,nan,0.0,0.0,-0.040051937,0.00981003,-0.008954175,0.0074688345,0.0,0.0,0.0,0.0,0.0
55229985,55229428,0.0,0.0,0.0,-0.6517522,2.6888266,0.0,0.0,0.0,0.0,0.0,0.0,0.0,0.0,0.17737007,0.0,0.0,nan,0.0,0.0,-0.060679913,0.00981003,-0.008954175,0.0074688345,0.0,0.0,0.0,0.0,0.0
55725887,55725099,0.0,0.0,0.0,-0.694008,2.6958911,0.0,0.0,0.0,0.0,0.0,0.0,0.0,0.0,0.29782104,0.0,0.0,nan,0.0,0.0,-0.038389683,0.00981003,-0.008954175,0.0074688345,0.0,0.0,0.0,0.0,0.0
56217040,56216595,0.0,0.0,0.0,-0.74034137,2.70295,0.0,0.0,0.0,0.0,0.0,0.0,0.0,0.0,0.3809719,0.0,0.0,nan,0.0,0.0,-0.058523655,0.00981003,-0.008954175,0.0074688345,0.0,0.0,0.0,0.0,0.0
56726192,56725787,0.0,0.0,0.0,-0.84189945,2.7094069,0.0,0.0,0.0,0.0,0.0,0.0,0.0,0.0,0.31173134,0.0,0.0,nan,0.0,0.0,-0.07265329,0.00981003,-0.008954175,0.0074688345,0.0,0.0,0.0,0.0,0.0
57226614,57225859,0.0,0.0,0.0,-0.9267631,2.6890879,0.0,0.0,0.0,0.0,0.0,0.0,0.0,0.0,0.417984,0.0,0.0,nan,0.0,0.0,-0.050011158,0.00981003,-0.008954175,0.0074688345,0.0,0.0,0.0,0.0,0.0
57722494,57721700,0.0,0.0,0.0,-1.1095634,2.5629885,0.0,0.0,0.0,0.0,0.0,0.0,0.0,0.0,0.24391937,0.0,0.0,nan,0.0,0.0,-0.05958748,0.00981003,-0.008954175,0.0074688345,0.0,0.0,0.0,0.0,0.0
58227536,58226371,0.0,0.0,0.0,-1.240447,2.4041922,0.0,0.0,0.0,0.0,0.0,0.0,0.0,0.0,0.23345089,0.0,0.0,nan,0.0,0.0,-0.098067045,0.00981003,-0.008954175,0.0074688345,0.0,0.0,0.0,0.0,0.0
58722956,58722164,0.0,0.0,0.0,-1.4431394,2.0120873,0.0,0.0,0.0,0.0,0.0,0.0,0.0,0.0,0.16269684,0.0,0.0,nan,0.0,0.0,-0.07412863,-0.033299148,-0.012283441,-0.014030874,0.0,0.0,0.0,0.0,0.0
59730200,59727223,0.0,0.0,0.0,-1.6317381,1.6824399,0.0,0.0,0.0,0.0,0.0,0.0,0.0,0.0,0.24503136,0.0,0.0,nan,0.0,0.0,-0.07412863,-0.023620397,0.02966249,-0.0049064755,0.0,0.0,0.0,0.0,0.0
60228732,60227689,0.0,0.0,0.0,-1.9396652,1.4596905,0.0,0.0,0.0,0.0,0.0,0.0,0.0,0.0,0.19329071,0.0,0.0,nan,0.0,0.0,-0.07412863,-0.017829448,0.040023,0.00452438,0.0,0.0,0.0,0.0,0.0
60728221,60727642,0.0,0.0,0.0,-2.2228782,1.2921783,0.0,0.0,0.0,0.0,0.0,0.0,0.0,0.0,0.21908855,0.0,0.0,nan,0.0,0.0,-0.07412863,-0.023737118,0.043151185,0.0024285913,0.0,0.0,0.0,0.0,0.0
61219396,61218931,0.0,0.0,0.0,-2.6531713,0.97014314,0.0,0.0,0.0,0.0,0.0,0.0,0.0,0.0,0.26464748,0.0,0.0,nan,0.0,0.0,-0.07412863,-0.0033343583,0.04745969,0.0007914156,0.0,0.0,0.0,0.0,0.0
61734799,61732791,0.0,0.0,0.0,-2.8343046,0.7933351,0.0,0.0,0.0,0.0,0.0,0.0,0.0,0.0,0.056694984,0.0,0.0,nan,0.0,0.0,-0.07412863,-0.0061120987,0.032578096,-0.013223991,0.0,0.0,0.0,0.0,0.0
62228789,62228411,0.0,0.0,0.0,-3.050151,0.4771875,0.0,0.0,0.0,0.0,0.0,0.0,0.0,0.0,0.15699005,0.0,0.0,nan,0.0,0.0,-0.07412863,-0.024177864,0.028850198,-0.006195247,0.0,0.0,0.0,0.0,0.0
62720230,62719657,0.0,0.0,0.0,-3.2922351,0.26954895,0.0,0.0,0.0,0.0,0.0,0.0,0.0,0.0,0.055182457,0.0,0.0,nan,0.0,0.0,-0.07412863,-0.0033436567,0.05414319,-0.017144814,0.0,0.0,0.0,0.0,0.0
63224870,63224461,0.0,0.0,0.0,-3.585321,0.091397114,0.0,0.0,0.0,0.0,0.0,0.0,0.0,0.0,-0.11237049,0.0,0.0,nan,0.0,0.0,-0.07412863,0.01678437,0.053258732,-0.011567205,0.0,0.0,0.0,0.0,0.0
63731742,63729179,0.0,0.0,0.0,-4.0508037,-0.09689671,0.0,0.0,0.0,0.0,0.0,0.0,0.0,0.0,-0.050138474,0.0,0.0,nan,0.0,0.0,-0.07412863,0.009907074,0.04595247,-0.023831785,0.0,0.0,0.0,0.0,0.0
64225534,64225074,0.0,0.0,0.0,-4.3715415,-0.15015882,0.0,0.0,0.0,0.0,0.0,0.0,0.0,0.0,-0.09591961,0.0,0.0,nan,0.0,0.0,-0.07412863,0.022470636,0.035731703,-0.017060831,0.0,0.0,0.0,0.0,0.0
64732269,64729693,0.0,0.0,0.0,-4.813914,-0.1198589,0.0,0.0,0.0,0.0,0.0,0.0,0.0,0.0,0.0625267,0.0,0.0,nan,0.0,0.0,-0.07412863,0.028121477,0.03269972,-0.009695277,0.0,0.0,0.0,0.0,0.0
65227573,65225443,0.0,0.0,0.0,-5.271411,0.002509891,0.0,0.0,0.0,0.0,0.0,0.0,0.0,0.0,0.060544014,0.0,0.0,nan,0.0,0.0,-0.07412863,0.036204033,0.0324426,-0.017158419,0.0,0.0,0.0,0.0,0.0
66232642,66230682,0.0,0.0,0.0,-6.472453,0.57142794,0.0,0.0,0.0,0.0,0.0,0.0,0.0,0.0,0.017126083,0.0,0.0,nan,0.0,0.0,-0.07412863,0.03789006,0.0016429126,-0.014436111,0.0,0.0,0.0,0.0,0.0
66722013,66717345,0.0,0.0,0.0,-7.0163646,1.0518516,0.0,0.0,0.0,0.0,0.0,0.0,0.0,0.0,-0.037557602,0.0,0.0,nan,0.0,0.0,-0.07412863,0.031278595,-0.005445428,-0.002419293,0.0,0.0,0.0,0.0,0.0
67229664,67226548,0.0,0.0,0.0,-7.3814416,1.4125034,0.0,0.0,0.0,0.0,0.0,0.0,0.0,0.0,-0.05138588,0.0,0.0,nan,0.0,0.0,-0.07412863,0.020510763,-0.035125636,0.00074361265,0.0,0.0,0.0,0.0,0.0
67727255,67726735,0.0,0.0,0.0,-7.6938357,1.8283775,0.0,0.0,0.0,0.0,0.0,0.0,0.0,0.0,-0.035064697,0.0,0.0,nan,0.0,0.0,-0.07412863,0.006973505,-0.045212,0.0068615675,0.0,0.0,0.0,0.0,0.0
68229301,68227036,0.0,0.0,0.0,-8.313942,2.4411838,0.0,0.0,0.0,0.0,0.0,0.0,0.0,0.0,0.01674366,0.0,0.0,nan,0.0,0.0,-0.07412863,0.020706892,-0.050722197,-0.003994137,0.0,0.0,0.0,0.0,0.0
68723446,68722929,0.0,0.0,0.0,-9.005054,2.9228857,0.0,0.0,0.0,0.0,0.0,0.0,0.0,0.0,0.008810043,0.0,0.0,nan,0.0,0.0,-0.07412863,0.0029649884,-0.05631776,0.011724681,0.0,0.0,0.0,0.0,0.0
69227885,69227516,0.0,0.0,0.0,-10.25458,3.4508157,0.0,0.0,0.0,0.0,0.0,0.0,0.0,0.0,-0.38207436,0.0,0.0,nan,0.0,0.0,-0.07412863,0.0076644635,-0.04797837,0.016916782,0.0,0.0,0.0,0.0,0.0
69732014,69727766,0.0,0.0,0.0,-11.149782,3.589988,0.0,0.0,0.0,0.0,0.0,0.0,0.0,0.0,-0.2249794,0.0,0.0,nan,0.0,0.0,-0.07412863,0.002574034,-0.041828066,0.018771052,0.0,0.0,0.0,0.0,0.0
70224068,70223527,0.0,0.0,0.0,-12.433243,3.5023396,0.0,0.0,0.0,0.0,0.0,0.0,0.0,0.0,-0.16548347,0.0,0.0,nan,0.0,0.0,-0.07412863,0.005887702,-0.034102947,0.03759308,0.0,0.0,0.0,0.0,0.0
70730657,70728503,0.0,0.0,0.0,-13.086933,3.2821074,0.0,0.0,0.0,0.0,0.0,0.0,0.0,0.0,-0.25661278,0.0,0.0,nan,0.0,0.0,-0.07412863,0.004590377,-0.026625946,0.036569074,0.0,0.0,0.0,0.0,0.0
71229129,71228545,0.0,0.0,0.0,-13.59181,2.9162686,0.0,0.0,0.0,0.0,0.0,0.0,0.0,0.0,0.03734207,0.0,0.0,nan,0.0,0.0,-0.07412863,0.025754541,-0.01744993,0.0359212,0.0,0.0,0.0,0.0,0.0
71727083,71724477,0.0,0.0,0.0,-13.984566,2.2067418,0.0,0.0,0.0,0.0,0.0,0.0,0.0,0.0,-0.0018138885,0.0,0.0,nan,0.0,0.0,-0.07412863,0.014686257,-0.010412738,0.035053626,0.0,0.0,0.0,0.0,0.0
72229705,72229068,0.0,0.0,0.0,-14.018887,1.7673374,0.0,0.0,0.0,0.0,0.0,0.0,0.0,0.0,-0.22686672,0.0,0.0,nan,0.0,0.0,-0.07412863,0.037174344,-0.009457961,0.039927468,0.0,0.0,0.0,0.0,0.0
72726951,72724824,0.0,0.0,0.0,-13.901397,1.2784296,0.0,0.0,0.0,0.0,0.0,0.0,0.0,0.0,0.005988121,0.0,0.0,nan,0.0,0.0,-0.07412863,0.017111585,-0.020946383,0.030395404,0.0,0.0,0.0,0.0,0.0
73223161,73220798,0.0,0.0,0.0,-13.840132,1.0675665,0.0,0.0,0.0,0.0,0.0,0.0,0.0,0.0,-0.33615398,0.0,0.0,nan,0.0,0.0,-0.07412863,0.03235583,-0.017140627,0.039999098,0.0,0.0,0.0,0.0,0.0
73721934,73720833,0.0,0.0,0.0,-13.497859,0.9428485,0.0,0.0,0.0,0.0,0.0,0.0,0.0,0.0,-0.07884598,0.0,0.0,nan,0.0,0.0,-0.07412863,0.04492855,0.00066901743,0.031711176,0.0,0.0,0.0,0.0,0.0
74217101,74216736,0.0,0.0,0.0,-13.606565,0.9811667,0.0,0.0,0.0,0.0,0.0,0.0,0.0,0.0,-0.08145523,0.0,0.0,nan,0.0,0.0,-0.045084476,0.04750392,-0.0003438592,0.03712149,0.0,0.0,0.0,0.0,0.0
74726483,74725928,0.0,0.0,0.0,-13.820729,0.97429866,0.0,0.0,0.0,0.0,0.0,0.0,0.0,0.0,-0.3857689,0.0,0.0,nan,0.0,0.0,-0.06850767,0.04750392,-0.0003438592,0.03712149,0.0,0.0,0.0,0.0,0.0
75226763,75226383,0.0,0.0,0.0,-13.917322,0.99400294,0.0,0.0,0.0,0.0,0.0,0.0,0.0,0.0,-0.13293171,0.0,0.0,nan,0.0,0.0,-0.059898615,0.04750392,-0.0003438592,0.03712149,0.0,0.0,0.0,0.0,0.0
75727045,75726384,0.0,0.0,0.0,-13.940561,1.0395644,0.0,0.0,0.0,0.0,0.0,0.0,0.0,0.0,-0.17835712,0.0,0.0,nan,0.0,0.0,-0.0730505,0.04750392,-0.0003438592,0.03712149,0.0,0.0,0.0,0.0,0.0
76223170,76222320,0.0,0.0,0.0,-13.841262,1.1057949,0.0,0.0,0.0,0.0,0.0,0.0,0.0,0.0,-0.32001114,0.0,0.0,nan,0.0,0.0,-0.039203644,0.04750392,-0.0003438592,0.03712149,0.0,0.0,0.0,0.0,0.0
76723140,76722450,0.0,0.0,0.0,-13.631324,1.1384195,0.0,0.0,0.0,0.0,0.0,0.0,0.0,0.0,-0.18840504,0.0,0.0,nan,0.0,0.0,-0.032249212,0.04750392,-0.0003438592,0.03712149,0.0,0.0,0.0,0.0,0.0
77227772,77227170,0.0,0.0,0.0,-13.068582,1.1576166,0.0,0.0,0.0,0.0,0.0,0.0,0.0,0.0,-0.19384193,0.0,0.0,nan,0.0,0.0,-0.026479244,0.04750392,-0.0003438592,0.03712149,0.0,0.0,0.0,0.0,0.0
77723282,77722924,0.0,0.0,0.0,-12.639902,1.1519243,0.0,0.0,0.0,0.0,0.0,0.0,0.0,0.0,-0.3314228,0.0,0.0,nan,0.0,0.0,-0.01188159,0.04750392,-0.0003438592,0.03712149,0.0,0.0,0.0,0.0,0.0
78223562,78223186,0.0,0.0,0.0,-12.115996,1.1293138,0.0,0.0,0.0,0.0,0.0,0.0,0.0,0.0,-0.39926434,0.0,0.0,nan,0.0,0.0,-0.010607719,0.04750392,-0.0003438592,0.03712149,0.0,0.0,0.0,0.0,0.0
78729281,78728001,0.0,0.0,0.0,-11.28936,1.0293899,0.0,0.0,0.0,0.0,0.0,0.0,0.0,0.0,-0.29316425,0.0,0.0,nan,0.0,0.0,-0.014531374,0.04750392,-0.0003438592,0.03712149,0.0,0.0,0.0,0.0,0.0
79719938,79719513,0.0,0.0,0.0,-9.85144,0.77947474,0.0,0.0,0.0,0.0,0.0,0.0,0.0,0.0,-0.26992416,0.0,0.0,nan,0.0,0.0,-0.023014545,0.04750392,-0.0003438592,0.03712149,0.0,0.0,0.0,0.0,0.0
80224651,80224237,0.0,0.0,0.0,-9.304671,0.6543378,0.0,0.0,0.0,0.0,0.0,0.0,0.0,0.0,-0.08775425,0.0,0.0,nan,0.0,0.0,-0.033643484,0.04750392,-0.0003438592,0.03712149,0.0,0.0,0.0,0.0,0.0
80726193,80724500,0.0,0.0,0.0,-8.5149355,0.5048679,0.0,0.0,0.0,0.0,0.0,0.0,0.0,0.0,-0.31505966,0.0,0.0,nan,0.0,0.0,-0.056991577,0.04750392,-0.0003438592,0.03712149,0.0,0.0,0.0,0.0,0.0
81730264,81729534,0.0,0.0,0.0,-7.195366,0.37931922,0.0,0.0,0.0,0.0,0.0,0.0,0.0,0.0,-0.30133915,0.0,0.0,nan,0.0,0.0,-0.043691874,0.04750392,-0.0003438592,0.03712149,0.0,0.0,0.0,0.0,0.0
82230252,82229798,0.0,0.0,0.0,-6.707964,0.37171823,0.0,0.0,0.0,0.0,0.0,0.0,0.0,0.0,-0.49517822,0.0,0.0,nan,0.0,0.0,-0.024557352,0.04750392,-0.0003438592,0.03712149,0.0,0.0,0.0,0.0,0.0
82726064,82725554,0.0,0.0,0.0,-6.225232,0.3822363,0.0,0.0,0.0,0.0,0.0,0.0,0.0,0.0,-0.30863857,0.0,0.0,nan,0.0,0.0,-0.04016328,0.04750392,-0.0003438592,0.03712149,0.0,0.0,0.0,0.0,0.0
83226983,83225819,0.0,0.0,0.0,-5.4717073,0.43869612,0.0,0.0,0.0,0.0,0.0,0.0,0.0,0.0,-0.31787682,0.0,0.0,nan,0.0,0.0,-0.033401966,0.04750392,-0.0003438592,0.03712149,0.0,0.0,0.0,0.0,0.0
83722292,83721796,0.0,0.0,0.0,-4.950581,0.53972983,0.0,0.0,0.0,0.0,0.0,0.0,0.0,0.0,-0.29435444,0.0,0.0,nan,0.0,0.0,-0.010242224,0.04750392,-0.0003438592,0.03712149,0.0,0.0,0.0,0.0,0.0
84222509,84221841,0.0,0.0,0.0,-4.1464095,0.75108016,0.0,0.0,0.0,0.0,0.0,0.0,0.0,0.0,-0.25544643,0.0,0.0,nan,0.0,0.0,-0.0035908222,0.04750392,-0.0003438592,0.03712149,0.0,0.0,0.0,0.0,0.0
84726986,84726613,0.0,0.0,0.0,-3.6269495,0.88612974,0.0,0.0,0.0,0.0,0.0,0.0,0.0,0.0,-0.45791626,0.0,0.0,nan,0.0,0.0,0.010866165,0.04750392,-0.0003438592,0.03712149,0.0,0.0,0.0,0.0,0.0
85223612,85222370,0.0,0.0,0.0,-2.9100022,1.0849893,0.0,0.0,0.0,0.0,0.0,0.0,0.0,0.0,-0.029762268,0.0,0.0,nan,0.0,0.0,0.014038086,0.04750392,-0.0003438592,0.03712149,0.0,0.0,0.0,0.0,0.0
85728431,85727395,0.0,0.0,0.0,-2.4426985,1.2038469,0.0,0.0,0.0,0.0,0.0,0.0,0.0,0.0,0.047863007,0.0,0.0,nan,0.0,0.0,0.028494596,0.04750392,-0.0003438592,0.03712149,0.0,0.0,0.0,0.0,0.0
86228191,86227410,0.0,0.0,0.0,-2.0019264,1.290633,0.0,0.0,0.0,0.0,0.0,0.0,0.0,0.0,-0.017929077,0.0,0.0,nan,0.0,0.0,-0.0029816628,0.04750392,-0.0003438592,0.03712149,0.0,0.0,0.0,0.0,0.0
86723763,86723325,0.0,0.0,0.0,-1.3881303,1.4345385,0.0,0.0,0.0,0.0,0.0,0.0,0.0,0.0,-0.020899773,0.0,0.0,nan,0.0,0.0,0.014088631,0.04750392,-0.0003438592,0.03712149,0.0,0.0,0.0,0.0,0.0
87728580,87728204,0.0,0.0,0.0,-0.51761365,1.6446826,0.0,0.0,0.0,0.0,0.0,0.0,0.0,0.0,-0.12094307,0.0,0.0,nan,0.0,0.0,0.052539587,0.04750392,-0.0003438592,0.03712149,0.0,0.0,0.0,0.0,0.0
88229971,88228487,0.0,0.0,0.0,-0.13554762,1.7290884,0.0,0.0,0.0,0.0,0.0,0.0,0.0,0.0,-0.14153767,0.0,0.0,nan,0.0,0.0,0.030947685,0.04750392,-0.0003438592,0.03712149,0.0,0.0,0.0,0.0,0.0
88724730,88724229,0.0,0.0,0.0,0.25120518,1.8107128,0.0,0.0,0.0,0.0,0.0,0.0,0.0,0.0,0.045028687,0.0,0.0,nan,0.0,0.0,0.034692645,0.04750392,-0.0003438592,0.03712149,0.0,0.0,0.0,0.0,0.0
89229700,89229047,0.0,0.0,0.0,0.713038,1.8811886,0.0,0.0,0.0,0.0,0.0,0.0,0.0,0.0,0.0946846,0.0,0.0,nan,0.0,0.0,0.048908472,0.04750392,-0.0003438592,0.03712149,0.0,0.0,0.0,0.0,0.0
89725422,89724917,0.0,0.0,0.0,0.9739176,1.9211535,0.0,0.0,0.0,0.0,0.0,0.0,0.0,0.0,-0.0074062347,0.0,0.0,nan,0.0,0.0,0.10186732,0.04750392,-0.0003438592,0.03712149,0.0,0.0,0.0,0.0,0.0
90721278,90720846,0.0,0.0,0.0,1.5210053,2.0189238,0.0,0.0,0.0,0.0,0.0,0.0,0.0,0.0,-0.04456806,0.0,0.0,nan,0.0,0.0,0.12517166,0.04750392,-0.0003438592,0.03712149,0.0,0.0,0.0,0.0,0.0
91221830,91221367,0.0,0.0,0.0,1.7820789,2.0003881,0.0,0.0,0.0,0.0,0.0,0.0,0.0,0.0,0.22349453,0.0,0.0,nan,0.0,0.0,0.13606155,0.04750392,-0.0003438592,0.03712149,0.0,0.0,0.0,0.0,0.0
91721864,91721321,0.0,0.0,0.0,1.9453393,1.9250306,0.0,0.0,0.0,0.0,0.0,0.0,0.0,0.0,0.05123806,0.0,0.0,nan,0.0,0.0,0.15864682,0.04750392,-0.0003438592,0.03712149,0.0,0.0,0.0,0.0,0.0
92220466,92217255,0.0,0.0,0.0,2.2049642,2.0572278,0.0,0.0,0.0,0.0,0.0,0.0,0.0,0.0,0.06384468,0.0,0.0,nan,0.0,0.0,0.15911114,-0.054936826,-0.0028546453,-0.00021474063,0.0,0.0,0.0,0.0,0.0
92728823,92726461,0.0,0.0,0.0,2.33371,3.049531,0.0,0.0,0.0,0.0,0.0,0.0,0.0,0.0,0.076128006,0.0,0.0,nan,0.0,0.0,0.15911114,-0.054017544,-0.010702223,3.772974e-05,0.0,0.0,0.0,0.0,0.0
93228803,93226630,0.0,0.0,0.0,2.6139684,4.008723,0.0,0.0,0.0,0.0,0.0,0.0,0.0,0.0,0.104727745,0.0,0.0,nan,0.0,0.0,0.15911114,-0.04989548,-0.007108748,-0.0034538805,0.0,0.0,0.0,0.0,0.0
93727496,93726898,0.0,0.0,0.0,3.3455725,5.1102076,0.0,0.0,0.0,0.0,0.0,0.0,0.0,0.0,0.10884476,0.0,0.0,nan,0.0,0.0,0.15911114,-0.04936497,-0.001964867,-0.0030961037,0.0,0.0,0.0,0.0,0.0
94231810,94227166,0.0,0.0,0.0,3.8726654,5.647681,0.0,0.0,0.0,0.0,0.0,0.0,0.0,0.0,0.08488941,0.0,0.0,nan,0.0,0.0,0.15911114,-0.04058437,-0.008936897,0.006284803,0.0,0.0,0.0,0.0,0.0
94723802,94722927,0.0,0.0,0.0,4.83027,6.431136,0.0,0.0,0.0,0.0,0.0,0.0,0.0,0.0,0.059209824,0.0,0.0,nan,0.0,0.0,0.15911114,-0.051998705,-0.010457367,-0.02077213,0.0,0.0,0.0,0.0,0.0
95219210,95218840,0.0,0.0,0.0,5.574351,6.847521,0.0,0.0,0.0,0.0,0.0,0.0,0.0,0.0,0.06193447,0.0,0.0,nan,0.0,0.0,0.15911114,-0.04682803,-0.0124109015,0.0031024665,0.0,0.0,0.0,0.0,0.0
95730151,95728050,0.0,0.0,0.0,6.4260373,7.0262227,0.0,0.0,0.0,0.0,0.0,0.0,0.0,0.0,-0.0031957626,0.0,0.0,nan,0.0,0.0,0.15911114,-0.022734314,-0.001517497,-0.0018386245,0.0,0.0,0.0,0.0,0.0
96229101,96228241,0.0,0.0,0.0,6.673185,6.963681,0.0,0.0,0.0,0.0,0.0,0.0,0.0,0.0,0.013853073,0.0,0.0,nan,0.0,0.0,0.15911114,-0.029829264,-0.014737615,0.0115439445,0.0,0.0,0.0,0.0,0.0
96724389,96724000,0.0,0.0,0.0,7.0745564,7.0958433,0.0,0.0,0.0,0.0,0.0,0.0,0.0,0.0,-0.24784088,0.0,0.0,nan,0.0,0.0,0.15911114,-0.029665112,-0.0004738979,0.011258543,0.0,0.0,0.0,0.0,0.0
97225100,97224475,0.0,0.0,0.0,7.4468555,7.3354044,0.0,0.0,0.0,0.0,0.0,0.0,0.0,0.0,-0.13690567,0.0,0.0,nan,0.0,0.0,0.15911114,-0.029864848,-0.006852858,0.007265657,0.0,0.0,0.0,0.0,0.0
97726751,97724585,0.0,0.0,0.0,7.6025047,7.5623665,0.0,0.0,0.0,0.0,0.0,0.0,0.0,0.0,-0.12778282,0.0,0.0,nan,0.0,0.0,0.15911114,-0.019239292,0.0036198306,0.0017795563,0.0,0.0,0.0,0.0,0.0
98220977,98220440,0.0,0.0,0.0,7.4300113,7.699255,0.0,0.0,0.0,0.0,0.0,0.0,0.0,0.0,-0.20051575,0.0,0.0,nan,0.0,0.0,-0.044931144,-0.010838777,0.012026584,0.0120755285,0.0,0.0,0.0,0.0,0.0
98721284,98720572,0.0,0.0,0.0,7.2014437,7.8732705,0.0,0.0,0.0,0.0,0.0,0.0,0.0,0.0,0.054963112,0.0,0.0,nan,0.0,0.0,-0.025681265,-0.010838777,0.012026584,0.0120755285,0.0,0.0,0.0,0.0,0.0
99225714,99225350,0.0,0.0,0.0,6.953947,8.258863,0.0,0.0,0.0,0.0,0.0,0.0,0.0,0.0,-0.23839188,0.0,0.0,nan,0.0,0.0,-0.06379286,-0.010838777,0.012026584,0.0120755285,0.0,0.0,0.0,0.0,0.0
99717220,99716857,0.0,0.0,0.0,6.8311734,8.574456,0.0,0.0,0.0,0.0,0.0,0.0,0.0,0.0,-0.05144024,0.0,0.0,nan,0.0,0.0,-0.051740564,-0.010838777,0.012026584,0.0120755285,0.0,0.0,0.0,0.0,0.0
100226534,100226067,0.0,0.0,0.0,6.7322173,8.836188,0.0,0.0,0.0,0.0,0.0,0.0,0.0,0.0,-0.040058136,0.0,0.0,nan,0.0,0.0,-0.061751544,-0.010838777,0.012026584,0.0120755285,0.0,0.0,0.0,0.0,0.0
100722064,100721697,0.0,0.0,0.0,6.680633,9.16429,0.0,0.0,0.0,0.0,0.0,0.0,0.0,0.0,0.06306362,0.0,0.0,nan,0.0,0.0,-0.0016680807,-0.010838777,0.012026584,0.0120755285,0.0,0.0,0.0,0.0,0.0
101222386,101222019,0.0,0.0,0.0,6.628905,9.270449,0.0,0.0,0.0,0.0,0.0,0.0,0.0,0.0,-0.001531601,0.0,0.0,nan,0.0,0.0,-0.010921769,-0.010838777,0.012026584,0.0120755285,0.0,0.0,0.0,0.0,0.0
101727186,101726700,0.0,0.0,0.0,6.5072045,9.400867,0.0,0.0,0.0,0.0,0.0,0.0,0.0,0.0,-0.2766409,0.0,0.0,nan,0.0,0.0,-0.014662266,-0.010838777,0.012026584,0.0120755285,0.0,0.0,0.0,0.0,0.0
102223193,102222463,0.0,0.0,0.0,6.4091625,9.410281,0.0,0.0,0.0,0.0,0.0,0.0,0.0,0.0,-0.102241516,0.0,0.0,nan,0.0,0.0,-0.003426239,-0.010838777,0.012026584,0.0120755285,0.0,0.0,0.0,0.0,0.0
102719000,102718454,0.0,0.0,0.0,6.2062283,9.279804,0.0,0.0,0.0,0.0,0.0,0.0,0.0,0.0,0.037085533,0.0,0.0,nan,0.0,0.0,-0.01341439,-0.010838777,0.012026584,0.0120755285,0.0,0.0,0.0,0.0,0.0
103228242,103227683,0.0,0.0,0.0,6.09131,9.224506,0.0,0.0,0.0,0.0,0.0,0.0,0.0,0.0,0.050517082,0.0,0.0,nan,0.0,0.0,-0.024211809,-0.010838777,0.012026584,0.0120755285,0.0,0.0,0.0,0.0,0.0
103728353,103727785,0.0,0.0,0.0,5.9502835,9.114292,0.0,0.0,0.0,0.0,0.0,0.0,0.0,0.0,-0.03411579,0.0,0.0,nan,0.0,0.0,-0.0083481,-0.010838777,0.012026584,0.0120755285,0.0,0.0,0.0,0.0,0.0
104224426,104223636,0.0,0.0,0.0,5.716764,8.869694,0.0,0.0,0.0,0.0,0.0,0.0,0.0,0.0,-0.18728161,0.0,0.0,nan,0.0,0.0,-0.01524023,-0.010838777,0.012026584,0.0120755285,0.0,0.0,0.0,0.0,0.0
104729172,104728330,0.0,0.0,0.0,5.572091,8.718393,0.0,0.0,0.0,0.0,0.0,0.0,0.0,0.0,-0.09047985,0.0,0.0,nan,0.0,0.0,-0.028373227,-0.010838777,0.012026584,0.0120755285,0.0,0.0,0.0,0.0,0.0
105224802,105224092,0.0,0.0,0.0,5.334228,8.4802265,0.0,0.0,0.0,0.0,0.0,0.0,0.0,0.0,-0.09908867,0.0,0.0,nan,0.0,0.0,0.016535252,-0.010838777,0.012026584,0.0120755285,0.0,0.0,0.0,0.0,0.0
105720487,105720105,0.0,0.0,0.0,5.1129313,8.23129,0.0,0.0,0.0,0.0,0.0,0.0,0.0,0.0,-0.25642395,0.0,0.0,nan,0.0,0.0,0.02676367,-0.010838777,0.012026584,0.0120755285,0.0,0.0,0.0,0.0,0.0
106229849,106229275,0.0,0.0,0.0,4.6783376,7.80826,0.0,0.0,0.0,0.0,0.0,0.0,0.0,0.0,-0.084994316,0.0,0.0,nan,0.0,0.0,0.015646972,-0.010838777,0.012026584,0.0120755285,0.0,0.0,0.0,0.0,0.0
106730255,106729414,0.0,0.0,0.0,4.330438,7.507709,0.0,0.0,0.0,0.0,0.0,0.0,0.0,0.0,-0.19873047,0.0,0.0,nan,0.0,0.0,-0.003120415,-0.010838777,0.012026584,0.0120755285,0.0,0.0,0.0,0.0,0.0
107225870,107225244,0.0,0.0,0.0,3.9781168,7.1513906,0.0,0.0,0.0,0.0,0.0,0.0,0.0,0.0,0.08104515,0.0,0.0,nan,0.0,0.0,-0.0062840506,-0.010838777,0.012026584,0.0120755285,0.0,0.0,0.0,0.0,0.0
107730431,107730005,0.0,0.0,0.0,3.5870612,6.5885386,0.0,0.0,0.0,0.0,0.0,0.0,0.0,0.0,-0.09136009,0.0,0.0,nan,0.0,0.0,-0.0002104342,-0.010838777,0.012026584,0.0120755285,0.0,0.0,0.0,0.0,0.0
108221631,108221215,0.0,0.0,0.0,3.3996882,6.2006426,0.0,0.0,0.0,0.0,0.0,0.0,0.0,0.0,-0.0012702942,0.0,0.0,nan,0.0,0.0,-0.011323668,-0.010838777,0.012026584,0.0120755285,0.0,0.0,0.0,0.0,0.0
108722492,108721694,0.0,0.0,0.0,3.216482,5.5997157,0.0,0.0,0.0,0.0,0.0,0.0,0.0,0.0,-0.035500526,0.0,0.0,nan,0.0,0.0,-0.053731732,-0.010838777,0.012026584,0.0120755285,0.0,0.0,0.0,0.0,0.0
109222603,109221764,0.0,0.0,0.0,3.1709502,5.2494135,0.0,0.0,0.0,0.0,0.0,0.0,0.0,0.0,-0.20485687,0.0,0.0,nan,0.0,0.0,-0.04832878,-0.010838777,0.012026584,0.0120755285,0.0,0.0,0.0,0.0,0.0
109726978,109726602,0.0,0.0,0.0,3.1137135,4.7389336,0.0,0.0,0.0,0.0,0.0,0.0,0.0,0.0,-0.26312923,0.0,0.0,nan,0.0,0.0,-0.06620482,-0.010838777,0.012026584,0.0120755285,0.0,0.0,0.0,0.0,0.0
110727862,110727357,0.0,0.0,0.0,3.0109878,4.007285,0.0,0.0,0.0,0.0,0.0,0.0,0.0,0.0,-0.10083103,0.0,0.0,nan,0.0,0.0,-0.018732645,-0.010838777,0.012026584,0.0120755285,0.0,0.0,0.0,0.0,0.0
111723983,111723312,0.0,0.0,0.0,2.6736639,3.1528518,0.0,0.0,0.0,0.0,0.0,0.0,0.0,0.0,-0.15805721,0.0,0.0,nan,0.0,0.0,0.09527144,-0.010838777,0.012026584,0.0120755285,0.0,0.0,0.0,0.0,0.0
112224071,112223409,0.0,0.0,0.0,2.5069132,2.7162893,0.0,0.0,0.0,0.0,0.0,0.0,0.0,0.0,0.026916504,0.0,0.0,nan,0.0,0.0,0.09978947,-0.010838777,0.012026584,0.0120755285,0.0,0.0,0.0,0.0,0.0
112728600,112728188,0.0,0.0,0.0,2.3469064,2.287145,0.0,0.0,0.0,0.0,0.0,0.0,0.0,0.0,0.4667349,0.0,0.0,nan,0.0,0.0,0.09330678,-0.010838777,0.012026584,0.0120755285,0.0,0.0,0.0,0.0,0.0
113224571,113223955,0.0,0.0,0.0,2.0958652,1.6661983,0.0,0.0,0.0,0.0,0.0,0.0,0.0,0.0,0.415987,0.0,0.0,nan,0.0,0.0,0.18475914,-0.010838777,0.012026584,0.0120755285,0.0,0.0,0.0,0.0,0.0
113724728,113724277,0.0,0.0,0.0,0.018404411,-0.17142384,0.0,0.0,0.0,0.0,0.0,0.0,0.0,0.0,0.3620739,0.0,0.0,nan,0.0,0.0,0.17981769,-0.010838777,0.012026584,0.0120755285,0.0,0.0,0.0,0.0,0.0
