timestamp,accel_device_id,gyro_device_id,accel_clipping[0],accel_clipping[1],accel_clipping[2],accel_error_count,gyro_error_count,accel_rate_hz,gyro_rate_hz,accel_raw_rate_hz,gyro_raw_rate_hz,accel_vibration_metric,gyro_vibration_metric,gyro_coning_vibration,mean_accel[0],mean_accel[1],mean_accel[2],mean_gyro[0],mean_gyro[1],mean_gyro[2],temperature_accel,temperature_gyro
22264534,3932170,3932170,0,0,0,0,0,801.35834,801.35834,4006.7917,8013.5835,0.0011201493,2.1715545e-05,6.146495e-10,0.026130898,-0.031122906,-9.935672,-0.006298367,0.0033612405,0.00053640804,32.980446,32.980446
23207940,3932170,3932170,0,0,0,0,0,801.35834,801.35834,4006.7917,8013.5835,0.006344479,8.4873405e-05,1.17806005e-08,0.04288112,0.023276055,-10.129544,0.01360587,0.10046718,-0.00027382997,33.07835,33.07835
29183050,3932170,3932170,0,0,0,0,0,801.35834,801.35834,4006.7917,8013.5835,0.00080069393,3.0018431e-05,3.2278304e-08,-0.15871343,-0.004535895,-10.495744,0.05610304,0.040684648,0.23743233,33.714825,33.714825
30231301,3932170,3932170,0,0,0,0,0,801.35834,801.35834,4006.7917,8013.5835,0.00076581334,2.7693046e-05,3.3534487e-08,-0.20436855,-0.042904582,-9.945824,0.005541706,-0.09346488,0.27772066,33.61692,33.61692
32223103,3932170,3932170,0,0,0,0,0,801.35834,801.35834,4006.7917,8013.5835,0.0008661755,3.0387413e-05,2.0409573e-08,-0.30536053,0.0037881692,-10.667774,-0.022964519,-0.024414767,0.15113017,33.714825,33.714825
33166486,3932170,3932170,0,0,0,0,0,801.35834,801.35834,4006.7917,8013.5835,0.0008180726,3.1800748e-05,1.8757092e-08,-0.30825734,0.024457257,-9.707952,-0.0005040421,0.007286845,0.119965486,33.61692,33.61692
35158268,3932170,3932170,0,0,0,0,0,801.35834,801.35834,4006.7917,8013.5835,0.0009227524,4.0793675e-05,1.4655012e-08,-0.25469723,0.031423848,-9.234719,-0.0776474,0.023458965,0.062922165,33.86166,33.86166
36206610,3932170,3932170,0,0,0,0,0,801.35834,801.35834,4006.7917,8013.5835,0.0012132705,4.1233525e-05,2.1271154e-08,-0.2702071,0.029373746,-10.110493,0.04384708,0.02207574,0.031344265,33.86166,33.86166
38198271,3932170,3932170,0,0,0,0,0,801.35834,801.35834,4006.7917,8013.5835,0.0012001751,3.9568848e-05,2.2562737e-08,-0.26092204,0.026412701,-9.740854,-0.15441625,0.0057405657,-0.10329857,33.714825,33.714825
39141835,3932170,3932170,0,0,0,0,0,801.35834,801.35834,4006.7917,8013.5835,0.0015693855,4.7576483e-05,6.481523e-08,-0.3151802,0.08258423,-10.253369,-0.025400791,-0.0020098877,-0.34180552,33.86166,33.86166
41133501,3932170,3932170,0,0,0,0,0,801.35834,801.35834,4006.7917,8013.5835,0.0010248428,4.1537573e-05,6.945907e-08,-0.21023972,0.08252922,-9.82203,-0.033921,-0.01712376,-0.41235366,34.008553,34.008553
43125275,3932170,3932170,0,0,0,0,0,801.35834,801.35834,4006.7917,8013.5835,0.0012080924,4.28277e-05,8.759915e-08,-0.23389792,0.1409466,-9.5878525,0.059403107,-0.06761559,-0.4892175,34.362343,34.362343
45221871,3932170,3932170,0,0,0,0,0,801.35834,801.35834,4006.7917,8013.5835,0.0011719211,4.3390668e-05,8.259125e-08,-0.30160704,-0.0257902,-10.252045,-0.014181192,-0.01188881,-0.43297648,34.2534,34.2534
46165351,3932170,3932170,0,0,0,0,0,801.35834,801.35834,4006.7917,8013.5835,0.0011648906,4.3213404e-05,8.637223e-08,-0.33688936,-0.018981092,-9.353015,-0.033783425,0.085082084,-0.43988156,34.547123,34.547123
48157164,3932170,3932170,0,0,0,0,0,801.35834,801.35834,4006.7917,8013.5835,0.0009783849,3.956551e-05,6.23868e-08,-0.3117121,-0.017145013,-9.874673,-0.016050722,0.0072503807,-0.33961707,34.449215,34.449215
51197234,3932170,3932170,0,0,0,0,0,801.35834,801.35834,4006.7917,8013.5835,0.00078399235,3.3897795e-05,3.5720173e-08,-0.22465071,-0.04015775,-10.308374,-0.090974815,0.057504635,-0.14977477,34.596107,34.596107
52140775,3932170,3932170,0,0,0,0,0,801.35834,801.35834,4006.7917,8013.5835,0.000815805,3.5717116e-05,1.5126988e-08,-0.19372506,-0.07416802,-9.275059,-0.027053049,0.012754946,-0.020886865,34.730698,34.730698
54132510,3932170,3932170,0,0,0,0,0,801.35834,801.35834,4006.7917,8013.5835,0.0008535037,3.6765246e-05,8.831185e-09,-0.26718408,-0.092373684,-9.637347,-0.15590708,0.020553125,-0.0076991855,34.91256,34.91256
55180831,3932170,3932170,0,0,0,0,0,801.35834,801.35834,4006.7917,8013.5835,0.0010055138,3.206204e-05,8.616575e-09,-0.2739161,-0.054012813,-9.79943,0.0016448776,-0.02368776,-0.0041517466,34.93879,34.93879
57172641,3932170,3932170,0,0,0,0,0,801.35834,801.35834,4006.7917,8013.5835,0.0009284623,4.366908e-05,1.6008054e-08,-0.33044443,0.005509368,-10.33386,0.114017166,-0.12615293,-0.018968564,34.889874,34.889874
58220961,3932170,3932170,0,0,0,0,0,801.35834,801.35834,4006.7917,8013.5835,0.0012996,4.986157e-05,3.341229e-08,-0.41673908,-0.031106602,-9.583795,-0.18556578,-0.02808799,0.16349794,35.08569,35.08569
60212803,3932170,3932170,0,0,0,0,0,801.35834,801.35834,4006.7917,8013.5835,0.0014575516,3.9947987e-05,6.8755575e-08,-0.23331963,0.075794615,-9.332135,-0.00021361202,0.03319823,0.26931527,35.134605,35.134605
61156291,3932170,3932170,0,0,0,0,0,801.35834,801.35834,4006.7917,8013.5835,0.0018303392,4.4996246e-05,2.574229e-08,-0.25008887,0.039396822,-9.883918,0.08613642,0.029095955,-0.06814548,35.086273,35.086273
63148202,3932170,3932170,0,0,0,0,0,801.35834,801.35834,4006.7917,8013.5835,0.0015948705,5.0779978e-05,7.0644745e-08,-0.2616314,-0.04030441,-9.636314,0.01518152,0.018417828,0.22944137,35.216846,35.216846
64196513,3932170,3932170,0,0,0,0,0,801.35834,801.35834,4006.7917,8013.5835,0.0009915391,4.097118e-05,4.875629e-08,-0.35335216,-0.018310739,-9.260861,0.005338803,0.016320262,0.26435193,35.232582,35.232582
65139977,3932170,3932170,0,0,0,0,0,801.35834,801.35834,4006.7917,8013.5835,0.0010203318,4.2015563e-05,5.8095605e-08,-0.24589598,0.08967214,-10.436488,0.102016,0.0232109,0.28862417,35.271587,35.271587
66188258,3932170,3932170,0,0,0,0,0,801.35834,801.35834,4006.7917,8013.5835,0.0010188045,4.107083e-05,8.4516465e-08,-0.26990637,0.08696412,-9.971699,-0.02733086,-0.030658163,0.59753084,35.52635,35.52635
67131767,3932170,3932170,0,0,0,0,0,801.35834,801.35834,4006.7917,8013.5835,0.0008510148,3.410846e-05,8.847842e-08,-0.3269865,0.011869535,-9.728438,0.0066184336,-0.007151702,0.7024776,35.491886,35.491886
68180109,3932170,3932170,0,0,0,0,0,801.35834,801.35834,4006.7917,8013.5835,0.0008459705,3.6939018e-05,1.1453344e-07,-0.33629474,0.08848896,-10.287389,0.032820553,0.042488493,0.7574987,35.428402,35.428402
70171940,3932170,3932170,0,0,0,0,0,801.35834,801.35834,4006.7917,8013.5835,0.0015508467,5.0281076e-05,1.09897364e-07,-0.14001185,0.14966634,-10.045856,0.09476562,0.01469474,0.35226747,35.477314,35.477314
71220290,3932170,3932170,0,0,0,0,0,801.35834,801.35834,4006.7917,8013.5835,0.0009728043,4.3945856e-05,6.589668e-08,-0.1580301,0.112771355,-10.565237,0.08199701,0.014859352,0.31049475,35.134605,35.134605
73212186,3932170,3932170,0,0,0,0,0,801.35834,801.35834,4006.7917,8013.5835,0.0015356862,5.7647732e-05,3.3176775e-08,-0.15986837,0.10030336,-9.309078,-0.062286228,0.016527668,-0.09323107,35.52635,35.52635
75203988,3932170,3932170,0,0,0,0,0,801.35834,801.35834,4006.7917,8013.5835,0.0012458882,4.990713e-05,3.2187774e-08,-0.32745722,0.039228275,-9.889372,0.17744371,-0.119558536,-0.07683049,35.673176,35.673176
76147509,3932170,3932170,0,0,0,0,0,801.35834,801.35834,4006.7917,8013.5835,0.0008976597,4.0215087e-05,2.0664736e-08,-0.42611712,-0.14594294,-9.480134,-0.107062794,0.20190835,-0.010602629,35.750095,35.750095
78139410,3932170,3932170,0,0,0,0,0,801.35834,801.35834,4006.7917,8013.5835,0.0009438153,4.028115e-05,1.1952677e-08,-0.24657424,0.013832797,-9.3684,0.07445279,-0.05166671,-0.02052588,35.83403,35.83403
82227941,3932170,3932170,0,0,0,0,0,801.35834,801.35834,4006.7917,8013.5835,0.0010984301,4.6934816e-05,8.906729e-09,-0.28754413,0.12536813,-9.337786,0.021370409,0.0058516334,-0.03706736,36.01589,36.01589
83171468,3932170,3932170,0,0,0,0,0,801.35834,801.35834,4006.7917,8013.5835,0.0018028433,5.256857e-05,3.001716e-08,-0.3368743,0.16260158,-10.936923,-0.051800936,-0.054248698,-0.10832996,36.01589,36.01589
85163349,3932170,3932170,0,0,0,0,0,801.35834,801.35834,4006.7917,8013.5835,0.00084206794,3.4982873e-05,1.4707631e-08,-0.37695456,0.122334346,-10.053599,0.02745987,0.04058251,-0.027214456,36.023468,36.023468
86211714,3932170,3932170,0,0,0,0,0,801.35834,801.35834,4006.7917,8013.5835,0.0008015931,3.3752865e-05,1.12345715e-08,-0.37147668,0.03671401,-9.992324,-0.009303811,0.0015212434,-0.0053523877,36.162823,36.162823
88203583,3932170,3932170,0,0,0,0,0,801.35834,801.35834,4006.7917,8013.5835,0.0009816712,3.997588e-05,2.352488e-08,-0.35979012,0.048691794,-9.828474,0.06411609,-0.038159695,-0.1131251,35.966972,35.966972
92187442,3932170,3932170,0,0,0,0,0,801.35834,801.35834,4006.7917,8013.5835,0.0012367187,3.8589984e-05,4.1569933e-08,-0.24298622,0.11381825,-10.201591,-0.078469746,-0.020187082,-0.24541454,36.40755,36.40755
93130907,3932170,3932170,0,0,0,0,0,801.35834,801.35834,4006.7917,8013.5835,0.0014968143,3.5584282e-05,4.6307342e-08,-0.15122971,0.06767251,-9.836337,-0.0022602947,0.022176234,-0.31661358,36.384865,36.384865
94179437,3932170,3932170,0,0,0,0,0,801.35834,801.35834,4006.7917,8013.5835,0.0013412638,3.7770493e-05,5.976001e-08,-0.18069121,0.1619418,-9.937001,-0.09787456,0.035682343,-0.34637246,36.538128,36.538128
96171228,3932170,3932170,0,0,0,0,0,801.35834,801.35834,4006.7917,8013.5835,0.0023238577,5.6534216e-05,5.787941e-08,-0.27361423,0.15608625,-10.010594,0.15069497,0.059089795,0.043729424,36.49325,36.49325
98163096,3932170,3932170,0,0,0,0,0,801.35834,801.35834,4006.7917,8013.5835,0.001461046,6.361616e-05,7.870631e-08,-0.13430808,0.19226204,-10.965023,-0.0793682,-0.16123243,-0.20646921,36.59467,36.59467
99211459,3932170,3932170,0,0,0,0,0,801.35834,801.35834,4006.7917,8013.5835,0.001053288,4.285179e-05,2.7083999e-08,-0.12492502,0.010935706,-10.024621,-0.034015674,-0.056799665,0.046470944,36.60345,36.60345
101203386,3932170,3932170,0,0,0,0,0,801.35834,801.35834,4006.7917,8013.5835,0.0011479151,5.1167386e-05,3.073499e-08,-0.17751768,0.0028082705,-9.205336,-0.16252226,-0.06425837,0.0037395784,36.55445,36.55445
102146917,3932170,3932170,0,0,0,0,0,801.35834,801.35834,4006.7917,8013.5835,0.0011563392,3.961007e-05,1.4497139e-08,-0.14805672,0.10499836,-10.255974,0.079643734,0.046718117,0.001446991,36.634907,36.634907
104138872,3932170,3932170,0,0,0,0,0,801.35834,801.35834,4006.7917,8013.5835,0.0009993081,3.7143127e-05,6.2206675e-09,-0.1708067,-0.012425904,-10.12744,-0.020400312,0.015869271,-0.0058112377,36.80391,36.80391
105187267,3932170,3932170,0,0,0,0,0,801.35834,801.35834,4006.7917,8013.5835,0.0013135377,4.045917e-05,1.4873241e-08,-0.15157741,-0.0107315155,-9.93045,-0.05916869,0.10447314,-0.0012459166,36.706017,36.706017
107179140,3932170,3932170,0,0,0,0,0,801.35834,801.35834,4006.7917,8013.5835,0.0012817748,3.791202e-05,1.0700172e-08,-0.0892198,0.0037080597,-9.751176,0.020848079,0.016736176,0.00545067,36.857536,36.857536
108222533,3932170,3932170,0,0,0,0,0,801.35834,801.35834,4006.7917,8013.5835,0.0014771676,5.2127292e-05,9.17468e-09,-0.18919596,0.07254486,-9.678529,0.042197213,0.02608783,-0.0028712316,37.09302,37.09302
