timestamp,timestamp_sample,q[0],q[1],q[2],q[3],delta_q_reset[0],delta_q_reset[1],delta_q_reset[2],delta_q_reset[3],quat_reset_counter
22224658,22224183,0.9878938,0.0017156476,0.0011382743,-0.15511803,0.99997747,7.037165e-11,3.6518152e-10,-0.006719465,1
22229691,22229146,0.9878934,0.0016898713,0.0011425654,-0.15512109,0.99997747,7.037165e-11,3.6518152e-10,-0.006719465,1
22274595,22274071,0.987892,0.001697915,0.0011502285,-0.15513018,0.99997747,7.037165e-11,3.6518152e-10,-0.006719465,1
22329452,22328980,0.98790103,0.0016868972,0.0011048634,-0.15507238,0.99997747,7.037165e-11,3.6518152e-10,-0.006719465,1
22379379,22378897,0.9879219,0.0017298044,0.001100516,-0.1549392,0.99997747,7.037165e-11,3.6518152e-10,-0.006719465,1
22429304,22428816,0.9879449,0.0016904039,0.0010952869,-0.15479302,0.99997747,7.037165e-11,3.6518152e-10,-0.006719465,1
22474288,22473742,0.9879632,0.0016742491,0.0011145211,-0.1546764,0.99997747,7.037165e-11,3.6518152e-10,-0.006719465,1
22529222,22528720,0.987987,0.0016831786,0.0010837895,-0.15452442,0.99997747,7.037165e-11,3.6518152e-10,-0.006719465,1
22579041,22578567,0.9880067,0.0016774015,0.0010900961,-0.15439825,0.99997747,7.037165e-11,3.6518152e-10,-0.006719465,1
22623958,22623494,0.98802704,0.0016872848,0.0010815042,-0.15426788,0.99997747,7.037165e-11,3.6518152e-10,-0.006719465,1
22673883,22673411,0.98804706,0.00166042,0.0010669484,-0.1541406,0.99997747,7.037165e-11,3.6518152e-10,-0.006719465,1
22728890,22728370,0.9880712,0.0016792618,0.0010706483,-0.15398483,0.99997747,7.037165e-11,3.6518152e-10,-0.006719465,1
22778754,22778237,0.9880972,0.0016710319,0.001110266,-0.15381825,0.99997747,7.037165e-11,3.6518152e-10,-0.006719465,1
22823628,22823163,0.9881283,0.0016753518,0.0010869489,-0.15361775,0.99997747,7.037165e-11,3.6518152e-10,-0.006719465,1
22878601,22878073,0.9881709,0.0016693424,0.0010683062,-0.15334408,0.99997747,7.037165e-11,3.6518152e-10,-0.006719465,1
22928558,22927990,0.9881976,0.001653829,0.0010748024,-0.15317215,0.99997747,7.037165e-11,3.6518152e-10,-0.006719465,1
22978445,22977907,0.9882204,0.0016558222,0.0010824457,-0.15302491,0.99997747,7.037165e-11,3.6518152e-10,-0.006719465,1
23028328,23027824,0.988227,0.0016749654,0.0010315911,-0.15298264,0.99997747,7.037165e-11,3.6518152e-10,-0.006719465,1
23078194,23077741,0.98824924,0.0016493674,0.0010200894,-0.15283896,0.99997747,7.037165e-11,3.6518152e-10,-0.006719465,1
23128173,23127659,0.9882393,0.0025385306,0.0028163437,-0.15286812,0.99997747,7.037165e-11,3.6518152e-10,-0.006719465,1
23178175,23177620,0.9882478,0.0032035762,0.0055585117,-0.15272592,0.99997747,7.037165e-11,3.6518152e-10,-0.006719465,1
23227997,23227494,0.98828536,0.004167047,0.007120061,-0.15239416,0.99997747,7.037165e-11,3.6518152e-10,-0.006719465,1
23277923,23277413,0.988351,0.004255631,0.007349665,-0.15195508,0.99997747,7.037165e-11,3.6518152e-10,-0.006719465,1
23327895,23327329,0.9884689,0.0021437681,0.008971468,-0.15114307,0.99997747,7.037165e-11,3.6518152e-10,-0.006719465,1
23377813,23377247,0.9886145,0.00043370447,0.00893482,-0.15020502,0.99997747,7.037165e-11,3.6518152e-10,-0.006719465,1
23427682,23427164,0.9887474,-0.0011192058,0.009650006,-0.14927967,0.99997747,7.037165e-11,3.6518152e-10,-0.006719465,1
23477542,23477082,0.98885566,-0.0037214675,0.010072627,-0.14849025,0.99997747,7.037165e-11,3.6518152e-10,-0.006719465,1
23527462,23526999,0.98895884,-0.0066600963,0.0041410998,-0.14798331,0.99997747,7.037165e-11,3.6518152e-10,-0.006719465,1
23577423,23576918,0.98899746,-0.008129546,0.0005413926,-0.1477079,0.99997747,7.037165e-11,3.6518152e-10,-0.006719465,1
23627289,23626834,0.98908824,-0.006895889,-0.0022129037,-0.14714639,0.99997747,7.037165e-11,3.6518152e-10,-0.006719465,1
23677206,23676753,0.98919916,-0.004334475,-0.011338096,-0.14607486,0.99997747,7.037165e-11,3.6518152e-10,-0.006719465,1
23727123,23726669,0.9892801,-0.0021746329,-0.020103352,-0.14462385,0.99997747,7.037165e-11,3.6518152e-10,-0.006719465,1
23777104,23776588,0.9895366,-0.0011949083,-0.021288246,-0.1426986,0.99997747,7.037165e-11,3.6518152e-10,-0.006719465,1
23827006,23826505,0.98997337,-0.0009957132,-0.01515958,-0.14043489,0.99997747,7.037165e-11,3.6518152e-10,-0.006719465,1
23876893,23876426,0.99034405,-0.0021347068,-0.0068246676,-0.13844708,0.99997747,7.037165e-11,3.6518152e-10,-0.006719465,1
23926807,23926340,0.9906287,-0.0022403677,-0.0012877068,-0.13655819,0.99997747,7.037165e-11,3.6518152e-10,-0.006719465,1
23976718,23976258,0.99087715,-0.0003611184,0.0019564922,-0.13475414,0.99997747,7.037165e-11,3.6518152e-10,-0.006719465,1
24026680,24026175,0.9910535,0.0024878802,0.0070623253,-0.13325496,0.99997747,7.037165e-11,3.6518152e-10,-0.006719465,1
24076557,24076092,0.99117434,0.0044744085,0.011250236,-0.13201101,0.99997747,7.037165e-11,3.6518152e-10,-0.006719465,1
24126468,24126010,0.9913181,0.0044912742,0.010711605,-0.1309713,0.99997747,7.037165e-11,3.6518152e-10,-0.006719465,1
24176417,24175957,0.99144655,0.0039130477,0.008315516,-0.13018936,0.99997747,7.037165e-11,3.6518152e-10,-0.006719465,1
24226387,24225845,0.99149984,0.0040684864,0.0077927536,-0.12981114,0.99997747,7.037165e-11,3.6518152e-10,-0.006719465,1
24276213,24275763,0.9915057,0.003455147,0.0057495553,-0.12989067,0.99997747,7.037165e-11,3.6518152e-10,-0.006719465,1
24326145,24325681,0.9914808,0.0025659634,0.0021502073,-0.1302102,0.99997747,7.037165e-11,3.6518152e-10,-0.006719465,1
24376051,24375598,0.9913751,0.0021733986,0.0004305819,-0.13103718,0.99997747,7.037165e-11,3.6518152e-10,-0.006719465,1
24431014,24430508,0.9912055,0.0016817041,-0.000678724,-0.13231912,0.99997747,7.037165e-11,3.6518152e-10,-0.006719465,1
24475932,24475433,0.9910314,0.0004158037,-0.0028778932,-0.13359821,0.99997747,7.037165e-11,3.6518152e-10,-0.006719465,1
24525818,24525351,0.99084044,0.00085494475,-0.0006722087,-0.13503367,0.99997747,7.037165e-11,3.6518152e-10,-0.006719465,1
24575745,24575269,0.9906194,0.0025207028,0.0029554598,-0.13659483,0.99997747,7.037165e-11,3.6518152e-10,-0.006719465,1
24630727,24630178,0.990391,0.0038282764,0.0023945058,-0.13822185,0.99997747,7.037165e-11,3.6518152e-10,-0.006719465,1
24675603,24675104,0.9902416,0.0039970353,0.0016594124,-0.13929456,0.99997747,7.037165e-11,3.6518152e-10,-0.006719465,1
24725486,24725021,0.9900823,0.003358632,0.0022925064,-0.14042984,0.99997747,7.037165e-11,3.6518152e-10,-0.006719465,1
24775401,24774939,0.9899187,0.0025684186,0.0014088579,-0.1416067,0.99997747,7.037165e-11,3.6518152e-10,-0.006719465,1
24830351,24829848,0.98971677,0.0018032303,-0.00019946099,-0.14302935,0.99997747,7.037165e-11,3.6518152e-10,-0.006719465,1
24875306,24874776,0.9895521,0.0013916048,-0.0004936623,-0.14416884,0.99997747,7.037165e-11,3.6518152e-10,-0.006719465,1
24925251,24924765,0.98938215,0.00089022535,0.00024833265,-0.14533511,0.99997747,7.037165e-11,3.6518152e-10,-0.006719465,1
24980059,24979602,0.98921293,0.000398573,-0.00048770252,-0.14648324,0.99997747,7.037165e-11,3.6518152e-10,-0.006719465,1
25025023,25024528,0.9891191,0.00018035127,-0.0014072352,-0.14711079,0.99997747,7.037165e-11,3.6518152e-10,-0.006719465,1
25074991,25074445,0.9891423,0.00020647206,-0.00089195627,-0.14695817,0.99997747,7.037165e-11,3.6518152e-10,-0.006719465,1
25129819,25129355,0.98933095,0.00023828402,-0.0007631841,-0.14568311,0.99997747,7.037165e-11,3.6518152e-10,-0.006719465,1
25179730,25179272,0.98960435,0.00038735,-0.0027052662,-0.14379057,0.99997747,7.037165e-11,3.6518152e-10,-0.006719465,1
25224711,25224198,0.9899421,0.00044610517,-0.0043080207,-0.141407,0.99997747,7.037165e-11,3.6518152e-10,-0.006719465,1
25274637,25274117,0.9904023,0.0006367851,-0.0051066913,-0.13811906,0.99997747,7.037165e-11,3.6518152e-10,-0.006719465,1
25329484,25329025,0.9910245,0.0008554321,-0.005407445,-0.1335681,0.99997747,7.037165e-11,3.6518152e-10,-0.006719465,1
25379443,25378943,0.9916773,0.0010796281,-0.005378184,-0.12863195,0.99997747,7.037165e-11,3.6518152e-10,-0.006719465,1
25424316,25423869,0.99231887,0.0011496479,-0.004948595,-0.123602256,0.99997747,7.037165e-11,3.6518152e-10,-0.006719465,1
25479328,25478779,0.99315417,0.00088104646,-0.0047173738,-0.11671316,0.99997747,7.037165e-11,3.6518152e-10,-0.006719465,1
25529205,25528696,0.99394065,0.00039152775,-0.004645226,-0.10981954,0.99997747,7.037165e-11,3.6518152e-10,-0.006719465,1
25579161,25578615,0.99472505,0.00048492543,-0.0040082033,-0.102497995,0.99997747,7.037165e-11,3.6518152e-10,-0.006719465,1
25623984,25623540,0.9954174,0.0010152041,-0.003271539,-0.095563605,0.99997747,7.037165e-11,3.6518152e-10,-0.006719465,1
25678971,25678449,0.99624586,0.0016543702,-0.0030216768,-0.08650094,0.99997747,7.037165e-11,3.6518152e-10,-0.006719465,1
25728879,25728370,0.9969692,0.0017988854,-0.002959779,-0.07771999,0.99997747,7.037165e-11,3.6518152e-10,-0.006719465,1
25778821,25778285,0.99765426,0.0019539376,-0.0023463673,-0.06838781,0.99997747,7.037165e-11,3.6518152e-10,-0.006719465,1
25823724,25823215,0.9982198,0.0023015486,-0.001529639,-0.059579164,0.99997747,7.037165e-11,3.6518152e-10,-0.006719465,1
25878578,25878121,0.99882525,0.0024794766,-0.0016999212,-0.04836656,0.99997747,7.037165e-11,3.6518152e-10,-0.006719465,1
25928538,25928039,0.9992794,0.0020423906,-0.002567434,-0.03781528,0.99997747,7.037165e-11,3.6518152e-10,-0.006719465,1
25973496,25972964,0.99960154,0.0015282009,-0.0023926606,-0.028083993,0.99997747,7.037165e-11,3.6518152e-10,-0.006719465,1
26028340,26027874,0.9998723,0.001560176,-0.00090722274,-0.015881933,0.99997747,7.037165e-11,3.6518152e-10,-0.006719465,1
26078255,26077792,0.99998754,0.0021028342,-0.0009890111,-0.0044374685,0.99997747,7.037165e-11,3.6518152e-10,-0.006719465,1
26128211,26127710,0.9999683,0.0018128483,-0.0027937887,0.0072418028,0.99997747,7.037165e-11,3.6518152e-10,-0.006719465,1
26178081,26177627,0.99980557,0.00097253016,-0.0047045513,0.01912641,0.99997747,7.037165e-11,3.6518152e-10,-0.006719465,1
26227999,26227545,0.99948835,0.00046615425,-0.0069814534,0.03120948,0.99997747,7.037165e-11,3.6518152e-10,-0.006719465,1
26277921,26277463,0.9990104,0.0006771996,-0.009653522,0.043413337,0.99997747,7.037165e-11,3.6518152e-10,-0.006719465,1
26327895,26327386,0.9983787,0.0013728556,-0.012103712,0.05560152,0.99997747,7.037165e-11,3.6518152e-10,-0.006719465,1
26377859,26377355,0.9975976,0.0021414417,-0.014401595,0.067729086,0.99997747,7.037165e-11,3.6518152e-10,-0.006719465,1
26427717,26427216,0.996665,0.0026229927,-0.016810523,0.07980859,0.99997747,7.037165e-11,3.6518152e-10,-0.006719465,1
26477632,26477134,0.99558675,0.0026746811,-0.019840362,0.09168541,0.99997747,7.037165e-11,3.6518152e-10,-0.006719465,1
26527582,26527051,0.99439305,0.002599956,-0.02240269,0.10331415,0.99997747,7.037165e-11,3.6518152e-10,-0.006719465,1
26577471,26576969,0.99312633,0.0026372343,-0.023426116,0.114649214,0.99997747,7.037165e-11,3.6518152e-10,-0.006719465,1
26627342,26626887,0.99179846,0.0026282724,-0.02334756,0.12563421,0.99997747,7.037165e-11,3.6518152e-10,-0.006719465,1
26677266,26676805,0.9904162,0.002505812,-0.022167081,0.13630173,0.99997747,7.037165e-11,3.6518152e-10,-0.006719465,1
26727195,26726727,0.98898065,0.0020928832,-0.020365026,0.14662269,0.99997747,7.037165e-11,3.6518152e-10,-0.006719465,1
26777140,26776640,0.9875113,0.0013743519,-0.017751224,0.15653907,0.99997747,7.037165e-11,3.6518152e-10,-0.006719465,1
26827008,26826558,0.98601145,0.0003979974,-0.015262829,0.16597682,0.99997747,7.037165e-11,3.6518152e-10,-0.006719465,1
26876936,26876476,0.984515,-2.2605003e-05,-0.012464273,0.17485671,0.99997747,7.037165e-11,3.6518152e-10,-0.006719465,1
26926856,26926394,0.9830369,0.0006378812,-0.008546887,0.18320781,0.99997747,7.037165e-11,3.6518152e-10,-0.006719465,1
26976827,26976312,0.98155594,0.0016478887,-0.0050475188,0.19110149,0.99997747,7.037165e-11,3.6518152e-10,-0.006719465,1
27026789,27026233,0.98008835,0.0020146435,-0.003243297,0.19852535,0.99997747,7.037165e-11,3.6518152e-10,-0.006719465,1
27076657,27076147,0.97865903,0.0017661233,-0.0029073213,0.20546281,0.99997747,7.037165e-11,3.6518152e-10,-0.006719465,1
27126569,27126065,0.977271,0.0014228555,-0.0041129556,0.21194929,0.99997747,7.037165e-11,3.6518152e-10,-0.006719465,1
27176543,27175983,0.9759052,0.0012976633,-0.0068561984,0.21808372,0.99997747,7.037165e-11,3.6518152e-10,-0.006719465,1
27231343,27230892,0.97441655,0.0015312523,-0.01019899,0.22451285,0.99997747,7.037165e-11,3.6518152e-10,-0.006719465,1
27276322,27275818,0.9731976,0.0019644697,-0.012268631,0.22963507,0.99997747,7.037165e-11,3.6518152e-10,-0.006719465,1
27326250,27325737,0.9718447,0.0022108431,-0.01416507,0.23518623,0.99997747,7.037165e-11,3.6518152e-10,-0.006719465,1
27376112,27375657,0.9704797,0.0022437917,-0.015840033,0.24065132,0.99997747,7.037165e-11,3.6518152e-10,-0.006719465,1
27426075,27425572,0.969126,0.0022545378,-0.017008321,0.24596855,0.99997747,7.037165e-11,3.6518152e-10,-0.006719465,1
27475985,27475493,0.96777046,0.0026948527,-0.017838081,0.25118735,0.99997747,7.037165e-11,3.6518152e-10,-0.006719465,1
27525880,27525416,0.9664056,0.0030637118,-0.018497111,0.25633734,0.99997747,7.037165e-11,3.6518152e-10,-0.006719465,1
27580857,27580317,0.96489507,0.0035610872,-0.018398875,0.26196632,0.99997747,7.037165e-11,3.6518152e-10,-0.006719465,1
27625768,27625244,0.9636369,0.003949461,-0.018074729,0.26657423,0.99997747,7.037165e-11,3.6518152e-10,-0.006719465,1
27675672,27675161,0.9622043,0.004521189,-0.017808672,0.27170846,0.99997747,7.037165e-11,3.6518152e-10,-0.006719465,1
27725565,27725109,0.960727,0.0050172117,-0.017423777,0.2769025,0.99997747,7.037165e-11,3.6518152e-10,-0.006719465,1
27780518,27779989,0.95904124,0.0054247077,-0.01659435,0.282728,0.99997747,7.037165e-11,3.6518152e-10,-0.006719465,1
27825409,27824915,0.95758194,0.0060882056,-0.015934452,0.28765604,0.99997747,7.037165e-11,3.6518152e-10,-0.006719465,1
27875377,27874833,0.9558893,0.0067996564,-0.015543446,0.29323685,0.99997747,7.037165e-11,3.6518152e-10,-0.006719465,1
27925293,27924752,0.95413154,0.007465485,-0.015153988,0.29891065,0.99997747,7.037165e-11,3.6518152e-10,-0.006719465,1
27980132,27979660,0.95211905,0.008495938,-0.014892013,0.30524626,0.99997747,7.037165e-11,3.6518152e-10,-0.006719465,1
28025089,28024586,0.950403,0.009575051,-0.015238175,0.31050012,0.99997747,7.037165e-11,3.6518152e-10,-0.006719465,1
28075082,28074512,0.94843894,0.010740769,-0.015847472,0.31638125,0.99997747,7.037165e-11,3.6518152e-10,-0.006719465,1
28129875,28129415,0.9462491,0.011667913,-0.016608711,0.3228014,0.99997747,7.037165e-11,3.6518152e-10,-0.006719465,1
28179854,28179332,0.9442121,0.012466416,-0.017666461,0.32862756,0.99997747,7.037165e-11,3.6518152e-10,-0.006719465,1
28224711,28224258,0.942345,0.013141605,-0.018763771,0.33385804,0.99997747,7.037165e-11,3.6518152e-10,-0.006719465,1
28279654,28279187,0.9400467,0.013457974,-0.01933813,0.34023085,0.99997747,7.037165e-11,3.6518152e-10,-0.006719465,1
28329662,28329100,0.93793654,0.013530831,-0.019376917,0.34600097,0.99997747,7.037165e-11,3.6518152e-10,-0.006719465,1
28374468,28374013,0.9360083,0.013854514,-0.01977435,0.35114914,0.99997747,7.037165e-11,3.6518152e-10,-0.006719465,1
28424382,28423931,0.9338294,0.014470496,-0.02085257,0.35681713,0.99997747,7.037165e-11,3.6518152e-10,-0.006719465,1
28479386,28478840,0.93137836,0.014647626,-0.02238398,0.3630688,0.99997747,7.037165e-11,3.6518152e-10,-0.006719465,1
28529258,28528757,0.9290854,0.013916189,-0.023690736,0.3688437,0.99997747,7.037165e-11,3.6518152e-10,-0.006719465,1
28574127,28573684,0.9269825,0.012912684,-0.024508027,0.37408054,0.99997747,7.037165e-11,3.6518152e-10,-0.006719465,1
28624053,28623602,0.9245714,0.012019072,-0.025030905,0.379996,0.99997747,7.037165e-11,3.6518152e-10,-0.006719465,1
28679063,28678511,0.92184347,0.011196507,-0.025102243,0.3865867,0.99997747,7.037165e-11,3.6518152e-10,-0.006719465,1
28728935,28728430,0.91932684,0.010295631,-0.024815962,0.3925766,0.99997747,7.037165e-11,3.6518152e-10,-0.006719465,1
28773896,28773394,0.91703653,0.009788339,-0.02440562,0.3979354,0.99997747,7.037165e-11,3.6518152e-10,-0.006719465,1
28828732,28828265,0.91415524,0.009843319,-0.024091212,0.40452826,0.99997747,7.037165e-11,3.6518152e-10,-0.006719465,1
28878696,28878183,0.91149336,0.00996794,-0.023005188,0.4105499,0.99997747,7.037165e-11,3.6518152e-10,-0.006719465,1
28928611,28928102,0.90881574,0.009634026,-0.020520724,0.41658145,0.99997747,7.037165e-11,3.6518152e-10,-0.006719465,1
28978486,28978020,0.90608364,0.009852823,-0.018201707,0.422592,0.99997747,7.037165e-11,3.6518152e-10,-0.006719465,1
29028395,29027937,0.90328485,0.011050758,-0.016699027,0.428574,0.99997747,7.037165e-11,3.6518152e-10,-0.006719465,1
29078313,29077855,0.90045035,0.012279823,-0.015098227,0.4345234,0.99997747,7.037165e-11,3.6518152e-10,-0.006719465,1
29128286,29127773,0.89756626,0.013184795,-0.013299388,0.44048172,0.99997747,7.037165e-11,3.6518152e-10,-0.006719465,1
29178148,29177691,0.89463043,0.014171337,-0.012111624,0.44641808,0.99997747,7.037165e-11,3.6518152e-10,-0.006719465,1
29228118,29227656,0.8916097,0.015553189,-0.0115024205,0.45239127,0.99997747,7.037165e-11,3.6518152e-10,-0.006719465,1
29278025,29277527,0.8885031,0.016726725,-0.01063215,0.45844257,0.99997747,7.037165e-11,3.6518152e-10,-0.006719465,1
29327989,29327445,0.885317,0.01728325,-0.009480133,0.46457,0.99997747,7.037165e-11,3.6518152e-10,-0.006719465,1
29377865,29377364,0.88206583,0.017317735,-0.008824062,0.4707253,0.99997747,7.037165e-11,3.6518152e-10,-0.006719465,1
29427778,29427281,0.8787271,0.016763566,-0.008507003,0.4769543,0.99997747,7.037165e-11,3.6518152e-10,-0.006719465,1
29477701,29477199,0.8753289,0.0158844,-0.008343574,0.4831949,0.99997747,7.037165e-11,3.6518152e-10,-0.006719465,1
29527682,29527118,0.87182003,0.014950765,-0.008714086,0.4895208,0.99997747,7.037165e-11,3.6518152e-10,-0.006719465,1
29577599,29577088,0.8682046,0.013624629,-0.009223232,0.49593356,0.99997747,7.037165e-11,3.6518152e-10,-0.006719465,1
29627468,29626954,0.86451334,0.011836996,-0.009396399,0.50238264,0.99997747,7.037165e-11,3.6518152e-10,-0.006719465,1
29677368,29676875,0.86073726,0.009742245,-0.0093934685,0.5088697,0.99997747,7.037165e-11,3.6518152e-10,-0.006719465,1
29727279,29726791,0.8568821,0.0074784295,-0.009081201,0.5153781,0.99997747,7.037165e-11,3.6518152e-10,-0.006719465,1
29777206,29776709,0.8529436,0.0050371257,-0.008308712,0.5219127,0.99997747,7.037165e-11,3.6518152e-10,-0.006719465,1
29827080,29826625,0.8489469,0.0027133534,-0.0069714547,0.52842534,0.99997747,7.037165e-11,3.6518152e-10,-0.006719465,1
29877020,29876545,0.84487617,0.0014220396,-0.0057878336,0.53492886,0.99997747,7.037165e-11,3.6518152e-10,-0.006719465,1
29926934,29926462,0.8433174,0.0014264768,-0.0057607247,0.5373832,0.99998873,-7.2879014e-10,-1.3214303e-10,-0.0047607017,2
29976884,29976380,0.83918756,0.00199721,-0.0061153756,0.5438041,0.99998873,-7.2879014e-10,-1.3214303e-10,-0.0047607017,2
30026784,30026297,0.8350245,0.0028014197,-0.006719912,0.55016464,0.99998873,-7.2879014e-10,-1.3214303e-10,-0.0047607017,2
30081672,30081208,0.8304411,0.004178619,-0.008451234,0.55702686,0.99998873,-7.2879014e-10,-1.3214303e-10,-0.0047607017,2
30126641,30126175,0.826712,0.0055972575,-0.010525585,0.56249905,0.99998873,-7.2879014e-10,-1.3214303e-10,-0.0047607017,2
30176609,30176052,0.8226048,0.0073453803,-0.012675883,0.5684247,0.99998873,-7.2879014e-10,-1.3214303e-10,-0.0047607017,2
30231429,30230965,0.81813276,0.008865655,-0.014464166,0.57477915,0.99998873,-7.2879014e-10,-1.3214303e-10,-0.0047607017,2
30276391,30275888,0.81448936,0.009714222,-0.015503761,0.57988995,0.99998873,-7.2879014e-10,-1.3214303e-10,-0.0047607017,2
30326314,30325806,0.8104809,0.010430333,-0.016285827,0.5854457,0.99998873,-7.2879014e-10,-1.3214303e-10,-0.0047607017,2
30376288,30375725,0.80652803,0.010687611,-0.016590666,0.5908664,0.99998873,-7.2879014e-10,-1.3214303e-10,-0.0047607017,2
30426188,30425645,0.80264026,0.010808863,-0.016078895,0.59614885,0.99998873,-7.2879014e-10,-1.3214303e-10,-0.0047607017,2
30476074,30475561,0.7987843,0.011178274,-0.015095391,0.60132426,0.99998873,-7.2879014e-10,-1.3214303e-10,-0.0047607017,2
30530931,30530471,0.79456806,0.011742335,-0.013607105,0.60690916,0.99998873,-7.2879014e-10,-1.3214303e-10,-0.0047607017,2
30575928,30575398,0.79115933,0.012194841,-0.012009682,0.6113707,0.99998873,-7.2879014e-10,-1.3214303e-10,-0.0047607017,2
30625881,30625315,0.787431,0.01305003,-0.010370192,0.6161773,0.99998873,-7.2879014e-10,-1.3214303e-10,-0.0047607017,2
30675697,30675233,0.78380007,0.013938867,-0.008961148,0.6207921,0.99998873,-7.2879014e-10,-1.3214303e-10,-0.0047607017,2
30725609,30725151,0.78028256,0.01424146,-0.007663177,0.6252181,0.99998873,-7.2879014e-10,-1.3214303e-10,-0.0047607017,2
30775527,30775069,0.77688754,0.013983123,-0.006720126,0.6294482,0.99998873,-7.2879014e-10,-1.3214303e-10,-0.0047607017,2
30825517,30824988,0.7736159,0.013159592,-0.006586719,0.63348395,0.99998873,-7.2879014e-10,-1.3214303e-10,-0.0047607017,2
30875408,30874905,0.77044266,0.012121305,-0.007212889,0.63735324,0.99998873,-7.2879014e-10,-1.3214303e-10,-0.0047607017,2
30930303,30929816,0.76708233,0.01114396,-0.008453657,0.6413963,0.99998873,-7.2879014e-10,-1.3214303e-10,-0.0047607017,2
30975221,30974742,0.7644262,0.010203402,-0.0091688605,0.6445654,0.99998873,-7.2879014e-10,-1.3214303e-10,-0.0047607017,2
31025194,31024661,0.761575,0.009118141,-0.009760945,0.64793926,0.99998873,-7.2879014e-10,-1.3214303e-10,-0.0047607017,2
31080025,31079570,0.7585103,0.009250809,-0.010968869,0.6515031,0.99998873,-7.2879014e-10,-1.3214303e-10,-0.0047607017,2
31129943,31129488,0.7557582,0.010169874,-0.012652733,0.6546497,0.99998873,-7.2879014e-10,-1.3214303e-10,-0.0047607017,2
31174915,31174414,0.7533224,0.010919066,-0.013735637,0.65741736,0.99998873,-7.2879014e-10,-1.3214303e-10,-0.0047607017,2
31224844,31224333,0.75064224,0.011364649,-0.014343995,0.66045535,0.99998873,-7.2879014e-10,-1.3214303e-10,-0.0047607017,2
31279716,31279242,0.74771625,0.011652512,-0.014880488,0.6637494,0.99998873,-7.2879014e-10,-1.3214303e-10,-0.0047607017,2
31329634,31329162,0.7451143,0.0117382,-0.015262312,0.6666588,0.99998873,-7.2879014e-10,-1.3214303e-10,-0.0047607017,2
31374562,31374087,0.74283016,0.011643637,-0.015374886,0.6692021,0.99998873,-7.2879014e-10,-1.3214303e-10,-0.0047607017,2
31429528,31428997,0.7400633,0.011644502,-0.015296113,0.67226255,0.99998873,-7.2879014e-10,-1.3214303e-10,-0.0047607017,2
31479373,31478914,0.7375947,0.011722011,-0.014841219,0.67497885,0.99998873,-7.2879014e-10,-1.3214303e-10,-0.0047607017,2
31529300,31528833,0.73514396,0.011691634,-0.014161574,0.6776623,0.99998873,-7.2879014e-10,-1.3214303e-10,-0.0047607017,2
31579220,31578767,0.73273116,0.011367795,-0.013289225,0.68029356,0.99998873,-7.2879014e-10,-1.3214303e-10,-0.0047607017,2
31629227,31628672,0.7303534,0.010776909,-0.012390164,0.6828721,0.99998873,-7.2879014e-10,-1.3214303e-10,-0.0047607017,2
31679209,31678589,0.7279608,0.01001919,-0.011544577,0.6854484,0.99998873,-7.2879014e-10,-1.3214303e-10,-0.0047607017,2
31724075,31723514,0.7257961,0.009313013,-0.0107554365,0.6877628,0.99998873,-7.2879014e-10,-1.3214303e-10,-0.0047607017,2
31778924,31778424,0.7230774,0.009529826,-0.010337567,0.69062394,0.99998873,-7.2879014e-10,-1.3214303e-10,-0.0047607017,2
31823814,31823351,0.72076875,0.010574958,-0.010561426,0.69301456,0.99998873,-7.2879014e-10,-1.3214303e-10,-0.0047607017,2
31878801,31878260,0.7178848,0.01163151,-0.011116979,0.6959761,0.99998873,-7.2879014e-10,-1.3214303e-10,-0.0047607017,2
31923708,31923188,0.7154947,0.012186042,-0.01138855,0.69841903,0.99998873,-7.2879014e-10,-1.3214303e-10,-0.0047607017,2
31978608,31978097,0.7125172,0.013371548,-0.0119313225,0.7014258,0.99998873,-7.2879014e-10,-1.3214303e-10,-0.0047607017,2
32028531,32028017,0.70976377,0.014910807,-0.012333145,0.704174,0.99998873,-7.2879014e-10,-1.3214303e-10,-0.0047607017,2
32078516,32077938,0.70699114,0.016005235,-0.012463851,0.70693153,0.99998873,-7.2879014e-10,-1.3214303e-10,-0.0047607017,2
32128363,32127855,0.704168,0.016853707,-0.012851785,0.70971704,0.99998873,-7.2879014e-10,-1.3214303e-10,-0.0047607017,2
32178229,32177770,0.7013449,0.01730363,-0.013792573,0.71247864,0.99998873,-7.2879014e-10,-1.3214303e-10,-0.0047607017,2
32228153,32227689,0.69852215,0.017060751,-0.0145283295,0.71523756,0.99998873,-7.2879014e-10,-1.3214303e-10,-0.0047607017,2
32278067,32277607,0.69567835,0.016872574,-0.014818304,0.71800244,0.99998873,-7.2879014e-10,-1.3214303e-10,-0.0047607017,2
32328025,32327525,0.69279695,0.016580954,-0.015117258,0.72078365,0.99998873,-7.2879014e-10,-1.3214303e-10,-0.0047607017,2
32377906,32377442,0.6899298,0.01558667,-0.015138546,0.72355014,0.99998873,-7.2879014e-10,-1.3214303e-10,-0.0047607017,2
32427813,32427361,0.68704295,0.014777465,-0.01486727,0.7263145,0.99998873,-7.2879014e-10,-1.3214303e-10,-0.0047607017,2
32477750,32477280,0.68413544,0.01478361,-0.014548668,0.7290601,0.99998873,-7.2879014e-10,-1.3214303e-10,-0.0047607017,2
32527705,32527198,0.6812416,0.014876808,-0.014415971,0.7317656,0.99998873,-7.2879014e-10,-1.3214303e-10,-0.0047607017,2
32577641,32577127,0.6783584,0.014365286,-0.014330015,0.734451,0.99998873,-7.2879014e-10,-1.3214303e-10,-0.0047607017,2
32627546,32627089,0.6755434,0.013449227,-0.014093653,0.7370629,0.99998873,-7.2879014e-10,-1.3214303e-10,-0.0047607017,2
32677479,32676957,0.6727874,0.01295978,-0.013338038,0.7396021,0.99998873,-7.2879014e-10,-1.3214303e-10,-0.0047607017,2
32727416,32726871,0.6701023,0.012863951,-0.012508615,0.74205196,0.99998873,-7.2879014e-10,-1.3214303e-10,-0.0047607017,2
32777337,32776839,0.6674971,0.012485288,-0.011742938,0.74441516,0.99998873,-7.2879014e-10,-1.3214303e-10,-0.0047607017,2
32827208,32826707,0.6649413,0.011976393,-0.0107174385,0.74672276,0.99998873,-7.2879014e-10,-1.3214303e-10,-0.0047607017,2
32877138,32876629,0.6624238,0.011914006,-0.009397636,0.74897563,0.99998873,-7.2879014e-10,-1.3214303e-10,-0.0047607017,2
32927100,32926545,0.65993124,0.012001591,-0.007941933,0.75118816,0.99998873,-7.2879014e-10,-1.3214303e-10,-0.0047607017,2
32977007,32976464,0.6574719,0.01223193,-0.006750922,0.7533496,0.99998873,-7.2879014e-10,-1.3214303e-10,-0.0047607017,2
33031835,33031372,0.6547702,0.012853449,-0.006376729,0.7556919,0.99998873,-7.2879014e-10,-1.3214303e-10,-0.0047607017,2
33076817,33076303,0.65256053,0.013109718,-0.0066409246,0.75759417,0.99998873,-7.2879014e-10,-1.3214303e-10,-0.0047607017,2
33126707,33126217,0.65012735,0.013019528,-0.0067277886,0.759684,0.99998873,-7.2879014e-10,-1.3214303e-10,-0.0047607017,2
33176674,33176137,0.6477089,0.013170088,-0.0061103525,0.76174957,0.99998873,-7.2879014e-10,-1.3214303e-10,-0.0047607017,2
33226522,33226053,0.64526016,0.013722438,-0.0056208996,0.7638191,0.99998873,-7.2879014e-10,-1.3214303e-10,-0.0047607017,2
33276427,33275972,0.64282566,0.014007785,-0.0055154976,0.7658646,0.99998873,-7.2879014e-10,-1.3214303e-10,-0.0047607017,2
33326349,33325890,0.6403953,0.013608782,-0.005620665,0.76790434,0.99998873,-7.2879014e-10,-1.3214303e-10,-0.0047607017,2
33376326,33375808,0.63797545,0.012935326,-0.0062147183,0.769923,0.99998873,-7.2879014e-10,-1.3214303e-10,-0.0047607017,2
33426234,33425727,0.6355737,0.012627928,-0.006935962,0.77190584,0.99998873,-7.2879014e-10,-1.3214303e-10,-0.0047607017,2
33476103,33475645,0.63323736,0.012491241,-0.0074289693,0.7738213,0.99998873,-7.2879014e-10,-1.3214303e-10,-0.0047607017,2
33531075,33530556,0.63071,0.012429045,-0.0075507867,0.7758824,0.99998873,-7.2879014e-10,-1.3214303e-10,-0.0047607017,2
33576037,33575514,0.6286567,0.0120879235,-0.007688468,0.7775511,0.99998873,-7.2879014e-10,-1.3214303e-10,-0.0047607017,2
33625943,33625401,0.62635386,0.012108855,-0.0080301715,0.7794035,0.99998873,-7.2879014e-10,-1.3214303e-10,-0.0047607017,2
33675812,33675318,0.62407553,0.012231003,-0.008455078,0.78122264,0.99998873,-7.2879014e-10,-1.3214303e-10,-0.0047607017,2
33730762,33730228,0.62160003,0.011870852,-0.008556872,0.7831981,0.99998873,-7.2879014e-10,-1.3214303e-10,-0.0047607017,2
33775663,33775155,0.6196199,0.011895414,-0.008532137,0.7847655,0.99998873,-7.2879014e-10,-1.3214303e-10,-0.0047607017,2
33825613,33825077,0.61744344,0.0121336,-0.008426604,0.7864766,0.99998873,-7.2879014e-10,-1.3214303e-10,-0.0047607017,2
33880450,33879984,0.6151181,0.011831923,-0.008301805,0.7883026,0.99998873,-7.2879014e-10,-1.3214303e-10,-0.0047607017,2
33930360,33929902,0.6130777,0.011468906,-0.008523785,0.7898934,0.99998873,-7.2879014e-10,-1.3214303e-10,-0.0047607017,2
33975331,33974830,0.6112557,0.011075096,-0.008780851,0.79130703,0.99998873,-7.2879014e-10,-1.3214303e-10,-0.0047607017,2
34025390,34024747,0.6092622,0.010551904,-0.008628048,0.7928517,0.99998873,-7.2879014e-10,-1.3214303e-10,-0.0047607017,2
34080120,34079657,0.60709596,0.009960166,-0.008497566,0.7945208,0.99998873,-7.2879014e-10,-1.3214303e-10,-0.0047607017,2
34125035,34124584,0.6053276,0.009551228,-0.008449592,0.7958744,0.99998873,-7.2879014e-10,-1.3214303e-10,-0.0047607017,2
34174988,34174504,0.60336983,0.0095699765,-0.008147212,0.79736245,0.99998873,-7.2879014e-10,-1.3214303e-10,-0.0047607017,2
34229941,34229434,0.6012568,0.009701842,-0.0076966253,0.79896003,0.99998873,-7.2879014e-10,-1.3214303e-10,-0.0047607017,2
34279840,34279337,0.5993931,0.010113638,-0.0077680275,0.80035317,0.99998873,-7.2879014e-10,-1.3214303e-10,-0.0047607017,2
34324718,34324263,0.59771156,0.010770142,-0.008284008,0.8015961,0.99998873,-7.2879014e-10,-1.3214303e-10,-0.0047607017,2
34374635,34374176,0.5958961,0.0112614995,-0.008913197,0.80293304,0.99998873,-7.2879014e-10,-1.3214303e-10,-0.0047607017,2
34429629,34429086,0.5939113,0.011807465,-0.008954192,0.8043941,0.99998873,-7.2879014e-10,-1.3214303e-10,-0.0047607017,2
34479461,34479004,0.5921662,0.013047441,-0.009046022,0.8056595,0.99998873,-7.2879014e-10,-1.3214303e-10,-0.0047607017,2
34524461,34523974,0.5906539,0.014513296,-0.00945287,0.8067392,0.99998873,-7.2879014e-10,-1.3214303e-10,-0.0047607017,2
34579310,34578841,0.5889231,0.015676828,-0.009723686,0.8079785,0.99998873,-7.2879014e-10,-1.3214303e-10,-0.0047607017,2
34629265,34628759,0.58747494,0.016196586,-0.00986154,0.80902016,0.99998873,-7.2879014e-10,-1.3214303e-10,-0.0047607017,2
34679139,34678678,0.5861406,0.016782122,-0.010400483,0.80996877,0.99998873,-7.2879014e-10,-1.3214303e-10,-0.0047607017,2
34724140,34723604,0.5850304,0.017099515,-0.01121252,0.8107537,0.99998873,-7.2879014e-10,-1.3214303e-10,-0.0047607017,2
34778969,34778515,0.5837387,0.017249819,-0.011831012,0.8116721,0.99998873,-7.2879014e-10,-1.3214303e-10,-0.0047607017,2
34828945,34828433,0.5825919,0.01728651,-0.0115971705,0.8124982,0.99998873,-7.2879014e-10,-1.3214303e-10,-0.0047607017,2
34878865,34878353,0.58144057,0.017483655,-0.011185067,0.8133242,0.99998873,-7.2879014e-10,-1.3214303e-10,-0.0047607017,2
34928726,34928270,0.58053845,0.01751934,-0.011401219,0.81396455,0.99998873,-7.2879014e-10,-1.3214303e-10,-0.0047607017,2
34978642,34978189,0.5811808,0.01734322,-0.012237431,0.81349766,0.99998873,-7.2879014e-10,-1.3214303e-10,-0.0047607017,2
35028568,35028107,0.58292395,0.016837891,-0.013173756,0.8122455,0.99998873,-7.2879014e-10,-1.3214303e-10,-0.0047607017,2
35073490,35073034,0.5852504,0.015666129,-0.014312005,0.810575,0.99998873,-7.2879014e-10,-1.3214303e-10,-0.0047607017,2
35128416,35127944,0.5876662,0.013819401,-0.015737876,0.80883235,0.99998873,-7.2879014e-10,-1.3214303e-10,-0.0047607017,2
35178326,35177865,0.58879006,0.012953704,-0.016847773,0.8080066,0.99998873,-7.2879014e-10,-1.3214303e-10,-0.0047607017,2
35228301,35227836,0.5887997,0.012669728,-0.017556753,0.80798894,0.99998873,-7.2879014e-10,-1.3214303e-10,-0.0047607017,2
35278263,35277706,0.5877153,0.012689911,-0.017482972,0.8087795,0.99998873,-7.2879014e-10,-1.3214303e-10,-0.0047607017,2
35328172,35327675,0.5857911,0.012712369,-0.017403064,0.8101755,0.99998873,-7.2879014e-10,-1.3214303e-10,-0.0047607017,2
35378036,35377540,0.58331925,0.011674968,-0.017496893,0.81197065,0.99998873,-7.2879014e-10,-1.3214303e-10,-0.0047607017,2
35427958,35427455,0.58046645,0.008454238,-0.01753184,0.8140515,0.99998873,-7.2879014e-10,-1.3214303e-10,-0.0047607017,2
35477936,35477374,0.5772301,0.0046228087,-0.017861629,0.81637317,0.99998873,-7.2879014e-10,-1.3214303e-10,-0.0047607017,2
35527804,35527292,0.57369655,0.0021053965,-0.018313928,0.81886053,0.99998873,-7.2879014e-10,-1.3214303e-10,-0.0047607017,2
35577680,35577210,0.5699333,0.0008273309,-0.018457185,0.8214833,0.99998873,-7.2879014e-10,-1.3214303e-10,-0.0047607017,2
35627595,35627129,0.56617486,-4.5562763e-05,-0.018207755,0.82408416,0.99998873,-7.2879014e-10,-1.3214303e-10,-0.0047607017,2
35677518,35677048,0.562321,-0.00033460246,-0.018237,0.8267179,0.99998873,-7.2879014e-10,-1.3214303e-10,-0.0047607017,2
35727469,35726966,0.5585338,-0.00021619661,-0.01906058,0.8292627,0.99998873,-7.2879014e-10,-1.3214303e-10,-0.0047607017,2
35777335,35776884,0.5550028,-0.00036229484,-0.02045714,0.8315969,0.99998873,-7.2879014e-10,-1.3214303e-10,-0.0047607017,2
35827267,35826803,0.551868,-0.00078407204,-0.023608962,0.8335969,0.99998873,-7.2879014e-10,-1.3214303e-10,-0.0047607017,2
35877179,35876721,0.54918313,-0.0007274137,-0.028348168,0.83522075,0.99998873,-7.2879014e-10,-1.3214303e-10,-0.0047607017,2
35927153,35926640,0.54696393,-0.0006051008,-0.032886397,0.83650976,0.99998873,-7.2879014e-10,-1.3214303e-10,-0.0047607017,2
35977043,35976588,0.5451927,-0.00056201726,-0.035841968,0.837544,0.99998873,-7.2879014e-10,-1.3214303e-10,-0.0047607017,2
36026938,36026477,0.543707,0.00014554964,-0.037026607,0.838458,0.99998873,-7.2879014e-10,-1.3214303e-10,-0.0047607017,2
36076857,36076396,0.54256815,0.0014561436,-0.03703465,0.83919376,0.99998873,-7.2879014e-10,-1.3214303e-10,-0.0047607017,2
36126829,36126314,0.5417292,0.002424499,-0.036141645,0.83977216,0.99998873,-7.2879014e-10,-1.3214303e-10,-0.0047607017,2
36176793,36176286,0.5410885,0.0026606265,-0.034750722,0.84024316,0.99998873,-7.2879014e-10,-1.3214303e-10,-0.0047607017,2
36226652,36226151,0.5406004,0.0025591312,-0.03345719,0.84061,0.99998873,-7.2879014e-10,-1.3214303e-10,-0.0047607017,2
36276566,36276069,0.5402229,0.0024604748,-0.031899042,0.84091353,0.99998873,-7.2879014e-10,-1.3214303e-10,-0.0047607017,2
36326503,36325988,0.5399932,0.003125558,-0.029232929,0.84115577,0.99998873,-7.2879014e-10,-1.3214303e-10,-0.0047607017,2
36376451,36375907,0.5399146,0.004370763,-0.02542002,0.84132457,0.99998873,-7.2879014e-10,-1.3214303e-10,-0.0047607017,2
36426338,36425825,0.54013795,0.005592177,-0.02135901,0.84128696,0.99998873,-7.2879014e-10,-1.3214303e-10,-0.0047607017,2
36476249,36475744,0.54063797,0.0065253787,-0.018198594,0.8410333,0.99998873,-7.2879014e-10,-1.3214303e-10,-0.0047607017,2
36526143,36525663,0.54131657,0.0069084642,-0.015750669,0.8406429,0.99998873,-7.2879014e-10,-1.3214303e-10,-0.0047607017,2
36576156,36575581,0.5422878,0.006463502,-0.013780455,0.840055,0.99998873,-7.2879014e-10,-1.3214303e-10,-0.0047607017,2
36626080,36625559,0.543553,0.0055067297,-0.012214283,0.83926797,0.99998873,-7.2879014e-10,-1.3214303e-10,-0.0047607017,2
36680938,36680420,0.54534274,0.0043393546,-0.011092887,0.8381285,0.99998873,-7.2879014e-10,-1.3214303e-10,-0.0047607017,2
36725796,36725337,0.5470658,0.0034236808,-0.010726838,0.83701396,0.99998873,-7.2879014e-10,-1.3214303e-10,-0.0047607017,2
36775791,36775261,0.5492041,0.0025496401,-0.011317344,0.8356078,0.99998873,-7.2879014e-10,-1.3214303e-10,-0.0047607017,2
36825677,36825174,0.55159056,0.0022773282,-0.013163553,0.83400804,0.99998873,-7.2879014e-10,-1.3214303e-10,-0.0047607017,2
36880557,36880084,0.5544408,0.0022678266,-0.015627751,0.8320734,0.99998873,-7.2879014e-10,-1.3214303e-10,-0.0047607017,2
36925620,36925011,0.5568758,0.002214615,-0.017184721,0.83041507,0.99998873,-7.2879014e-10,-1.3214303e-10,-0.0047607017,2
36975437,36974973,0.5595429,0.0025785505,-0.018647624,0.8285876,0.99998873,-7.2879014e-10,-1.3214303e-10,-0.0047607017,2
37025392,37024849,0.56211215,0.0036599718,-0.019999122,0.8268111,0.99998873,-7.2879014e-10,-1.3214303e-10,-0.0047607017,2
37080215,37079759,0.56483495,0.005682952,-0.020554354,0.8249283,0.99998873,-7.2879014e-10,-1.3214303e-10,-0.0047607017,2
37125175,37124686,0.5669372,0.008012631,-0.020540465,0.82346594,0.99998873,-7.2879014e-10,-1.3214303e-10,-0.0047607017,2
37175107,37174609,0.5691937,0.010675433,-0.02037527,0.82188165,0.99998873,-7.2879014e-10,-1.3214303e-10,-0.0047607017,2
37229979,37229515,0.5714983,0.01278398,-0.020234857,0.82025415,0.99998873,-7.2879014e-10,-1.3214303e-10,-0.0047607017,2
37274975,37274441,0.5731632,0.013801858,-0.02019716,0.819076,0.99998873,-7.2879014e-10,-1.3214303e-10,-0.0047607017,2
37324872,37324360,0.5748374,0.014470026,-0.019930653,0.817897,0.99998873,-7.2879014e-10,-1.3214303e-10,-0.0047607017,2
37379786,37379271,0.5764728,0.015128186,-0.018425617,0.81676847,0.99998873,-7.2879014e-10,-1.3214303e-10,-0.0047607017,2
37429707,37429193,0.5777145,0.016292986,-0.016448257,0.8159105,0.99998873,-7.2879014e-10,-1.3214303e-10,-0.0047607017,2
37474605,37474116,0.578677,0.017667783,-0.0150398435,0.8152268,0.99998873,-7.2879014e-10,-1.3214303e-10,-0.0047607017,2
37524490,37524034,0.57955676,0.018864242,-0.013724393,0.814598,0.99998873,-7.2879014e-10,-1.3214303e-10,-0.0047607017,2
37579409,37578947,0.58035636,0.01947601,-0.012129778,0.8140394,0.99998873,-7.2879014e-10,-1.3214303e-10,-0.0047607017,2
37629499,37628922,0.5809792,0.019876506,-0.010801274,0.81360394,0.99998873,-7.2879014e-10,-1.3214303e-10,-0.0047607017,2
37674286,37673790,0.5814792,0.019890372,-0.009970273,0.813257,0.99998873,-7.2879014e-10,-1.3214303e-10,-0.0047607017,2
37729158,37728701,0.5820585,0.018817106,-0.00907944,0.81287855,0.99998873,-7.2879014e-10,-1.3214303e-10,-0.0047607017,2
37779141,37778630,0.58252656,0.01594914,-0.00760133,0.8126196,0.99998873,-7.2879014e-10,-1.3214303e-10,-0.0047607017,2
37829056,37828538,0.58295697,0.011636585,-0.0055341083,0.81240094,0.99998873,-7.2879014e-10,-1.3214303e-10,-0.0047607017,2
37874012,37873465,0.5833571,0.007738951,-0.0037959518,0.8121701,0.99998873,-7.2879014e-10,-1.3214303e-10,-0.0047607017,2
37928836,37928376,0.58400214,0.003606502,-0.0025609843,0.81174016,0.99998873,-7.2879014e-10,-1.3214303e-10,-0.0047607017,2
37978757,37978295,0.5848084,0.00020505645,-0.002015399,0.811169,0.99998873,-7.2879014e-10,-1.3214303e-10,-0.0047607017,2
38028742,38028213,0.58594507,-0.0029512825,-0.0026438322,0.8103412,0.99998873,-7.2879014e-10,-1.3214303e-10,-0.0047607017,2
38073644,38073140,0.58721334,-0.0054815183,-0.00446964,0.80940133,0.99998873,-7.2879014e-10,-1.3214303e-10,-0.0047607017,2
38128515,38128050,0.5891085,-0.008293644,-0.0076400787,0.80797535,0.99998873,-7.2879014e-10,-1.3214303e-10,-0.0047607017,2
38178423,38177969,0.5911978,-0.010397666,-0.010626314,0.8063896,0.99998873,-7.2879014e-10,-1.3214303e-10,-0.0047607017,2
38228352,38227888,0.59380317,-0.012059194,-0.012925324,0.80441624,0.99998873,-7.2879014e-10,-1.3214303e-10,-0.0047607017,2
38278316,38277808,0.5970164,-0.012843712,-0.014401877,0.8019969,0.99998873,-7.2879014e-10,-1.3214303e-10,-0.0047607017,2
38328183,38327726,0.6006774,-0.012850465,-0.015450603,0.79923904,0.99998873,-7.2879014e-10,-1.3214303e-10,-0.0047607017,2
38378115,38377645,0.60479397,-0.012798096,-0.015989354,0.7961186,0.99998873,-7.2879014e-10,-1.3214303e-10,-0.0047607017,2
38428023,38427563,0.60927993,-0.013076494,-0.01607725,0.79268444,0.99998873,-7.2879014e-10,-1.3214303e-10,-0.0047607017,2
38477994,38477482,0.6140524,-0.013373561,-0.015892452,0.7889919,0.99998873,-7.2879014e-10,-1.3214303e-10,-0.0047607017,2
38527907,38527440,0.6190827,-0.013728728,-0.015729122,0.78504825,0.99998873,-7.2879014e-10,-1.3214303e-10,-0.0047607017,2
38577777,38577319,0.6244145,-0.014091067,-0.015407823,0.78081405,0.99998873,-7.2879014e-10,-1.3214303e-10,-0.0047607017,2
38627749,38627281,0.63011813,-0.013739412,-0.013948875,0.77625245,0.99998873,-7.2879014e-10,-1.3214303e-10,-0.0047607017,2
38677721,38677159,0.63608986,-0.012846896,-0.011382136,0.7714241,0.99998873,-7.2879014e-10,-1.3214303e-10,-0.0047607017,2
38727613,38727075,0.6421671,-0.012083878,-0.009275166,0.76641333,0.99998873,-7.2879014e-10,-1.3214303e-10,-0.0047607017,2
38777489,38776993,0.6482349,-0.011968471,-0.0096912235,0.76128477,0.99998873,-7.2879014e-10,-1.3214303e-10,-0.0047607017,2
38827429,38826913,0.6542819,-0.012080339,-0.011626102,0.7560649,0.99998873,-7.2879014e-10,-1.3214303e-10,-0.0047607017,2
38877289,38876831,0.6603848,-0.011715682,-0.013007195,0.7507234,0.99998873,-7.2879014e-10,-1.3214303e-10,-0.0047607017,2
38927246,38926750,0.6665391,-0.01028833,-0.013547109,0.74527603,0.99998873,-7.2879014e-10,-1.3214303e-10,-0.0047607017,2
38977125,38976669,0.67267644,-0.008045199,-0.013679846,0.7397666,0.99998873,-7.2879014e-10,-1.3214303e-10,-0.0047607017,2
39027049,39026589,0.67879605,-0.0060853334,-0.013735947,0.7341731,0.99998873,-7.2879014e-10,-1.3214303e-10,-0.0047607017,2
39076963,39076506,0.6849097,-0.00519301,-0.014066973,0.72847366,0.99998873,-7.2879014e-10,-1.3214303e-10,-0.0047607017,2
39126937,39126425,0.69099665,-0.005559016,-0.014596402,0.7226892,0.99998873,-7.2879014e-10,-1.3214303e-10,-0.0047607017,2
39176820,39176357,0.69706714,-0.006811903,-0.015145835,0.7168136,0.99998873,-7.2879014e-10,-1.3214303e-10,-0.0047607017,2
39226732,39226267,0.70311135,-0.007896383,-0.015530727,0.7108664,0.99998873,-7.2879014e-10,-1.3214303e-10,-0.0047607017,2
39276638,39276181,0.70914006,-0.00856509,-0.015385599,0.7048478,0.99998873,-7.2879014e-10,-1.3214303e-10,-0.0047607017,2
39326609,39326100,0.71513057,-0.009072402,-0.014314011,0.69878554,0.99998873,-7.2879014e-10,-1.3214303e-10,-0.0047607017,2
39376536,39376019,0.7210541,-0.009406746,-0.013258702,0.69268817,0.99998873,-7.2879014e-10,-1.3214303e-10,-0.0047607017,2
39426397,39425943,0.7268669,-0.009489121,-0.01272114,0.686595,0.99998873,-7.2879014e-10,-1.3214303e-10,-0.0047607017,2
39481384,39480849,0.7331127,-0.009643614,-0.012643219,0.6799213,0.99998873,-7.2879014e-10,-1.3214303e-10,-0.0047607017,2
39526241,39525776,0.73809284,-0.009746109,-0.013116913,0.6745013,0.99998873,-7.2879014e-10,-1.3214303e-10,-0.0047607017,2
39576189,39575694,0.7434853,-0.009406987,-0.014514381,0.6685286,0.99998873,-7.2879014e-10,-1.3214303e-10,-0.0047607017,2
39626065,39625613,0.7487347,-0.008861567,-0.015836865,0.6626214,0.99998873,-7.2879014e-10,-1.3214303e-10,-0.0047607017,2
39675989,39675532,0.7538887,-0.008361208,-0.01622977,0.6567484,0.99998873,-7.2879014e-10,-1.3214303e-10,-0.0047607017,2
39725915,39725451,0.75898015,-0.006929872,-0.016256902,0.65087384,0.99998873,-7.2879014e-10,-1.3214303e-10,-0.0047607017,2
39775895,39775379,0.76397854,-0.0043675397,-0.016570376,0.64501405,0.99998873,-7.2879014e-10,-1.3214303e-10,-0.0047607017,2
39825936,39825388,0.76896244,-0.0012748595,-0.01650796,0.6390795,0.99998873,-7.2879014e-10,-1.3214303e-10,-0.0047607017,2
39875729,39875211,0.77392256,0.0020511658,-0.016326802,0.6330666,0.99998873,-7.2879014e-10,-1.3214303e-10,-0.0047607017,2
39925633,39925127,0.77888185,0.005307906,-0.016537208,0.6269302,0.99998873,-7.2879014e-10,-1.3214303e-10,-0.0047607017,2
39975574,39975046,0.7838359,0.0076273694,-0.016611405,0.620699,0.99998873,-7.2879014e-10,-1.3214303e-10,-0.0047607017,2
40030420,40029956,0.78927606,0.009244702,-0.016400713,0.61374986,0.99998873,-7.2879014e-10,-1.3214303e-10,-0.0047607017,2
40075337,40074882,0.7937037,0.00984692,-0.01632704,0.60800576,0.99998873,-7.2879014e-10,-1.3214303e-10,-0.0047607017,2
40125255,40124801,0.79865986,0.009100717,-0.016146563,0.6014972,0.99998873,-7.2879014e-10,-1.3214303e-10,-0.0047607017,2
40180263,40179760,0.80416316,0.0062225787,-0.015236268,0.59418076,0.99998873,-7.2879014e-10,-1.3214303e-10,-0.0047607017,2
40230184,40229631,0.80921966,0.0020953163,-0.0137592405,0.58734137,0.99998873,-7.2879014e-10,-1.3214303e-10,-0.0047607017,2
40275008,40274557,0.8138134,-0.001971875,-0.011905824,0.58100104,0.99998873,-7.2879014e-10,-1.3214303e-10,-0.0047607017,2
40324933,40324477,0.81895936,-0.0048593157,-0.00952139,0.573752,0.99998873,-7.2879014e-10,-1.3214303e-10,-0.0047607017,2
40384846,40384382,0.8251914,-0.006499231,-0.0069552576,0.56477314,0.99998873,-7.2879014e-10,-1.3214303e-10,-0.0047607017,2
40429830,40429307,0.82991254,-0.007910791,-0.0051659066,0.5578137,0.99998873,-7.2879014e-10,-1.3214303e-10,-0.0047607017,2
40474738,40474237,0.8346697,-0.009749686,-0.0040987656,0.5506493,0.99998873,-7.2879014e-10,-1.3214303e-10,-0.0047607017,2
40529741,40529145,0.8405281,-0.011716338,-0.0043757,0.5416236,0.99998873,-7.2879014e-10,-1.3214303e-10,-0.0047607017,2
40579635,40579066,0.84590024,-0.012878925,-0.0052154725,0.5331603,0.99998873,-7.2879014e-10,-1.3214303e-10,-0.0047607017,2
40624491,40623991,0.850778,-0.013043148,-0.0053194975,0.5253365,0.99998873,-7.2879014e-10,-1.3214303e-10,-0.0047607017,2
40674405,40673909,0.8561771,-0.011940308,-0.0051973816,0.51651835,0.99998873,-7.2879014e-10,-1.3214303e-10,-0.0047607017,2
40729333,40728819,0.86206067,-0.009532514,-0.0054878206,0.5066858,0.99998873,-7.2879014e-10,-1.3214303e-10,-0.0047607017,2
40779222,40778739,0.8673218,-0.006856823,-0.0054728785,0.49767062,0.99998873,-7.2879014e-10,-1.3214303e-10,-0.0047607017,2
40824115,40823665,0.871985,-0.0046647545,-0.005038969,0.48948452,0.99998873,-7.2879014e-10,-1.3214303e-10,-0.0047607017,2
40879031,40878576,0.87758595,-0.0020711194,-0.0048001474,0.47939083,0.99998873,-7.2879014e-10,-1.3214303e-10,-0.0047607017,2
40928951,40928495,0.8825792,6.183815e-05,-0.005251246,0.47013435,0.99998873,-7.2879014e-10,-1.3214303e-10,-0.0047607017,2
40978877,40978415,0.887449,0.0017309036,-0.0060333563,0.4608632,0.99998873,-7.2879014e-10,-1.3214303e-10,-0.0047607017,2
41023826,41023369,0.8917445,0.002413504,-0.0066148434,0.45248437,0.99998873,-7.2879014e-10,-1.3214303e-10,-0.0047607017,2
41078718,41078252,0.8968379,0.0024525446,-0.0073172688,0.44229212,0.99998873,-7.2879014e-10,-1.3214303e-10,-0.0047607017,2
41128635,41128172,0.9013138,0.0020034802,-0.008117744,0.43308607,0.99998873,-7.2879014e-10,-1.3214303e-10,-0.0047607017,2
41178555,41178090,0.9056589,0.0014469798,-0.008647824,0.42391634,0.99998873,-7.2879014e-10,-1.3214303e-10,-0.0047607017,2
41228527,41228008,0.90989316,0.0014747144,-0.008122031,0.4147605,0.99998873,-7.2879014e-10,-1.3214303e-10,-0.0047607017,2
41278440,41277939,0.91403115,0.0014003693,-0.0065600853,0.40558845,0.99998873,-7.2879014e-10,-1.3214303e-10,-0.0047607017,2
41328360,41327892,0.9180458,0.0010306623,-0.0048372624,0.39644352,0.99998873,-7.2879014e-10,-1.3214303e-10,-0.0047607017,2
41378269,41377765,0.9219387,0.00034135705,-0.003375301,0.38732117,0.99998873,-7.2879014e-10,-1.3214303e-10,-0.0047607017,2
41428231,41427685,0.9257253,-0.00012938121,-0.0026411668,0.37818736,0.99998873,-7.2879014e-10,-1.3214303e-10,-0.0047607017,2
41478138,41477604,0.9293895,2.6972828e-05,-0.0023523418,0.369093,0.99998873,-7.2879014e-10,-1.3214303e-10,-0.0047607017,2
41528025,41527522,0.93294567,0.00034340512,-0.0019030365,0.36001226,0.99998873,-7.2879014e-10,-1.3214303e-10,-0.0047607017,2
41577954,41577443,0.93639785,0.00051454554,-0.0016838827,0.350936,0.99998873,-7.2879014e-10,-1.3214303e-10,-0.0047607017,2
41627868,41627360,0.93976545,0.00076553534,-0.0022957346,0.34181166,0.99998873,-7.2879014e-10,-1.3214303e-10,-0.0047607017,2
41677837,41677280,0.94303936,0.0012772772,-0.0034073512,0.33266142,0.99998873,-7.2879014e-10,-1.3214303e-10,-0.0047607017,2
41727718,41727209,0.9462349,0.0016964994,-0.0045497473,0.32344398,0.99998873,-7.2879014e-10,-1.3214303e-10,-0.0047607017,2
41777638,41777121,0.9493218,0.0019384801,-0.006052304,0.31424156,0.99998873,-7.2879014e-10,-1.3214303e-10,-0.0047607017,2
41827561,41827037,0.9523331,0.002058359,-0.008088853,0.30494595,0.99998873,-7.2879014e-10,-1.3214303e-10,-0.0047607017,2
41877516,41876955,0.95528525,0.0020581768,-0.010180879,0.2955033,0.99998873,-7.2879014e-10,-1.3214303e-10,-0.0047607017,2
41927416,41926874,0.958166,0.0020143357,-0.011968231,0.2859559,0.99998873,-7.2879014e-10,-1.3214303e-10,-0.0047607017,2
41977287,41976794,0.9609956,0.0018179585,-0.013239255,0.2762407,0.99998873,-7.2879014e-10,-1.3214303e-10,-0.0047607017,2
42027166,42026712,0.96377176,0.0013926836,-0.0136674335,0.26637456,0.99998873,-7.2879014e-10,-1.3214303e-10,-0.0047607017,2
42077154,42076631,0.9664804,0.0011471716,-0.013472427,0.25638428,0.99998873,-7.2879014e-10,-1.3214303e-10,-0.0047607017,2
42127048,42126550,0.96910584,0.0012204206,-0.012859393,0.24630676,0.99998873,-7.2879014e-10,-1.3214303e-10,-0.0047607017,2
42181934,42181464,0.9719047,0.0016930777,-0.011623679,0.23508151,0.99998873,-7.2879014e-10,-1.3214303e-10,-0.0047607017,2
42226900,42226388,0.9741236,0.0023416595,-0.010673983,0.22575179,0.99998873,-7.2879014e-10,-1.3214303e-10,-0.0047607017,2
42276867,42276307,0.9765068,0.0028824625,-0.010086198,0.21523114,0.99998873,-7.2879014e-10,-1.3214303e-10,-0.0047607017,2
42326781,42326226,0.9787966,0.0032576083,-0.009869761,0.20457089,0.99998873,-7.2879014e-10,-1.3214303e-10,-0.0047607017,2
42376653,42376145,0.9809875,0.003152959,-0.009759882,0.19380039,0.99998873,-7.2879014e-10,-1.3214303e-10,-0.0047607017,2
42426618,42426068,0.983079,0.0026091228,-0.009542161,0.18291499,0.99998873,-7.2879014e-10,-1.3214303e-10,-0.0047607017,2
42476495,42475987,0.9850657,0.002301247,-0.009693677,0.1718907,0.99998873,-7.2879014e-10,-1.3214303e-10,-0.0047607017,2
42526484,42525902,0.9869394,0.0020910033,-0.010468125,0.16073853,0.99998873,-7.2879014e-10,-1.3214303e-10,-0.0047607017,2
42576361,42575823,0.98870736,0.0013281221,-0.011174033,0.14943635,0.99998873,-7.2879014e-10,-1.3214303e-10,-0.0047607017,2
42631202,42630733,0.99052566,0.0004091359,-0.010852349,0.13689758,0.99998873,-7.2879014e-10,-1.3214303e-10,-0.0047607017,2
42676169,42675659,0.99191403,-0.00025844126,-0.0093086185,0.12656938,0.99998873,-7.2879014e-10,-1.3214303e-10,-0.0047607017,2
42726234,42725579,0.9933453,-0.0008106174,-0.0068584816,0.11496719,0.99998873,-7.2879014e-10,-1.3214303e-10,-0.0047607017,2
42776050,42775497,0.9946403,-0.0010329298,-0.0043699266,0.10329883,0.99998873,-7.2879014e-10,-1.3214303e-10,-0.0047607017,2
42830885,42830419,0.99591076,-0.00081102696,-0.002074338,0.09031593,0.99998873,-7.2879014e-10,-1.3214303e-10,-0.0047607017,2
42875844,42875336,0.996826,-0.0005054364,-0.00069017697,0.07960717,0.99998873,-7.2879014e-10,-1.3214303e-10,-0.0047607017,2
42925779,42925261,0.9977124,5.359699e-05,0.00015775522,0.06760156,0.99998873,-7.2879014e-10,-1.3214303e-10,-0.0047607017,2
42980646,42980167,0.99852264,0.0009741259,0.00013286874,0.054328673,0.99998873,-7.2879014e-10,-1.3214303e-10,-0.0047607017,2
43030557,43030084,0.99910164,0.0021638407,-0.00075039524,0.04231902,0.99998873,-7.2879014e-10,-1.3214303e-10,-0.0047607017,2
43075480,43075014,0.99949527,0.003586039,-0.0021101427,0.031497438,0.99998873,-7.2879014e-10,-1.3214303e-10,-0.0047607017,2
43125393,43124932,0.99978685,0.0055398988,-0.00404398,0.01947251,0.99998873,-7.2879014e-10,-1.3214303e-10,-0.0047607017,2
43180302,43179842,0.9999313,0.007831344,-0.0062413826,0.0061034956,0.99998873,-7.2879014e-10,-1.3214303e-10,-0.0047607017,2
43225275,43224770,0.99990624,0.009811669,-0.008208147,-0.004889822,0.99998873,-7.2879014e-10,-1.3214303e-10,-0.0047607017,2
43275147,43274688,0.99973005,0.010982622,-0.011267292,-0.017095834,0.99998873,-7.2879014e-10,-1.3214303e-10,-0.0047607017,2
43325060,43324608,0.9994271,0.010126804,-0.013982976,-0.029112505,0.99998873,-7.2879014e-10,-1.3214303e-10,-0.0047607017,2
43380063,43379518,0.99898046,0.0071470686,-0.014586185,-0.04212213,0.99998873,-7.2879014e-10,-1.3214303e-10,-0.0047607017,2
43424948,43424445,0.99850655,0.0041085337,-0.014077031,-0.052626688,0.99998873,-7.2879014e-10,-1.3214303e-10,-0.0047607017,2
43474823,43474366,0.99784917,0.0010457721,-0.013547654,-0.06412809,0.99998873,-7.2879014e-10,-1.3214303e-10,-0.0047607017,2
43529795,43529275,0.9969752,-0.0017713077,-0.013037382,-0.076599166,0.99998873,-7.2879014e-10,-1.3214303e-10,-0.0047607017,2
43584650,43584188,0.9959547,-0.0040649413,-0.012231841,-0.08892807,0.99998873,-7.2879014e-10,-1.3214303e-10,-0.0047607017,2
43624630,43624121,0.9951274,-0.00549954,-0.011427597,-0.097778894,0.99998873,-7.2879014e-10,-1.3214303e-10,-0.0047607017,2
43679497,43679034,0.9938675,-0.0072633345,-0.0104126055,-0.10984651,0.99998873,-7.2879014e-10,-1.3214303e-10,-0.0047607017,2
43729414,43728952,0.9926087,-0.008302268,-0.009917849,-0.120667994,0.99998873,-7.2879014e-10,-1.3214303e-10,-0.0047607017,2
43779384,43778871,0.99123853,-0.008359802,-0.0095543815,-0.13147308,0.99998873,-7.2879014e-10,-1.3214303e-10,-0.0047607017,2
43824301,43823798,0.98992366,-0.007624718,-0.009522062,-0.14107601,0.99998873,-7.2879014e-10,-1.3214303e-10,-0.0047607017,2
43879158,43878709,0.98820055,-0.0062180767,-0.010155429,-0.15270208,0.99998873,-7.2879014e-10,-1.3214303e-10,-0.0047607017,2
43929083,43928628,0.9865221,-0.005213486,-0.011074581,-0.16317005,0.99998873,-7.2879014e-10,-1.3214303e-10,-0.0047607017,2
43974004,43973555,0.9849318,-0.004720005,-0.011801636,-0.17247571,0.99998873,-7.2879014e-10,-1.3214303e-10,-0.0047607017,2
44023927,44023475,0.98306286,-0.0042204717,-0.0123790195,-0.18280137,0.99998873,-7.2879014e-10,-1.3214303e-10,-0.0047607017,2
44078844,44078385,0.98087806,-0.0039316365,-0.013236004,-0.19413283,0.99998873,-7.2879014e-10,-1.3214303e-10,-0.0047607017,2
44128769,44128311,0.9787724,-0.004152,-0.014392875,-0.20440249,0.99998873,-7.2879014e-10,-1.3214303e-10,-0.0047607017,2
44173719,44173263,0.97678065,-0.0043886476,-0.015059033,-0.21366726,0.99998873,-7.2879014e-10,-1.3214303e-10,-0.0047607017,2
44228651,44228143,0.97420776,-0.004536757,-0.015738467,-0.22505766,0.99998873,-7.2879014e-10,-1.3214303e-10,-0.0047607017,2
44278545,44278064,0.97172594,-0.0051184953,-0.01655805,-0.23547477,0.99998873,-7.2879014e-10,-1.3214303e-10,-0.0047607017,2
44328444,44327982,0.9691342,-0.0056559686,-0.017538866,-0.24584408,0.99998873,-7.2879014e-10,-1.3214303e-10,-0.0047607017,2
44378358,44377900,0.96640193,-0.005765696,-0.018523565,-0.25630262,0.99998873,-7.2879014e-10,-1.3214303e-10,-0.0047607017,2
44428335,44427819,0.9635626,-0.005541395,-0.01937245,-0.26672298,0.99998873,-7.2879014e-10,-1.3214303e-10,-0.0047607017,2
44478220,44477769,0.9606388,-0.005151115,-0.019605001,-0.27705997,0.99998873,-7.2879014e-10,-1.3214303e-10,-0.0047607017,2
44528123,44527658,0.9576298,-0.004960401,-0.019478085,-0.28729966,0.99998873,-7.2879014e-10,-1.3214303e-10,-0.0047607017,2
44578048,44577577,0.95454556,-0.0049438966,-0.01892044,-0.29742277,0.99998873,-7.2879014e-10,-1.3214303e-10,-0.0047607017,2
44628044,44627498,0.9513878,-0.0050521046,-0.017920678,-0.3074322,0.99998873,-7.2879014e-10,-1.3214303e-10,-0.0047607017,2
44677913,44677416,0.9481323,-0.005361018,-0.016679095,-0.3173931,0.99998873,-7.2879014e-10,-1.3214303e-10,-0.0047607017,2
44732795,44732328,0.944412,-0.0060325186,-0.015737388,-0.32833216,0.99998873,-7.2879014e-10,-1.3214303e-10,-0.0047607017,2
44777715,44777254,0.94126904,-0.006761789,-0.015677512,-0.33722568,0.99998873,-7.2879014e-10,-1.3214303e-10,-0.0047607017,2
44827633,44827177,0.9376702,-0.0075297863,-0.016013963,-0.34707567,0.99998873,-7.2879014e-10,-1.3214303e-10,-0.0047607017,2
44877624,44877116,0.9339405,-0.007944331,-0.016345749,-0.35696626,0.99998873,-7.2879014e-10,-1.3214303e-10,-0.0047607017,2
44927521,44927057,0.9301034,-0.008102764,-0.016837701,-0.36682227,0.99998873,-7.2879014e-10,-1.3214303e-10,-0.0047607017,2
44977447,44976936,0.926122,-0.007880321,-0.017458439,-0.37673742,0.99998873,-7.2879014e-10,-1.3214303e-10,-0.0047607017,2
45027362,45026854,0.9219831,-0.0069489507,-0.018020192,-0.38674843,0.99998873,-7.2879014e-10,-1.3214303e-10,-0.0047607017,2
45077321,45076771,0.9176934,-0.0047011394,-0.018418066,-0.39683467,0.99998873,-7.2879014e-10,-1.3214303e-10,-0.0047607017,2
45127248,45126749,0.9132666,-0.002159333,-0.01885047,-0.40692034,0.99998873,-7.2879014e-10,-1.3214303e-10,-0.0047607017,2
45182064,45181602,0.90823126,-0.0016276197,-0.019491486,-0.41801137,0.99998873,-7.2879014e-10,-1.3214303e-10,-0.0047607017,2
45227018,45226527,0.90397805,-0.0028040248,-0.019219523,-0.42713764,0.99998873,-7.2879014e-10,-1.3214303e-10,-0.0047607017,2
45276999,45276446,0.89912647,-0.0044968785,-0.017600207,-0.43731198,0.99998873,-7.2879014e-10,-1.3214303e-10,-0.0047607017,2
45326932,45326365,0.8941143,-0.005389453,-0.014801954,-0.4475618,0.99998873,-7.2879014e-10,-1.3214303e-10,-0.0047607017,2
45376788,45376284,0.8889665,-0.005546778,-0.011582028,-0.45779228,0.99998873,-7.2879014e-10,-1.3214303e-10,-0.0047607017,2
45426714,45426204,0.8836937,-0.0055059167,-0.0084941555,-0.46795633,0.99998873,-7.2879014e-10,-1.3214303e-10,-0.0047607017,2
45476656,45476123,0.8782995,-0.0056686606,-0.0058600553,-0.47804135,0.99998873,-7.2879014e-10,-1.3214303e-10,-0.0047607017,2
45526596,45526042,0.87279874,-0.0052794022,-0.003368841,-0.48804012,0.99998873,-7.2879014e-10,-1.3214303e-10,-0.0047607017,2
45576481,45575962,0.8671332,-0.0038062087,-0.000815947,-0.49806127,0.99998873,-7.2879014e-10,-1.3214303e-10,-0.0047607017,2
45626428,45625882,0.861202,-0.0022220502,0.0006232537,-0.5082577,0.99998873,-7.2879014e-10,-1.3214303e-10,-0.0047607017,2
45676276,45675801,0.8550823,-0.0015503385,0.00046373325,-0.5184897,0.99998873,-7.2879014e-10,-1.3214303e-10,-0.0047607017,2
45726229,45725720,0.84882206,-0.0017544628,-0.00085666706,-0.52867514,0.99998873,-7.2879014e-10,-1.3214303e-10,-0.0047607017,2
45776140,45775639,0.8424156,-0.002291135,-0.0026745407,-0.53881705,0.99998873,-7.2879014e-10,-1.3214303e-10,-0.0047607017,2
45826014,45825559,0.83592206,-0.003081086,-0.004650218,-0.54881984,0.99998873,-7.2879014e-10,-1.3214303e-10,-0.0047607017,2
45875937,45875477,0.82934767,-0.004004202,-0.0063054794,-0.5586831,0.99998873,-7.2879014e-10,-1.3214303e-10,-0.0047607017,2
45925871,45925397,0.82267934,-0.0048563136,-0.007497685,-0.56843567,0.99998873,-7.2879014e-10,-1.3214303e-10,-0.0047607017,2
45980819,45980307,0.81525344,-0.0054968745,-0.0081661325,-0.57902074,0.99998873,-7.2879014e-10,-1.3214303e-10,-0.0047607017,2
46025694,46025235,0.8091339,-0.0053660534,-0.008064801,-0.5875446,0.99998873,-7.2879014e-10,-1.3214303e-10,-0.0047607017,2
46075632,46075157,0.8022882,-0.004646292,-0.0070510833,-0.5968772,0.99998873,-7.2879014e-10,-1.3214303e-10,-0.0047607017,2
46130616,46130065,0.7946918,-0.0038877837,-0.0050997576,-0.6069793,0.99998873,-7.2879014e-10,-1.3214303e-10,-0.0047607017,2
46180611,46179987,0.7877261,-0.002881876,-0.00246926,-0.616014,0.99998873,-7.2879014e-10,-1.3214303e-10,-0.0047607017,2
46225377,46224912,0.78140473,-0.0015048926,-0.00049233664,-0.6240226,0.99998873,-7.2879014e-10,-1.3214303e-10,-0.0047607017,2
46275307,46274832,0.77428854,7.097961e-05,0.0003708282,-0.6328328,0.99998873,-7.2879014e-10,-1.3214303e-10,-0.0047607017,2
46330343,46329743,0.76638985,0.0018618725,0.0007720241,-0.64237267,0.99998873,-7.2879014e-10,-1.3214303e-10,-0.0047607017,2
46375182,46374670,0.75986016,0.0032211053,0.0011473646,-0.65007764,0.99998873,-7.2879014e-10,-1.3214303e-10,-0.0047607017,2
46425103,46424589,0.752514,0.004525178,0.00141536,-0.6585592,0.99998873,-7.2879014e-10,-1.3214303e-10,-0.0047607017,2
46474965,46474508,0.7450617,0.0053877328,0.0017322095,-0.6669716,0.99998873,-7.2879014e-10,-1.3214303e-10,-0.0047607017,2
46524886,46524428,0.7374232,0.0061150314,0.0010963607,-0.67540246,0.99998873,-7.2879014e-10,-1.3214303e-10,-0.0047607017,2
46574822,46574348,0.72956914,0.0069107977,-0.0010500391,-0.6838714,0.99998873,-7.2879014e-10,-1.3214303e-10,-0.0047607017,2
46624777,46624266,0.72153187,0.0073394063,-0.004292468,-0.6923291,0.99998873,-7.2879014e-10,-1.3214303e-10,-0.0047607017,2
46679633,46679177,0.71266824,0.005735894,-0.007056615,-0.70144236,0.99998873,-7.2879014e-10,-1.3214303e-10,-0.0047607017,2
46729556,46729097,0.70457995,0.00300324,-0.0066871145,-0.7095868,0.99998873,-7.2879014e-10,-1.3214303e-10,-0.0047607017,2
46774554,46774024,0.6972741,0.0003527741,-0.0049142875,-0.7167877,0.99998873,-7.2879014e-10,-1.3214303e-10,-0.0047607017,2
46829403,46828938,0.68828124,-0.002259068,-0.0028494804,-0.7254349,0.99998873,-7.2879014e-10,-1.3214303e-10,-0.0047607017,2
46879321,46878857,0.68005925,-0.003962676,-0.0013298774,-0.7331453,0.99998873,-7.2879014e-10,-1.3214303e-10,-0.0047607017,2
