timestamp,timestamp_sample,ref_timestamp,ref_lat,ref_lon,x,y,z,delta_xy[0],delta_xy[1],delta_z,vx,vy,vz,z_deriv,delta_vxy[0],delta_vxy[1],delta_vz,ax,ay,az,heading,delta_heading,ref_alt,dist_bottom,eph,epv,evh,evv,vxy_max,vz_max,hagl_min,hagl_max,xy_valid,z_valid,v_xy_valid,v_z_valid,xy_reset_counter,z_reset_counter,vxy_reset_counter,vz_reset_counter,heading_reset_counter,xy_global,z_global,dist_bottom_valid,dist_bottom_sensor_bitfield
22220020,22219210,0,nan,nan,0.030040763,0.025330776,0.40405574,0.0,0.0,0.0,0.032205094,0.029325476,0.024937179,-0.0003328046,0.0011172326,0.008942618,0.0,-0.20404188,-0.044372544,-0.25407004,-0.31150237,-0.01343903,nan,0.1,0.36241186,0.5511444,0.23123294,0.14667805,inf,inf,inf,inf,0,1,0,1,1,0,1,0,2,0,0,1,0
22729141,22728370,0,nan,nan,0.030239623,0.026952976,0.4098848,0.0,0.0,0.0,0.03265006,0.026614148,0.030532397,0.009653075,0.0011172326,0.008942618,0.0,0.6560669,-0.75596696,0.059852596,-0.30919653,-0.01343903,nan,0.1,0.33546105,0.54384494,0.21539366,0.14465088,inf,inf,inf,inf,0,1,0,1,1,0,1,0,2,0,0,1,0
23228304,23227494,0,nan,nan,0.032489765,0.031837456,0.40597063,0.0,0.0,0.0,0.015552425,0.0390897,-0.0006891668,-0.027088461,0.0011172326,0.008942618,0.0,-0.21374667,-0.25392747,-0.41346756,-0.3059445,-0.01343903,nan,0.1,0.3889746,0.54250884,0.24534275,0.14396389,inf,inf,inf,inf,0,1,0,1,1,0,1,0,2,0,0,1,0
23727622,23726669,0,nan,nan,0.016391534,0.049091782,0.33970025,0.0,0.0,0.0,-0.034378808,0.0057778163,-0.20320733,-0.22743301,0.0011172326,0.008942618,0.0,0.47226813,0.66078115,-0.2632451,-0.2903558,-0.01343903,nan,0.1644471,0.50650513,0.5415378,0.3475425,0.14359751,inf,inf,inf,inf,0,1,0,1,1,0,1,0,2,0,0,1,0
24226633,24225845,0,nan,nan,0.0023928662,0.035610273,0.25857717,0.0,0.0,0.0,-0.0678645,-0.043666508,-0.017172182,-0.025812259,0.0011172326,0.008942618,0.0,-0.43249017,-0.2510528,1.2303131,-0.26031718,-0.01343903,nan,0.24557018,0.6709088,0.5346485,0.47377285,0.14240436,inf,inf,inf,inf,0,1,0,1,1,0,1,0,2,0,0,1,0
24725969,24725021,0,nan,nan,-0.044487853,0.007918706,0.28449023,0.0,0.0,0.0,-0.12617108,-0.058919862,-0.08121278,-0.085651845,0.0011172326,0.008942618,0.0,0.058953576,0.90259486,-1.2658029,-0.2817767,-0.01343903,nan,0.21965712,0.89774054,0.53448325,0.60950714,0.14249487,inf,inf,inf,inf,0,1,0,1,1,0,1,0,2,0,0,1,0
25729319,25728370,0,nan,nan,-0.19409716,-0.06740546,-0.071029276,0.0,0.0,0.0,-0.17721663,-0.07732791,-0.20098725,-0.21445307,0.0011172326,0.008942618,0.0,-0.085146524,0.02287064,0.58073944,-0.15560903,-0.01343903,nan,0.5751766,1.5578282,0.52926946,0.8874855,0.14226064,inf,inf,inf,inf,0,1,0,1,1,0,1,0,2,0,0,1,0
26727501,26726727,0,nan,nan,-0.3355027,-0.12554955,-0.25221962,0.0,0.0,0.0,-0.07263824,-0.035024766,-0.24507439,-0.27527004,0.0011172326,0.008942618,0.0,0.29211903,-0.09202436,0.10023986,0.29440603,-0.01343903,nan,0.75636697,2.4196205,0.53163105,1.1211601,0.1435622,inf,inf,inf,inf,0,1,0,1,1,0,1,0,2,0,0,1,0
27725817,27725109,0,nan,nan,-0.28839785,-0.13314065,-0.5210605,0.0,0.0,0.0,0.057387147,0.004209743,-0.16794768,-0.20318982,0.0011172326,0.008942618,0.0,0.10491786,0.14352846,0.023471959,0.56123304,-0.01343903,nan,1.0252079,3.2673995,0.5289215,1.2443066,0.14423561,inf,inf,inf,inf,0,1,0,1,1,0,1,0,2,0,0,1,0
28729188,28728430,0,nan,nan,-0.07563528,0.014144222,-0.67026883,0.0,0.0,0.0,0.22900489,0.25634202,-0.08862496,-0.12426931,0.0011172326,0.008942618,0.0,0.35525727,0.26178035,-0.42520928,0.807186,-0.01343903,nan,1.1744162,3.8667133,0.52719253,1.2475247,0.1452188,inf,inf,inf,inf,0,1,0,1,1,0,1,0,2,0,0,0,0
29228502,29227656,0,nan,nan,0.0783354,0.17516848,-0.82222474,0.0,0.0,0.0,0.29158315,0.38364887,-0.40802786,-0.44626027,0.0011172326,0.008942618,0.0,-0.090965904,0.31363833,-0.39725384,0.9387798,-0.01343903,nan,1.3263721,4.131869,0.529594,1.2392366,0.14629225,inf,inf,inf,inf,0,1,0,1,1,0,1,0,2,0,0,0,0
29727594,29726791,0,nan,nan,0.20525804,0.36306483,-1.0658531,0.0,0.0,0.0,0.26271904,0.4667589,-0.43659636,-0.4678498,0.0011172326,0.008942618,0.0,-0.00067566655,0.07167606,0.29265356,1.0829407,-0.01343903,nan,1.5700004,4.3414087,0.5321,1.2170975,0.147184,inf,inf,inf,inf,0,1,0,1,1,0,1,0,2,0,0,0,0
30228441,30225970,0,nan,nan,0.29696944,0.5148385,-1.2649062,0.0,0.0,0.0,0.27348086,0.44317693,-0.3804973,-0.4038317,0.0011172326,0.008942618,0.0,-0.009801331,0.08347567,-0.043307275,1.223503,-0.009521439,nan,1.7690535,4.2898664,0.52853405,1.1268435,0.14627546,inf,inf,inf,inf,0,1,0,1,1,0,1,0,3,0,0,0,0
30727535,30725151,0,nan,nan,0.37678036,0.63419217,-1.4530821,0.0,0.0,0.0,0.2909267,0.4811393,-0.313036,-0.33212924,0.0011172326,0.008942618,0.0,-0.041432064,0.070008844,0.14035432,1.3508431,-0.009521439,nan,1.9572294,4.3883257,0.5309965,1.08677,0.14658421,inf,inf,inf,inf,0,1,0,1,1,0,1,0,3,0,0,0,0
31220053,31219341,0,nan,nan,0.43721136,0.7385602,-1.5563091,0.0,0.0,0.0,0.28437948,0.48446435,-0.072968185,-0.09191222,0.0011172326,0.008942618,0.0,0.1325065,0.071344495,0.45713073,1.442371,-0.009521439,nan,2.0604565,4.4422126,0.53219134,1.0528532,0.14693019,inf,inf,inf,inf,0,1,0,1,1,0,1,0,3,0,0,0,0
31729284,31728514,0,nan,nan,0.48842403,0.8176458,-1.5380127,0.0,0.0,0.0,0.30705062,0.49460736,0.12809548,0.11459413,0.0011172326,0.008942618,0.0,0.04889003,0.09010556,0.22194964,1.5177346,-0.009521439,nan,2.04216,4.285061,0.5296246,0.9923115,0.14695397,inf,inf,inf,inf,0,1,0,1,1,0,1,0,3,0,0,0,0
32228411,32227689,0,nan,nan,0.53597057,0.88933253,-1.5180249,0.0,0.0,0.0,0.2985719,0.5156824,-0.05365262,-0.07485518,0.0011172326,0.008942618,0.0,-0.14468358,0.070945315,-0.5061318,1.5943736,-0.009521439,nan,2.0221722,4.3105955,0.5320393,0.98320925,0.14808348,inf,inf,inf,inf,0,1,0,1,1,0,1,0,3,0,0,0,0
32729336,32726871,0,nan,nan,0.57210577,0.9687226,-1.6372329,0.0,0.0,0.0,0.30109045,0.5508091,-0.3005441,-0.3270687,0.0011172326,0.008942618,0.0,0.07559333,0.024424532,0.46773288,1.6726326,-0.009521439,nan,2.1413803,4.1405487,0.5345171,0.9524541,0.14946519,inf,inf,inf,inf,0,1,0,1,1,0,1,0,3,0,0,0,0
33226841,33226053,0,nan,nan,0.59850353,1.0292734,-1.7582023,0.0,0.0,0.0,0.2775282,0.5066226,-0.11914219,-0.14660136,0.0011172326,0.008942618,0.0,-0.19257596,0.002864454,0.405017,1.7385507,-0.009521439,nan,2.2623496,4.1597915,0.5310639,0.96051186,0.14976704,inf,inf,inf,inf,0,1,0,1,1,0,1,0,3,0,0,0,0
33732764,33730228,0,nan,nan,0.61064017,1.0659934,-1.827675,0.0,0.0,0.0,0.248945,0.45185164,-0.07353884,-0.11023137,0.0011172326,0.008942618,0.0,0.067465,-0.09487623,0.38133812,1.7998356,-0.009521439,nan,2.3318224,4.180788,0.53388643,0.97433895,0.15114483,inf,inf,inf,inf,0,1,0,1,1,0,1,0,3,0,0,0,0
34230274,34229434,0,nan,nan,0.6055878,1.0544047,-1.875488,0.0,0.0,0.0,0.24381712,0.38991508,0.0032510275,-0.040907126,0.0011172326,0.008942618,0.0,-0.07801951,-0.3298149,0.07556736,1.8513392,-0.009521439,nan,2.3796353,4.036687,0.5307916,0.9669397,0.15143959,inf,inf,inf,inf,0,1,0,1,1,0,1,0,3,0,0,0,0
34719472,34718613,0,nan,nan,0.6051752,1.0278641,-1.8843099,0.0,0.0,0.0,0.23065872,0.35266396,0.12774922,0.07217899,0.0011172326,0.008942618,0.0,-0.016022814,0.057952527,0.21805261,1.8911191,-0.009521439,nan,2.3884573,4.0642447,0.5327727,0.9871863,0.15249124,inf,inf,inf,inf,0,1,0,1,1,0,1,0,3,0,0,0,0
35228703,35227836,0,nan,nan,0.61026144,1.0020831,-1.7830719,0.0,0.0,0.0,0.22749387,0.35066605,0.43156096,0.36766526,0.0011172326,0.008942618,0.0,-0.004188709,-0.056675162,0.85956484,1.882382,-0.009521439,nan,2.2872193,3.9513457,0.5370656,0.98705393,0.1535963,inf,inf,inf,inf,0,1,0,1,1,0,1,0,3,0,0,0,0
35727792,35726966,0,nan,nan,0.6274379,0.9733136,-1.6140677,0.0,0.0,0.0,0.33099103,0.3339215,0.3336403,0.2596373,0.0011172326,0.008942618,0.0,0.2889724,-0.034929965,-0.7186779,1.9564472,-0.009521439,nan,2.118215,4.002258,0.53398937,1.0121669,0.15355018,inf,inf,inf,inf,0,1,0,1,1,0,1,0,3,0,0,0,0
36227033,36226151,0,nan,nan,0.7247262,0.9619385,-1.5419917,0.0,0.0,0.0,0.5369405,0.40477887,0.21114299,0.12140983,0.0011172326,0.008942618,0.0,0.39098787,0.13829459,-0.115303434,1.9996516,-0.009521439,nan,2.046139,4.062081,0.53722054,1.0375072,0.15461132,inf,inf,inf,inf,0,1,0,1,1,0,1,0,3,0,0,0,0
36721246,36720348,0,nan,nan,0.88451993,0.9768115,-1.5083684,0.0,0.0,0.0,0.6392667,0.3960045,0.13410893,0.042907838,0.0011172326,0.008942618,0.0,0.24269776,0.053470585,-0.08459728,1.9844201,-0.009521439,nan,2.0125158,3.9599266,0.53917754,1.0350481,0.1552803,inf,inf,inf,inf,0,1,0,1,1,0,1,0,3,0,0,0,0
37230434,37229515,0,nan,nan,1.0576266,0.9656109,-1.4954951,0.0,0.0,0.0,0.70391196,0.35505053,0.07786322,-0.0077050524,0.0011172326,0.008942618,0.0,0.044480134,0.20744088,0.19739187,1.9249429,-0.009521439,nan,1.9996424,4.0415454,0.53725326,1.0599654,0.15511177,inf,inf,inf,inf,0,1,0,1,1,0,1,0,3,0,0,0,0
37729615,37728701,0,nan,nan,1.206535,0.9551461,-1.4830198,0.0,0.0,0.0,0.64928377,0.33997318,0.17156206,0.0811511,0.0011172326,0.008942618,0.0,-0.18865523,-0.088745974,0.0050194287,1.8986171,-0.009521439,nan,1.9871671,3.9576201,0.5403342,1.0535309,0.15557677,inf,inf,inf,inf,0,1,0,1,1,0,1,0,3,0,0,0,0
38228790,38227888,0,nan,nan,1.2876377,0.8869648,-1.4422022,0.0,0.0,0.0,0.6638672,0.16370669,0.20885648,0.11378851,0.0011172326,0.008942618,0.0,0.5019891,-0.1492077,0.38631156,1.8697361,-0.009521439,nan,1.9463496,4.0392227,0.54331684,1.0706265,0.15585227,inf,inf,inf,inf,0,1,0,1,1,0,1,0,3,0,0,0,0
39228654,39226267,0,nan,nan,1.5867481,0.5498385,-1.3485004,0.0,0.0,0.0,0.9111701,-0.18553704,0.043726433,-0.055078305,0.0011172326,0.008942618,0.0,0.40922076,-0.28745097,-0.4679148,1.5819415,-0.009521439,nan,1.8526478,4.038653,0.54209846,1.0675443,0.1550521,inf,inf,inf,inf,0,1,0,1,1,0,1,0,3,0,0,0,0
39727894,39725451,0,nan,nan,1.7415568,0.31089225,-1.4496412,0.0,0.0,0.0,0.9644701,-0.3326192,-0.20613627,-0.30094382,0.0011172326,0.008942618,0.0,0.33656734,-0.18050037,-0.08888839,1.4179858,-0.009521439,nan,1.9537885,4.123161,0.5445369,1.0763956,0.15527172,inf,inf,inf,inf,0,1,0,1,1,0,1,0,3,0,0,0,0
40232248,40229631,0,nan,nan,1.8902531,0.08581753,-1.6073898,0.0,0.0,0.0,0.9312214,-0.35353196,-0.23863707,-0.3256065,0.0011172326,0.008942618,0.0,0.07892127,-0.05472336,0.8427701,1.2558385,-0.009521439,nan,2.1115372,4.208079,0.54035807,1.0799934,0.15412647,inf,inf,inf,inf,0,1,0,1,1,0,1,0,3,0,0,0,0
40729598,40728819,0,nan,nan,1.9563131,-0.123856224,-1.7233226,0.0,0.0,0.0,0.8539895,-0.49755928,-0.04703992,-0.12856911,0.0011172326,0.008942618,0.0,-0.04789263,-0.4151498,0.3296192,1.0627413,-0.009521439,nan,2.22747,4.1111503,0.5426026,1.0472955,0.15400329,inf,inf,inf,inf,0,1,0,1,1,0,1,0,3,0,0,0,0
41228791,41228008,0,nan,nan,1.9695818,-0.35701114,-1.7480773,0.0,0.0,0.0,0.71586996,-0.56130755,0.062248383,-0.02052218,0.0011172326,0.008942618,0.0,-0.3062864,-0.053223662,0.18935394,0.85542274,-0.009521439,nan,2.2522247,4.185298,0.5446317,1.0419503,0.15378644,inf,inf,inf,inf,0,1,0,1,1,0,1,0,3,0,0,0,0
41729638,41727209,0,nan,nan,1.8824785,-0.5771682,-1.7877015,0.0,0.0,0.0,0.5338174,-0.59275883,-0.11140751,-0.18177986,0.0011172326,0.008942618,0.0,-0.3513477,-0.006787597,-0.6435096,0.6587404,-0.009521439,nan,2.291849,4.0753474,0.5399358,1.0085827,0.15240054,inf,inf,inf,inf,0,1,0,1,1,0,1,0,3,0,0,0,0
42227154,42226388,0,nan,nan,1.7184453,-0.76278806,-1.8565241,0.0,0.0,0.0,0.41095194,-0.55997944,-0.06399779,-0.12295175,0.0011172326,0.008942618,0.0,-0.0018132936,0.11326487,0.041104782,0.45545983,-0.009521439,nan,2.3606715,4.136853,0.5415778,1.0058366,0.15203035,inf,inf,inf,inf,0,1,0,1,1,0,1,0,3,0,0,0,0
42721299,42720587,0,nan,nan,1.5445732,-0.8896858,-1.8880126,0.0,0.0,0.0,0.2853428,-0.50049603,0.023382772,-0.023359224,0.0011172326,0.008942618,0.0,-0.16759606,0.016243236,0.7717876,0.23281503,-0.009521439,nan,2.39216,4.1868625,0.5419739,1.0058734,0.15141733,inf,inf,inf,inf,0,1,0,1,1,0,1,0,3,0,0,0,0
43222206,43219777,0,nan,nan,1.3136194,-0.9403309,-1.8471774,0.0,0.0,0.0,0.10982492,-0.4000662,0.19883083,0.15560572,0.0011172326,0.008942618,0.0,0.058872905,0.20897472,0.14620264,-0.0074870056,-0.009521439,nan,2.3513248,4.0656085,0.5434175,0.98334163,0.1509494,inf,inf,inf,inf,0,1,0,1,1,0,1,0,3,0,0,0,0
43731383,43728952,0,nan,nan,1.0574801,-0.89263105,-1.8366637,0.0,0.0,0.0,0.022295743,-0.2726217,-0.08518251,-0.13839144,0.0011172326,0.008942618,0.0,0.13766389,-0.0026780262,-1.0652477,-0.24179304,-0.009521439,nan,2.340811,4.124673,0.53952485,1.0023731,0.14967391,inf,inf,inf,inf,0,1,0,1,1,0,1,0,3,0,0,0,0
44228966,44228143,0,nan,nan,0.79059595,-0.773457,-1.976658,0.0,0.0,0.0,-0.06780542,-0.17972632,-0.2445227,-0.30531305,0.0011172326,0.008942618,0.0,-0.076077454,0.033444893,0.30866158,-0.4540377,-0.009521439,nan,2.4808054,4.006974,0.54082346,1.0040447,0.14939114,inf,inf,inf,inf,0,1,0,1,1,0,1,0,3,0,0,0,0
44729822,44727335,0,nan,nan,0.53845435,-0.6016119,-2.0965295,0.0,0.0,0.0,-0.09970136,-0.07444636,-0.0021672426,-0.07395511,0.0011172326,0.008942618,0.0,0.14235333,0.0016751697,0.6998583,-0.66706306,-0.009521439,nan,2.6006768,4.062046,0.535717,1.0348513,0.14787492,inf,inf,inf,inf,0,1,0,1,1,0,1,0,3,0,0,0,0
45228929,45226527,0,nan,nan,0.3345568,-0.40662763,-2.0851746,0.0,0.0,0.0,-0.11648641,0.02516872,0.084539786,0.0135822985,0.0011172326,0.008942618,0.0,0.12493156,0.23047028,-0.3099163,-0.88303876,-0.009521439,nan,2.5893219,4.1226716,0.5369857,1.0717726,0.1475492,inf,inf,inf,inf,0,1,0,1,1,0,1,0,3,0,0,0,0
45726485,45725720,0,nan,nan,0.134999,-0.13676172,-2.1731634,0.0,0.0,0.0,-0.2080234,0.21889497,-0.24178402,-0.32344687,0.0011172326,0.008942618,0.0,-0.18574008,0.19024642,-0.357563,-1.1140769,-0.009521439,nan,2.6773107,4.022108,0.5382757,1.0944995,0.14751364,inf,inf,inf,inf,0,1,0,1,1,0,1,0,3,0,0,0,0
46227219,46224912,0,nan,nan,-0.09394673,0.18926919,-2.3123581,0.0,0.0,0.0,-0.2937042,0.4352704,-0.09752382,-0.1710664,0.0011172326,0.008942618,0.0,-0.041278873,0.42029423,0.7112827,-1.34776,-0.009521439,nan,2.8165054,4.099256,0.5395826,1.1395935,0.1475313,inf,inf,inf,inf,0,1,0,1,1,0,1,0,3,0,0,0,0
46724868,46724105,0,nan,nan,-0.3270783,0.5801526,-2.3346395,0.0,0.0,0.0,-0.32933632,0.72217876,-0.000630053,-0.058595084,0.0011172326,0.008942618,0.0,0.03956994,0.32655126,0.33313546,-1.5756246,-0.009521439,nan,2.8387868,4.18649,0.5346326,1.1821055,0.14663482,inf,inf,inf,inf,0,1,0,1,1,0,1,0,3,0,0,0,0
47230723,47228291,0,nan,nan,-0.53697366,1.036806,-2.4273913,0.0,0.0,0.0,-0.4004401,0.9748727,-0.21400827,-0.27823138,0.0011172326,0.008942618,0.0,-0.2331057,0.6787187,-0.20803571,-1.7964345,-0.009521439,nan,2.9315386,4.1055107,0.53609973,1.1966735,0.14700444,inf,inf,inf,inf,0,1,0,1,1,0,1,0,3,0,0,0,0
47728285,47727490,0,nan,nan,-0.7596511,1.5339767,-2.5426311,0.0,0.0,0.0,-0.4643463,1.2121344,-0.11121706,-0.16517057,0.0011172326,0.008942618,0.0,0.081631675,0.18637753,0.5246507,-1.9903284,-0.009521439,nan,3.0467784,4.207942,0.53154784,1.231713,0.1464448,inf,inf,inf,inf,0,1,0,1,1,0,1,0,3,0,0,0,0
48229239,48226679,0,nan,nan,-0.9275381,2.0253365,-2.5469356,0.0,0.0,0.0,-0.4068996,1.3845708,0.017045608,-0.0093266005,0.0011172326,0.008942618,0.0,0.29273847,0.3044118,0.0058819326,-2.1707811,-0.009521439,nan,3.0510828,4.130498,0.5332527,1.2254652,0.14678322,inf,inf,inf,inf,0,1,0,1,1,0,1,0,3,0,0,0,0
48723254,48720882,0,nan,nan,-1.0034053,2.4668233,-2.5436182,0.0,0.0,0.0,-0.3771564,1.5839646,-0.040409364,-0.05141525,0.0011172326,0.008942618,0.0,-0.045517746,0.5267191,-0.50555533,-2.3506198,-0.009521439,nan,3.0477655,4.2259755,0.5339197,1.2445188,0.14715266,inf,inf,inf,inf,0,1,0,1,1,0,1,0,3,0,0,0,0
49721794,49719272,0,nan,nan,-0.9801695,3.1865256,-2.6703913,0.0,0.0,0.0,-0.25177205,1.7366326,-0.07568019,-0.066362604,0.0011172326,0.008942618,0.0,0.09965173,0.5131039,0.29948735,-2.710622,-0.009521439,nan,3.1745386,4.238758,0.5316174,1.2245792,0.14691696,inf,inf,inf,inf,0,1,0,1,1,0,1,0,3,0,0,0,0
50229169,50228452,0,nan,nan,-0.8895462,3.4364161,-2.6319084,0.0,0.0,0.0,-0.1420019,1.7924501,0.104101315,0.13174228,0.0011172326,0.008942618,0.0,0.1379578,0.2919777,0.032162763,-2.867169,-0.009521439,nan,3.1360557,4.3414464,0.5347856,1.2194258,0.14750834,inf,inf,inf,inf,0,1,0,1,1,0,1,0,3,0,0,0,0
50730039,50727653,0,nan,nan,-0.741278,3.5628896,-2.556233,0.0,0.0,0.0,-0.11620842,1.6672273,0.07304694,0.104125604,0.0011172326,0.008942618,0.0,-0.108974315,0.013652645,-0.3009329,-3.0016844,-0.009521439,nan,3.0603802,4.2269297,0.53047854,1.1714988,0.14637645,inf,inf,inf,inf,0,1,0,1,1,0,1,0,3,0,0,0,0
51227674,51226844,0,nan,nan,-0.6149682,3.57324,-2.5467393,0.0,0.0,0.0,-0.056786243,1.5826367,-0.08850271,-0.06040634,0.0011172326,0.008942618,0.0,0.16687818,0.46029854,-0.4432759,-3.0901902,-0.009521439,nan,3.0508866,4.302068,0.53233516,1.1575751,0.14635493,inf,inf,inf,inf,0,1,0,1,1,0,1,0,3,0,0,0,0
52226095,52225238,0,nan,nan,-0.41260192,3.556735,-2.5552268,0.0,0.0,0.0,-0.04895309,1.445961,0.2295247,0.24407041,0.0011172326,0.008942618,0.0,-0.16384296,0.017763965,0.5800183,3.1344855,-0.009521439,nan,3.059374,4.2326474,0.52965814,1.0859764,0.14489132,inf,inf,inf,inf,0,1,0,1,1,0,1,0,3,0,0,0,0
52720215,52719445,0,nan,nan,-0.39797574,3.484438,-2.3973885,0.0,0.0,0.0,-0.11290175,1.3270708,0.35949153,0.3650084,0.0011172326,0.008942618,0.0,-0.25116986,0.14727746,-0.17032027,3.1335487,-0.009521439,nan,2.9015357,4.277896,0.5301133,1.0678183,0.14432013,inf,inf,inf,inf,0,1,0,1,1,0,1,0,3,0,0,0,0
53728902,53727824,0,nan,nan,-0.46680117,3.2543132,-2.2324295,0.0,0.0,0.0,-0.2343825,1.1020644,0.17699622,0.16360934,0.0011172326,0.008942618,0.0,-0.01878213,0.04639859,0.40299997,3.122283,-0.009521439,nan,2.7365768,4.19322,0.5280481,1.0102427,0.14273295,inf,inf,inf,inf,0,1,0,1,1,0,1,0,3,0,0,0,0
54227817,54227023,0,nan,nan,-0.48733047,3.182814,-2.1102893,0.0,0.0,0.0,-0.19138555,1.0578468,0.34733254,0.32410973,0.0011172326,0.008942618,0.0,0.16926825,0.4436184,0.19391285,3.1217587,-0.009521439,nan,2.6144366,4.23637,0.5293146,0.9968798,0.14230144,inf,inf,inf,inf,0,1,0,1,1,0,1,0,3,0,0,0,0
54726989,54726221,0,nan,nan,-0.4601261,3.1398394,-1.9658364,0.0,0.0,0.0,-0.105110005,1.1907812,0.29652888,0.25911927,0.0011172326,0.008942618,0.0,0.028151777,0.4720534,-0.70448655,3.1266284,-0.009521439,nan,2.4699838,4.0966516,0.530569,0.9571161,0.14201474,inf,inf,inf,inf,0,1,0,1,1,0,1,0,3,0,0,0,0
55226464,55225421,0,nan,nan,-0.42293528,3.1231961,-1.9232786,0.0,0.0,0.0,-0.14719908,1.1282616,0.11300591,0.057873853,0.0011172326,0.008942618,0.0,-0.1473196,-0.18261376,-0.45580193,3.1295428,-0.009521439,nan,2.4274259,4.1366005,0.5257908,0.9495818,0.14072885,inf,inf,inf,inf,0,1,0,1,1,0,1,0,3,0,0,0,0
55725391,55724621,0,nan,nan,-0.4290019,3.099504,-1.9676415,0.0,0.0,0.0,-0.19946764,1.089607,-0.06032781,-0.1350621,0.0011172326,0.008942618,0.0,-0.09366553,0.29632324,0.4435394,3.1290379,-0.009521439,nan,2.471789,4.17585,0.52702904,0.9429947,0.1404609,inf,inf,inf,inf,0,1,0,1,1,0,1,0,3,0,0,0,0
56219638,56218830,0,nan,nan,-0.4502317,3.0378833,-2.0356963,0.0,0.0,0.0,-0.25256187,1.0305419,-0.011671286,-0.09127454,0.0011172326,0.008942618,0.0,-0.050690606,-0.08793826,0.5336462,3.1285255,-0.009521439,nan,2.5398436,4.035785,0.527155,0.9093695,0.14004168,inf,inf,inf,inf,0,1,0,1,1,0,1,0,3,0,0,0,0
56728895,56728013,0,nan,nan,-0.5066801,2.9596708,-2.0154338,0.0,0.0,0.0,-0.3170848,0.9012954,0.34737304,0.2648027,0.0011172326,0.008942618,0.0,-0.037479896,0.122144856,0.7655927,3.1290932,-0.009521439,nan,2.519581,4.082819,0.5235621,0.9046839,0.1389745,inf,inf,inf,inf,0,1,0,1,1,0,1,0,3,0,0,0,0
57228096,57227214,0,nan,nan,-0.5830455,2.84164,-1.8480781,0.0,0.0,0.0,-0.40928558,0.7282658,0.41387647,0.3221502,0.0011172326,0.008942618,0.0,-0.41279426,-0.21585219,-0.10895806,3.1252208,-0.009521439,nan,2.3522255,3.9586577,0.52487534,0.8759095,0.13878357,inf,inf,inf,inf,0,1,0,1,1,0,1,0,3,0,0,0,0
57727122,57726416,0,nan,nan,-0.71874034,2.6114588,-1.757089,0.0,0.0,0.0,-0.53224397,0.43835327,0.20459051,0.11068714,0.0011172326,0.008942618,0.0,0.068231106,-0.4207039,-0.14448273,3.1217315,-0.009521439,nan,2.2612364,3.9977825,0.5261506,0.8759476,0.1386808,inf,inf,inf,inf,0,1,0,1,1,0,1,0,3,0,0,0,0
58226617,58225616,0,nan,nan,-0.8142735,2.294099,-1.6941396,0.0,0.0,0.0,-0.34485492,0.12461102,0.29394528,0.19517748,0.0011172326,0.008942618,0.0,0.36540174,-0.015681772,-0.5148102,-3.12311,-0.009521439,nan,2.198287,4.037581,0.5215248,0.87573284,0.13757046,inf,inf,inf,inf,0,1,0,1,1,0,1,0,3,0,0,0,0
58722253,58719826,0,nan,nan,-0.86442196,1.8871564,-1.5672204,0.0,0.0,0.0,-0.1911666,0.026981607,0.4908904,0.3878963,0.0011172326,0.008942618,0.0,1.1991392,0.2706597,1.7821374,-2.9466496,-0.009521439,nan,2.0713677,3.9134996,0.52172476,0.8524829,0.13729262,inf,inf,inf,inf,0,1,0,1,1,0,1,0,3,0,0,0,0
59729065,59728215,0,nan,nan,-1.0508934,1.2788036,-1.4713211,0.0,0.0,0.0,-0.088613175,-0.070528015,-0.12557918,-0.25002262,0.0011172326,0.008942618,0.0,-0.0008067993,-0.124993,0.64717144,-2.4060166,-0.009521439,nan,1.9754684,3.854564,0.51975626,0.8432952,0.13654028,inf,inf,inf,inf,0,1,0,1,1,0,1,0,3,0,0,0,0
60228223,60227418,0,nan,nan,-1.2926905,1.0477225,-1.5040941,0.0,0.0,0.0,-0.22036822,-0.19080423,0.1979656,0.08197418,0.0011172326,0.008942618,0.0,-0.08915938,-0.3047177,0.77983266,-2.2357464,-0.009521439,nan,2.0082414,3.8999264,0.52120495,0.84566534,0.1365473,inf,inf,inf,inf,0,1,0,1,1,0,1,0,3,0,0,0,0
60724453,60721632,0,nan,nan,-1.6458572,0.7873951,-1.4514124,0.0,0.0,0.0,-0.3476306,-0.33354408,0.21816999,0.10839926,0.0011172326,0.008942618,0.0,0.224851,-0.10902133,0.0045337384,-2.1866999,-0.009521439,nan,1.9555597,3.9400518,0.5215713,0.8488526,0.13642374,inf,inf,inf,inf,0,1,0,1,1,0,1,0,3,0,0,0,0
61221622,61220832,0,nan,nan,-1.9746021,0.46845952,-1.332269,0.0,0.0,0.0,-0.3910131,-0.4856248,0.3663376,0.2632999,0.0011172326,0.008942618,0.0,0.6509326,-0.23931575,-0.74017245,-2.2096567,-0.009521439,nan,1.8364162,3.8414562,0.5231149,0.8314206,0.13650218,inf,inf,inf,inf,0,1,0,1,1,0,1,0,3,0,0,0,0
61732373,61730020,0,nan,nan,-2.1861038,0.14739968,-1.308187,0.0,0.0,0.0,-0.3670916,-0.6234553,-0.06278028,-0.16474976,0.0011172326,0.008942618,0.0,0.15463924,0.012888484,-0.23887831,-2.1589808,-0.009521439,nan,1.8123343,3.896982,0.51989734,0.84205115,0.13588123,inf,inf,inf,inf,0,1,0,1,1,0,1,0,3,0,0,0,0
62230010,62229224,0,nan,nan,-2.3234546,-0.16091223,-1.3737457,0.0,0.0,0.0,-0.4136307,-0.7018777,0.17966759,0.08634764,0.0011172326,0.008942618,0.0,0.1516494,-0.1562481,1.5435745,-1.9548174,-0.009521439,nan,1.877893,3.8026628,0.5214386,0.8277866,0.13597935,inf,inf,inf,inf,0,1,0,1,1,0,1,0,3,0,0,0,0
62719201,62718445,0,nan,nan,-2.4969287,-0.47245824,-1.3056014,0.0,0.0,0.0,-0.45619777,-0.75804096,0.087420925,0.008297309,0.0011172326,0.008942618,0.0,0.3199871,-0.1367606,-1.0031583,-1.7710361,-0.009521439,nan,1.8097486,3.8452234,0.5219218,0.8323059,0.13593024,inf,inf,inf,inf,0,1,0,1,1,0,1,0,3,0,0,0,0
63228396,63227633,0,nan,nan,-2.80848,-0.7410607,-1.3192598,0.0,0.0,0.0,-0.60124284,-0.79443634,0.067583345,-0.009072794,0.0011172326,0.008942618,0.0,-0.020759527,-0.17572494,0.3828384,-1.6380649,-0.009521439,nan,1.8234072,3.9020176,0.51877093,0.8404894,0.13527972,inf,inf,inf,inf,0,1,0,1,1,0,1,0,3,0,0,0,0
63729386,63726839,0,nan,nan,-3.1223834,-0.94666505,-1.3866987,0.0,0.0,0.0,-0.75017715,-0.78325313,-0.1475983,-0.23005356,0.0011172326,0.008942618,0.0,-0.14085998,-0.19148773,-0.2187713,-1.5351411,-0.009521439,nan,1.890846,3.8086278,0.5202901,0.82894266,0.13538928,inf,inf,inf,inf,0,1,0,1,1,0,1,0,3,0,0,0,0
64228523,64226045,0,nan,nan,-3.4573154,-1.0498859,-1.4831072,0.0,0.0,0.0,-1.0217756,-0.6579989,-0.012618824,-0.085228406,0.0011172326,0.008942618,0.0,-0.47638655,0.06435881,0.779323,-1.4101466,-0.009521439,nan,1.9872546,3.8585222,0.516123,0.8363989,0.13453406,inf,inf,inf,inf,0,1,0,1,1,0,1,0,3,0,0,0,0
64726048,64725249,0,nan,nan,-3.8619466,-1.063516,-1.447138,0.0,0.0,0.0,-1.382703,-0.5142724,0.18027525,0.11978579,0.0011172326,0.008942618,0.0,-0.667957,0.17739919,-0.4790461,-1.2666392,-0.009521439,nan,1.9512854,3.9083474,0.5176307,0.84198815,0.13457371,inf,inf,inf,inf,0,1,0,1,1,0,1,0,3,0,0,0,0
65226896,65224456,0,nan,nan,-4.3883834,-0.95042557,-1.4118494,0.0,0.0,0.0,-1.8145258,-0.35803518,-0.007197145,-0.058810756,0.0011172326,0.008942618,0.0,-0.44734928,0.38051918,-0.18744671,-1.1226716,-0.009521439,nan,1.9159968,3.8151612,0.51911193,0.8317227,0.13467638,inf,inf,inf,inf,0,1,0,1,1,0,1,0,3,0,0,0,0
66230223,66227862,0,nan,nan,-5.4692817,-0.42745617,-1.3151324,0.0,0.0,0.0,-2.0005605,0.07806938,0.20673497,0.16550705,0.0011172326,0.008942618,0.0,-0.3865845,0.052603073,0.21126842,-0.6879212,-0.009521439,nan,1.8192797,3.775937,0.5165788,0.83210546,0.13412338,inf,inf,inf,inf,0,1,0,1,1,0,1,0,3,0,0,0,0
66727847,66727069,0,nan,nan,-5.893389,-0.060296573,-1.259171,0.0,0.0,0.0,-2.1492414,0.26295647,0.03630582,-0.0005244952,0.0011172326,0.008942618,0.0,-0.32786906,0.18000981,-0.45660815,-0.35074207,-0.009521439,nan,1.7633183,3.8267126,0.5182318,0.8449471,0.13435008,inf,inf,inf,inf,0,1,0,1,1,0,1,0,3,0,0,0,0
67228899,67226277,0,nan,nan,-6.352972,0.34911558,-1.2799793,0.0,0.0,0.0,-2.2937517,0.4797521,-0.0037471747,-0.030398313,0.0011172326,0.008942618,0.0,-0.08955425,0.19905083,0.07881986,-0.0066598225,-0.009521439,nan,1.7841268,3.8789043,0.5142268,0.85871357,0.13369256,inf,inf,inf,inf,0,1,0,1,1,0,1,0,3,0,0,0,0
67722935,67720493,0,nan,nan,-6.6775374,0.7879573,-1.2353616,0.0,0.0,0.0,-2.4236913,0.6266831,0.12301728,0.104258195,0.0011172326,0.008942618,0.0,-0.5119608,0.03787588,-0.21274216,0.35536027,-0.009521439,nan,1.7395089,3.7851167,0.5148404,0.84979707,0.13378195,inf,inf,inf,inf,0,1,0,1,1,0,1,0,3,0,0,0,0
68232110,68229686,0,nan,nan,-7.2129965,1.2825098,-1.209148,0.0,0.0,0.0,-2.7311974,0.8515189,-0.02031514,-0.032658264,0.0011172326,0.008942618,0.0,-0.86069554,0.27429605,-0.038536485,0.7309731,-0.009521439,nan,1.7132955,3.8454702,0.51764107,0.8654317,0.134293,inf,inf,inf,inf,0,1,0,1,1,0,1,0,3,0,0,0,0
68729721,68728893,0,nan,nan,-8.029123,1.8162546,-1.2188219,0.0,0.0,0.0,-3.1432536,0.9689969,-0.011201475,-0.012172285,0.0011172326,0.008942618,0.0,-0.8817935,-0.17602536,-0.26029927,1.1036496,-0.009521439,nan,1.7229693,3.7614825,0.5137809,0.8584484,0.13382468,inf,inf,inf,inf,0,1,0,1,1,0,1,0,3,0,0,0,0
69218933,69218118,0,nan,nan,-9.048077,2.222263,-1.230122,0.0,0.0,0.0,-3.6806288,0.9349133,-0.13775861,-0.12492217,0.0011172326,0.008942618,0.0,-1.1185733,-0.25560796,-0.42569467,1.4458196,-0.009521439,nan,1.7342694,3.8098423,0.51455307,0.8682571,0.13413933,inf,inf,inf,inf,0,1,0,1,1,0,1,0,3,0,0,0,0
69729728,69727311,0,nan,nan,-10.352401,2.4192188,-1.3120039,0.0,0.0,0.0,-4.2213717,0.7263873,-0.25069645,-0.23074841,0.0011172326,0.008942618,0.0,-0.84088105,-0.70487636,-0.12953372,1.7935035,-0.009521439,nan,1.8161511,3.8732932,0.5174465,0.87754023,0.1348728,inf,inf,inf,inf,0,1,0,1,1,0,1,0,3,0,0,0,0
70227364,70226539,0,nan,nan,-11.420788,2.3230407,-1.4348016,0.0,0.0,0.0,-4.413036,0.4382025,-0.2929873,-0.2714571,0.0011172326,0.008942618,0.0,-0.53694856,-0.59198606,0.0054373415,2.0098662,-0.009521439,nan,1.9389489,3.790217,0.5136981,0.86373764,0.13434736,inf,inf,inf,inf,0,1,0,1,1,0,1,0,3,0,0,0,0
70728135,70725733,0,nan,nan,-12.296366,1.9924855,-1.4776667,0.0,0.0,0.0,-4.6757627,-0.0022117114,0.050755735,0.078522936,0.0011172326,0.008942618,0.0,-0.8934641,-0.618446,0.76256704,2.151577,-0.009521439,nan,1.9818141,3.8468366,0.51559746,0.86433035,0.13478972,inf,inf,inf,inf,0,1,0,1,1,0,1,0,3,0,0,0,0
71225860,71224941,0,nan,nan,-12.974005,1.4669884,-1.4090718,0.0,0.0,0.0,-4.868971,-0.38220978,0.025670486,0.056359798,0.0011172326,0.008942618,0.0,-0.96056145,-0.85682917,-0.70219874,2.3063745,-0.009521439,nan,1.9132192,3.7622788,0.51753354,0.8449285,0.13528442,inf,inf,inf,inf,0,1,0,1,1,0,1,0,3,0,0,0,0
71731527,71729144,0,nan,nan,-13.166082,0.8072862,-1.478858,0.0,0.0,0.0,-4.8142276,-0.6899924,-0.29181647,-0.26821113,0.0011172326,0.008942618,0.0,-0.42033798,-0.24069755,-0.6644991,2.4403224,-0.009521439,nan,1.9830053,3.8169737,0.5138941,0.84809345,0.13483651,inf,inf,inf,inf,0,1,0,1,1,0,1,0,3,0,0,0,0
72229194,72228353,0,nan,nan,-13.187886,0.26510853,-1.7071145,0.0,0.0,0.0,-4.6574225,-0.6354894,-0.66785276,-0.64431,0.0011172326,0.008942618,0.0,-0.82606465,-0.18219148,-1.1404111,2.45294,-0.009521439,nan,2.2112617,3.8725166,0.5159125,0.8503375,0.13499337,inf,inf,inf,inf,0,1,0,1,1,0,1,0,3,0,0,0,0
72730040,72727565,0,nan,nan,-13.030659,-0.095032774,-1.9673067,0.0,0.0,0.0,-4.4928555,-0.5412754,-0.32722643,-0.30751446,0.0011172326,0.008942618,0.0,-0.46507174,0.27082092,1.0648361,2.427562,-0.009521439,nan,2.4714541,3.7862296,0.51786405,0.8287934,0.13511905,inf,inf,inf,inf,0,1,0,1,1,0,1,0,3,0,0,0,0
73227564,73226776,0,nan,nan,-12.903046,-0.3205661,-2.0218983,0.0,0.0,0.0,-4.4654965,-0.49145725,0.06272416,0.07745285,0.0011172326,0.008942618,0.0,-0.9483361,0.11688892,0.8311227,2.392987,-0.009521439,nan,2.5260456,3.8377934,0.5141529,0.82604676,0.13441975,inf,inf,inf,inf,0,1,0,1,1,0,1,0,3,0,0,0,0
73726736,73725988,0,nan,nan,-12.832243,-0.41055864,-2.0398035,0.0,0.0,0.0,-4.668211,-0.3757583,-0.3144881,-0.30571488,0.0011172326,0.008942618,0.0,-1.3163486,-0.06894425,-1.7107188,2.3763015,-0.009521439,nan,2.5439508,3.8883512,0.5160294,0.82826835,0.13479805,inf,inf,inf,inf,0,1,0,1,1,0,1,0,3,0,0,0,0
74226158,74225199,0,nan,nan,-12.821762,-0.33371213,-2.221261,0.0,0.0,0.0,-4.8292775,-0.31933028,-0.25370973,-0.25142777,0.0011172326,0.008942618,0.0,-1.2112849,-0.39414635,0.6456028,2.4100823,-0.009521439,nan,2.7254083,3.7976365,0.51789594,0.8111869,0.13522822,inf,inf,inf,inf,0,1,0,1,1,0,1,0,3,0,0,0,0
74730187,74729406,0,nan,nan,-13.08145,-0.2774925,-2.27036,0.0,0.0,0.0,-4.7469296,-0.22524384,0.09140088,0.09024658,0.0011172326,0.008942618,0.0,-0.06882828,0.28051385,0.62440574,2.4165144,-0.009521439,nan,2.7745073,3.8467383,0.51415354,0.81158483,0.13456511,inf,inf,inf,inf,0,1,0,1,1,0,1,0,3,0,0,0,0
75229521,75228617,0,nan,nan,-13.164072,-0.19910663,-2.1323104,0.0,0.0,0.0,-4.4674783,-0.13789247,0.3610417,0.36223105,0.0011172326,0.008942618,0.0,-0.42338187,-0.039140478,0.06530565,2.386021,-0.009521439,nan,2.6364577,3.7572792,0.51599586,0.793479,0.13450179,inf,inf,inf,inf,0,1,0,1,1,0,1,0,3,0,0,0,0
75728583,75727829,0,nan,nan,-13.159023,-0.12577711,-2.025883,0.0,0.0,0.0,-4.410743,-0.09535566,0.074363455,0.066776186,0.0011172326,0.008942618,0.0,-0.40431598,0.13451587,-0.356919,2.3602993,-0.009521439,nan,2.5300303,3.805207,0.5178193,0.7993916,0.13474183,inf,inf,inf,inf,0,1,0,1,1,0,1,0,3,0,0,0,0
76228017,76227042,0,nan,nan,-13.182349,-0.05322983,-2.0181057,0.0,0.0,0.0,-4.1271586,-0.058394775,0.12949553,0.109919354,0.0011172326,0.008942618,0.0,0.29665732,-0.1408726,0.9989135,2.3536193,-0.009521439,nan,2.522253,3.854294,0.51402116,0.8049363,0.13398813,inf,inf,inf,inf,0,1,0,1,1,0,1,0,3,0,0,0,0
76727103,76726262,0,nan,nan,-12.843696,-0.021708956,-1.9125198,0.0,0.0,0.0,-3.6055202,-0.08536027,0.2427229,0.22004367,0.0011172326,0.008942618,0.0,-0.030204529,-0.16489905,-0.8335954,2.3659482,-0.009521439,nan,2.4166672,3.7658505,0.5157193,0.79012495,0.13390158,inf,inf,inf,inf,0,1,0,1,1,0,1,0,3,0,0,0,0
77720463,77719691,0,nan,nan,-11.991987,-0.059281368,-2.0537329,0.0,0.0,0.0,-3.0291734,-0.16293259,-0.27706984,-0.2695613,0.0011172326,0.008942618,0.0,-0.097527824,-0.2514471,0.62507707,2.4059086,-0.009521439,nan,2.5578802,3.723679,0.5179897,0.7868126,0.13407876,inf,inf,inf,inf,0,1,0,1,1,0,1,0,3,0,0,0,0
78229977,78228890,0,nan,nan,-11.340305,-0.1444152,-2.0973558,0.0,0.0,0.0,-2.7115002,-0.30925652,-0.045286708,-0.01843919,0.0011172326,0.008942618,0.0,-0.1830675,-0.3551366,-0.25003773,2.4032815,-0.009521439,nan,2.6015031,3.780642,0.5151724,0.7928514,0.13357815,inf,inf,inf,inf,0,1,0,1,1,0,1,0,3,0,0,0,0
78728879,78728105,0,nan,nan,-10.802359,-0.28653416,-2.1171427,0.0,0.0,0.0,-2.4850376,-0.3988315,-0.14337647,-0.103184536,0.0011172326,0.008942618,0.0,-0.23283139,-0.040158868,-0.18540114,2.4071736,-0.009521439,nan,2.62129,3.8318489,0.51695895,0.8005938,0.13386713,inf,inf,inf,inf,0,1,0,1,1,0,1,0,3,0,0,0,0
79727550,79726534,0,nan,nan,-9.567595,-0.63882494,-2.219221,0.0,0.0,0.0,-2.1480517,-0.6010976,-0.17314553,-0.108170666,0.0011172326,0.008942618,0.0,-0.37878472,-0.238438,-0.016728014,2.4022958,-0.009521439,nan,2.7233684,3.799292,0.514921,0.7984681,0.13360651,inf,inf,inf,inf,0,1,0,1,1,0,1,0,3,0,0,0,0
80226641,80225795,0,nan,nan,-9.071736,-0.842675,-2.266818,0.0,0.0,0.0,-2.0303605,-0.62875575,-0.15240407,-0.08485978,0.0011172326,0.008942618,0.0,-0.18454434,-0.07965807,-0.19393355,2.3997965,-0.009521439,nan,2.7709653,3.7166426,0.516741,0.7888111,0.1339443,inf,inf,inf,inf,0,1,0,1,1,0,1,0,3,0,0,0,0
80725904,80724970,0,nan,nan,-8.486256,-0.9949792,-2.302463,0.0,0.0,0.0,-1.8501797,-0.5983422,-0.13290754,-0.06109735,0.0011172326,0.008942618,0.0,-0.25728157,0.011679837,-0.09364837,2.4026504,-0.009521439,nan,2.8066103,3.7688131,0.5129691,0.7987848,0.13333309,inf,inf,inf,inf,0,1,0,1,1,0,1,0,3,0,0,0,0
81729245,81728404,0,nan,nan,-7.459787,-1.1914146,-2.3207133,0.0,0.0,0.0,-1.586746,-0.5265677,-0.061509084,0.0163219,0.0011172326,0.008942618,0.0,-0.24042319,0.015872797,0.84927064,2.4003882,-0.009521439,nan,2.8248606,3.7428017,0.51671773,0.80258155,0.13392888,inf,inf,inf,inf,0,1,0,1,1,0,1,0,3,0,0,0,0
82228454,82227607,0,nan,nan,-6.969859,-1.2305932,-2.219998,0.0,0.0,0.0,-1.4200053,-0.47670588,0.31397262,0.38590357,0.0011172326,0.008942618,0.0,-0.033792213,-0.17473805,0.64806616,2.3953638,-0.009521439,nan,2.7241452,3.798231,0.5129993,0.81137335,0.13330516,inf,inf,inf,inf,0,1,0,1,1,0,1,0,3,0,0,0,0
82727774,82726824,0,nan,nan,-6.532469,-1.253823,-1.9887441,0.0,0.0,0.0,-1.2902232,-0.4428194,0.44977626,0.5162094,0.0011172326,0.008942618,0.0,-0.1126928,0.04536891,-0.31798923,2.351367,-0.009521439,nan,2.4928916,3.8547983,0.51486135,0.8226435,0.13356887,inf,inf,inf,inf,0,1,0,1,1,0,1,0,3,0,0,0,0
83226822,83226044,0,nan,nan,-5.99359,-1.2212914,-1.8241668,0.0,0.0,0.0,-1.0722212,-0.29936886,0.048550043,0.11115489,0.0011172326,0.008942618,0.0,-0.09855227,0.64259285,-0.38650614,2.297947,-0.009521439,nan,2.328314,3.7751167,0.516696,0.8199595,0.13380077,inf,inf,inf,inf,0,1,0,1,1,0,1,0,3,0,0,0,0
83721105,83720266,0,nan,nan,-5.481914,-1.1096518,-1.8080332,0.0,0.0,0.0,-0.85203207,-0.13420005,-0.042196605,0.021537665,0.0011172326,0.008942618,0.0,0.05112473,-0.01291214,0.04913121,2.214141,-0.009521439,nan,2.3121805,3.8285692,0.5119314,0.8357089,0.1329796,inf,inf,inf,inf,0,1,0,1,1,0,1,0,3,0,0,0,0
84729461,84728687,0,nan,nan,-4.4072895,-0.82378304,-1.7389851,0.0,0.0,0.0,-0.60922825,-0.038994312,0.012450885,0.08069636,0.0011172326,0.008942618,0.0,-0.15458488,0.09857128,-0.18805256,2.0761843,-0.009521439,nan,2.2431324,3.8224843,0.5166468,0.84689516,0.13366082,inf,inf,inf,inf,0,1,0,1,1,0,1,0,3,0,0,0,0
85228861,85227906,0,nan,nan,-3.9651299,-0.6919066,-1.717571,0.0,0.0,0.0,-0.47629586,0.010207465,-0.07452536,-0.0023754057,0.0011172326,0.008942618,0.0,0.06722756,0.037583575,-0.08365661,2.0573282,-0.009521439,nan,2.2217183,3.8876312,0.5129201,0.8636459,0.13304421,inf,inf,inf,inf,0,1,0,1,1,0,1,0,3,0,0,0,0
85727932,85727124,0,nan,nan,-3.4780865,-0.5804194,-1.7311776,0.0,0.0,0.0,-0.37932685,-0.044873063,-0.10599511,-0.044783182,0.0011172326,0.008942618,0.0,-0.27557725,-0.19957417,-0.053516753,2.0343325,-0.009521439,nan,2.2353249,3.812081,0.5147247,0.85884255,0.13327593,inf,inf,inf,inf,0,1,0,1,1,0,1,0,3,0,0,0,0
86227332,86226343,0,nan,nan,-3.0601428,-0.50701,-1.7573249,0.0,0.0,0.0,-0.31035393,-0.00869892,-0.11127759,-0.05918966,0.0011172326,0.008942618,0.0,-0.046748586,0.15328723,-0.12118241,2.0157416,-0.009521439,nan,2.2614722,3.8786743,0.5165344,0.87439805,0.13352884,inf,inf,inf,inf,0,1,0,1,1,0,1,0,3,0,0,0,0
86726392,86725562,0,nan,nan,-2.6871648,-0.42127272,-1.7883251,0.0,0.0,0.0,-0.27282518,0.019453917,-0.119209416,-0.06873663,0.0011172326,0.008942618,0.0,-0.05187093,-0.07732457,-0.08306471,2.016399,-0.009521439,nan,2.2924724,3.8025067,0.5127308,0.86812955,0.13289225,inf,inf,inf,inf,0,1,0,1,1,0,1,0,3,0,0,0,0
87719988,87719010,0,nan,nan,-2.0099947,-0.22807351,-1.7964609,0.0,0.0,0.0,0.012182127,0.13578361,-0.034242716,0.011622161,0.0011172326,0.008942618,0.0,0.40942356,-0.07923846,-0.24553339,1.954743,-0.009521439,nan,2.3006082,3.9308794,0.51531756,0.89593,0.13316762,inf,inf,inf,inf,0,1,0,1,1,0,1,0,3,0,0,0,0
88229112,88228214,0,nan,nan,-1.599849,-0.12247265,-1.826123,0.0,0.0,0.0,0.14167076,0.13953713,-0.08752514,-0.05484594,0.0011172326,0.008942618,0.0,-0.1554131,0.03553885,-0.017197406,1.900342,-0.009521439,nan,2.3302703,3.8588035,0.5126238,0.8896666,0.13265039,inf,inf,inf,inf,0,1,0,1,1,0,1,0,3,0,0,0,0
88728340,88727434,0,nan,nan,-1.2501216,-0.043774832,-1.7965502,0.0,0.0,0.0,0.12401664,0.12345078,0.16310497,0.20070629,0.0011172326,0.008942618,0.0,-0.0103752725,0.01089131,0.6811747,1.8409711,-0.009521439,nan,2.3006976,3.927092,0.51439804,0.9012154,0.13290332,inf,inf,inf,inf,0,1,0,1,1,0,1,0,3,0,0,0,0
89227481,89226658,0,nan,nan,-0.97553223,0.019925885,-1.6913083,0.0,0.0,0.0,0.12909074,0.14497009,0.118446924,0.15488566,0.0011172326,0.008942618,0.0,-0.07691249,-0.034125812,-0.3384361,1.8002149,-0.009521439,nan,2.1954556,3.9959443,0.516159,0.9141962,0.13315178,inf,inf,inf,inf,0,1,0,1,1,0,1,0,3,0,0,0,0
89726814,89725877,0,nan,nan,-0.72078526,0.08643369,-1.7036612,0.0,0.0,0.0,0.16243722,0.16709667,-0.17596774,-0.14926133,0.0011172326,0.008942618,0.0,-0.23728985,-0.14529148,-0.3183806,1.7847754,-0.009521439,nan,2.2078085,3.9121199,0.51238865,0.9070487,0.13252127,inf,inf,inf,inf,0,1,0,1,1,0,1,0,3,0,0,0,0
90720090,90719339,0,nan,nan,-0.33874014,0.23563105,-1.8183297,0.0,0.0,0.0,0.19240184,0.18041965,0.051609002,0.077678695,0.0011172326,0.008942618,0.0,0.08143699,-0.099064514,0.73245955,1.673167,-0.009521439,nan,2.322477,3.8900645,0.5149981,0.9054674,0.13288696,inf,inf,inf,inf,0,1,0,1,1,0,1,0,3,0,0,0,0
91728643,91727792,0,nan,nan,0.037074756,0.17555788,-1.6395446,0.0,0.0,0.0,0.44960237,-0.08886969,0.16666932,0.1671396,0.0011172326,0.008942618,0.0,0.13240056,-0.33606765,-0.7922975,1.4543191,-0.009521439,nan,2.143692,4.0321093,0.51404935,0.9272138,0.13264094,inf,inf,inf,inf,0,1,0,1,1,0,1,0,3,0,0,0,0
92227758,92226977,0,nan,nan,0.25931686,0.101426244,-1.5821885,0.0,0.0,0.0,0.49309546,-0.21111055,0.061701093,0.06286275,0.0011172326,0.008942618,0.0,0.18769921,-0.23667654,-0.7713492,1.3318255,-0.009521439,nan,2.086336,3.9352179,0.5158196,0.9107269,0.13293664,inf,inf,inf,inf,0,1,0,1,1,0,1,0,3,0,0,0,0
92722173,92721207,0,nan,nan,0.49040988,1.061228,-1.5679382,0.0,0.0,0.0,0.57379055,0.08093038,-0.002826542,0.0066595604,0.0011172326,0.008942618,0.0,0.024420805,-0.09883664,-0.46876577,1.1832709,-0.009521439,nan,2.0720856,3.9691198,0.51102924,0.9080928,0.13221532,inf,inf,inf,inf,0,1,0,1,1,0,1,0,3,0,0,0,0
93222970,93220429,0,nan,nan,0.8859252,2.4121845,-1.5761316,0.0,0.0,0.0,0.6028699,0.47444737,-0.02505896,-0.021640878,0.0011172326,0.008942618,0.0,-0.45130906,-0.054608393,-0.31180546,1.0121564,-0.009521439,nan,2.0802789,3.8632154,0.51290756,0.8841736,0.13258511,inf,inf,inf,inf,0,1,0,1,1,0,1,0,3,0,0,0,0
93732174,93729637,0,nan,nan,1.4754122,3.5361052,-1.6118966,0.0,0.0,0.0,0.6602518,0.84466976,-0.08030861,-0.084451385,0.0011172326,0.008942618,0.0,-0.5796651,0.17113672,-0.36104724,0.825947,-0.009521439,nan,2.116044,3.9183774,0.5158037,0.88725734,0.13314147,inf,inf,inf,inf,0,1,0,1,1,0,1,0,3,0,0,0,0
94231208,94228860,0,nan,nan,2.1973941,4.4475784,-1.6602017,0.0,0.0,0.0,0.82240206,1.1814886,-0.10974068,-0.11051793,0.0011172326,0.008942618,0.0,-0.05828471,0.22304745,0.20700285,0.6408654,-0.009521439,nan,2.164349,3.9686573,0.51212287,0.8907515,0.13267715,inf,inf,inf,inf,0,1,0,1,1,0,1,0,3,0,0,0,0
94728820,94728084,0,nan,nan,2.9875858,5.1393585,-1.6899921,0.0,0.0,0.0,1.0404418,1.369477,0.023836229,0.025448354,0.0011172326,0.008942618,0.0,0.08015502,-0.27511266,0.7041613,0.45574424,-0.009521439,nan,2.1941395,3.8695126,0.5140055,0.87100464,0.1331177,inf,inf,inf,inf,0,1,0,1,1,0,1,0,3,0,0,0,0
95229685,95227308,0,nan,nan,3.9288995,5.721394,-1.6315681,0.0,0.0,0.0,1.2333013,1.4838293,0.20165077,0.20333607,0.0011172326,0.008942618,0.0,0.08074359,0.12177562,0.35429955,0.24555701,-0.009521439,nan,2.1357155,3.9193199,0.51592505,0.8734591,0.13361372,inf,inf,inf,inf,0,1,0,1,1,0,1,0,3,0,0,0,0
95727475,95726571,0,nan,nan,4.8657274,6.1021466,-1.5228921,0.0,0.0,0.0,1.5458349,1.7252553,0.07970578,0.08463056,0.0011172326,0.008942618,0.0,0.26529467,0.49564034,-0.8039054,0.038463995,-0.009521439,nan,2.0270395,3.8225086,0.51231104,0.8569269,0.13323216,inf,inf,inf,inf,0,1,0,1,1,0,1,0,3,0,0,0,0
96228440,96225756,0,nan,nan,5.336724,6.141554,-1.6376034,0.0,0.0,0.0,1.6113828,1.893445,-0.390719,-0.38079035,0.0011172326,0.008942618,0.0,-0.18246588,0.68704695,0.47435862,0.008619681,-0.009521439,nan,2.1417508,3.8735757,0.5142358,0.8690113,0.13379414,inf,inf,inf,inf,0,1,0,1,1,0,1,0,3,0,0,0,0
96730821,96729973,0,nan,nan,5.7640605,6.35897,-1.8188457,0.0,0.0,0.0,1.5595156,2.199993,-0.40338036,-0.3877853,0.0011172326,0.008942618,0.0,-0.33736226,0.8354979,-0.10145151,0.07120855,-0.009521439,nan,2.322993,3.926445,0.5162672,0.87457144,0.13446301,inf,inf,inf,inf,0,1,0,1,1,0,1,0,3,0,0,0,0
97231754,97229198,0,nan,nan,6.0130796,6.582428,-2.0022013,0.0,0.0,0.0,1.5520105,2.308583,-0.27591136,-0.25071013,0.0011172326,0.008942618,0.0,0.34321263,0.08638858,0.8434563,0.08081871,-0.009521439,nan,2.5063486,3.8341084,0.51281714,0.8586344,0.13424927,inf,inf,inf,inf,0,1,0,1,1,0,1,0,3,0,0,0,0
97721060,97718439,0,nan,nan,6.196298,6.868626,-1.9690768,0.0,0.0,0.0,1.5957761,2.5927062,0.26847735,0.31137383,0.0011172326,0.008942618,0.0,0.1322454,1.2169677,1.4276241,-0.009464775,-0.009521439,nan,2.4732242,3.8801265,0.5139601,0.8584414,0.13467646,inf,inf,inf,inf,0,1,0,1,1,0,1,0,3,0,0,0,0
98228448,98227652,0,nan,nan,6.173207,7.2369494,-1.8056138,0.0,0.0,0.0,1.5572933,2.9696226,0.07321957,0.1265913,0.0011172326,0.008942618,0.0,0.29531482,0.8283391,-1.2624906,-0.12307421,-0.009521439,nan,2.309761,3.9423592,0.517198,0.86653936,0.13574886,inf,inf,inf,inf,0,1,0,1,1,0,1,0,3,0,0,0,0
98727834,98726873,0,nan,nan,5.8492556,7.472287,-1.7410588,0.0,0.0,0.0,1.657124,3.2317493,0.14284045,0.20679104,0.0011172326,0.008942618,0.0,0.3106777,0.87195873,1.0831894,-0.15675816,-0.009521439,nan,2.245206,3.852619,0.5138025,0.85417706,0.13550594,inf,inf,inf,inf,0,1,0,1,1,0,1,0,3,0,0,0,0
99226813,99226100,0,nan,nan,5.61731,7.8612266,-1.5845929,0.0,0.0,0.0,1.675967,3.514725,0.26750427,0.3235757,0.0011172326,0.008942618,0.0,0.57228905,0.52943534,0.11950703,-0.13589485,-0.009521439,nan,2.0887403,3.908465,0.5160601,0.85975397,0.13628666,inf,inf,inf,inf,0,1,0,1,1,0,1,0,3,0,0,0,0
99721094,99720333,0,nan,nan,5.442451,8.281357,-1.4348028,0.0,0.0,0.0,1.7593685,3.6112309,0.27383065,0.3231823,0.0011172326,0.008942618,0.0,0.47029662,0.4149339,-0.29289576,-0.11866524,-0.009521439,nan,1.9389501,3.8124979,0.51726776,0.84443885,0.13662855,inf,inf,inf,inf,0,1,0,1,1,0,1,0,3,0,0,0,0
100230246,100229544,0,nan,nan,5.3436885,8.658277,-1.3400357,0.0,0.0,0.0,1.9049604,3.7195485,-0.018451212,0.02439823,0.0011172326,0.008942618,0.0,0.6055713,0.5602422,-0.13260852,-0.11057423,-0.009521439,nan,1.844183,3.8746521,0.5150297,0.85328597,0.1364092,inf,inf,inf,inf,0,1,0,1,1,0,1,0,3,0,0,0,0
100719494,100718786,0,nan,nan,5.3706656,9.039554,-1.351331,0.0,0.0,0.0,1.8969473,3.6362016,0.08094464,0.10118465,0.0011172326,0.008942618,0.0,0.17550729,0.41633457,0.6250936,-0.107178554,-0.009521439,nan,1.8554783,3.9236145,0.5162405,0.85781276,0.13651371,inf,inf,inf,inf,0,1,0,1,1,0,1,0,3,0,0,0,0
101228823,101227998,0,nan,nan,5.3097515,9.231026,-1.2735069,0.0,0.0,0.0,1.7572123,3.6249561,0.34857583,0.34376872,0.0011172326,0.008942618,0.0,0.26828814,0.40351295,0.5118108,-0.10995493,-0.009521439,nan,1.7776542,3.839501,0.5194271,0.8397559,0.13683192,inf,inf,inf,inf,0,1,0,1,1,0,1,0,3,0,0,0,0
101728121,101727225,0,nan,nan,5.2551823,9.393714,-1.0965426,0.0,0.0,0.0,1.7444955,3.5213451,0.4123318,0.38408127,0.0011172326,0.008942618,0.0,0.4328708,0.27063894,-0.6382036,-0.11119961,-0.009521439,nan,1.6006899,3.892065,0.51588386,0.84257865,0.13607417,inf,inf,inf,inf,0,1,0,1,1,0,1,0,3,0,0,0,0
102227416,102226451,0,nan,nan,5.198211,9.472073,-0.97286606,0.0,0.0,0.0,1.6450393,3.3170002,0.2441108,0.20069072,0.0011172326,0.008942618,0.0,0.04450912,0.34340248,-0.10004407,-0.11050269,-0.009521439,nan,1.4770133,3.8000827,0.51787275,0.8268582,0.13605186,inf,inf,inf,inf,0,1,0,1,1,0,1,0,3,0,0,0,0
102726472,102725680,0,nan,nan,5.068134,9.398709,-0.8804989,0.0,0.0,0.0,1.5782789,3.2529514,0.3176424,0.2601819,0.0011172326,0.008942618,0.0,0.48097742,0.32451358,0.22935572,-0.10960722,-0.009521439,nan,1.3846462,3.851078,0.5197875,0.8305267,0.13617837,inf,inf,inf,inf,0,1,0,1,1,0,1,0,3,0,0,0,0
103225801,103224907,0,nan,nan,4.9829435,9.387956,-0.7596219,0.0,0.0,0.0,1.5322258,3.1774945,0.31489155,0.2511726,0.0011172326,0.008942618,0.0,-0.004919885,0.48217738,-0.077452786,-0.10869341,-0.009521439,nan,1.2637693,3.9018495,0.5159722,0.8341709,0.13542268,inf,inf,inf,inf,0,1,0,1,1,0,1,0,3,0,0,0,0
103729922,103729127,0,nan,nan,4.8521833,9.276934,-0.63147336,0.0,0.0,0.0,1.4888834,3.0791273,0.34182954,0.27716684,0.0011172326,0.008942618,0.0,0.34448573,0.2857284,-0.06685377,-0.11271178,-0.009521439,nan,1.1356207,3.8092299,0.51776993,0.81816953,0.13553646,inf,inf,inf,inf,0,1,0,1,1,0,1,0,3,0,0,0,0
104229191,104228356,0,nan,nan,4.736407,9.153945,-0.50499356,0.0,0.0,0.0,1.4286405,2.9766676,0.2795982,0.21280651,0.0011172326,0.008942618,0.0,0.075523555,0.6190231,-0.8917247,-0.11684233,-0.009521439,nan,1.009141,3.85968,0.5196567,0.8230247,0.13570642,inf,inf,inf,inf,0,1,0,1,1,0,1,0,3,0,0,0,0
104728548,104727584,0,nan,nan,4.635175,9.077958,-0.46852458,0.0,0.0,0.0,1.3623946,2.9310415,-0.09919634,-0.15816395,0.0011172326,0.008942618,0.0,0.08032636,0.15413208,-0.06804031,-0.11387694,-0.009521439,nan,0.9726719,3.7691596,0.51580423,0.81023777,0.13495624,inf,inf,inf,inf,0,1,0,1,1,0,1,0,3,0,0,0,0
105227737,105226814,0,nan,nan,4.464192,8.907047,-0.59134966,0.0,0.0,0.0,1.1991025,2.7966826,-0.2638313,-0.30945876,0.0011172326,0.008942618,0.0,-0.30711636,0.05760179,0.5088875,-0.1096666,-0.009521439,nan,1.095497,3.8196473,0.51761925,0.8178959,0.13512324,inf,inf,inf,inf,0,1,0,1,1,0,1,0,3,0,0,0,0
105726748,105726042,0,nan,nan,4.246504,8.734008,-0.6959923,0.0,0.0,0.0,0.93659276,2.6061494,0.017671265,-0.033813,0.0011172326,0.008942618,0.0,-0.2549062,0.18836474,0.70662683,-0.11995592,-0.009521439,nan,1.2001396,3.870558,0.5193467,0.8220326,0.13511205,inf,inf,inf,inf,0,1,0,1,1,0,1,0,3,0,0,0,0
106226048,106225271,0,nan,nan,3.9282763,8.474719,-0.6264329,0.0,0.0,0.0,0.6849636,2.4462264,0.3687262,0.31625655,0.0011172326,0.008942618,0.0,-0.14416133,0.17757651,0.40789315,-0.12982586,-0.009521439,nan,1.1305802,3.7800448,0.51536906,0.8055795,0.13427459,inf,inf,inf,inf,0,1,0,1,1,0,1,0,3,0,0,0,0
106725388,106724501,0,nan,nan,3.5443199,8.157455,-0.48378715,0.0,0.0,0.0,0.5462297,2.2171898,0.216603,0.1621987,0.0011172326,0.008942618,0.0,0.24189618,-0.27825603,-0.64629996,-0.1192371,-0.009521439,nan,0.98793447,3.829382,0.5170072,0.81269425,0.1343699,inf,inf,inf,inf,0,1,0,1,1,0,1,0,3,0,0,0,0
107229554,107228723,0,nan,nan,3.2454321,7.851347,-0.4372289,0.0,0.0,0.0,0.6396491,2.0084126,0.14992505,0.10313824,0.0011172326,0.008942618,0.0,0.49862868,0.19143386,0.65962005,-0.108466804,-0.009521439,nan,0.9413762,3.880785,0.5187006,0.8225076,0.13455153,inf,inf,inf,inf,0,1,0,1,1,0,1,0,3,0,0,0,0
107728728,107727953,0,nan,nan,2.9997602,7.4048853,-0.303946,0.0,0.0,0.0,0.700259,1.816382,0.46472642,0.42171654,0.0011172326,0.008942618,0.0,0.26760587,0.20406416,0.71218044,-0.11023638,-0.009521439,nan,0.8080933,3.7930613,0.5147993,0.80897367,0.13387005,inf,inf,inf,inf,0,1,0,1,1,0,1,0,3,0,0,0,0
108228052,108227184,0,nan,nan,2.883472,7.025289,-0.017682983,0.0,0.0,0.0,0.85736644,1.6786213,0.71908367,0.67877483,0.0011172326,0.008942618,0.0,0.51319957,0.25156203,0.26113597,-0.11075176,-0.009521439,nan,0.5218303,3.8446977,0.5165387,0.8157828,0.13413244,inf,inf,inf,inf,0,1,0,1,1,0,1,0,3,0,0,0,0
108727292,108726430,0,nan,nan,2.8620815,6.667698,0.3069176,0.0,0.0,0.0,0.9800084,1.6141394,0.6195859,0.5765813,0.0011172326,0.008942618,0.0,0.09125314,0.09118302,0.11903115,-0.102985166,-0.009521439,nan,0.19722974,3.7582872,0.5183163,0.80638963,0.13445704,inf,inf,inf,inf,0,1,0,1,1,0,1,0,3,0,0,0,0
109226477,109225645,0,nan,nan,2.869488,6.306168,0.5554346,0.0,0.0,0.0,1.0275507,1.5282127,0.5281676,0.48361635,0.0011172326,0.008942618,0.0,0.28206587,0.12891172,0.7398552,-0.0936519,-0.009521439,nan,0.1,3.811137,0.5144854,0.8183965,0.13384433,inf,inf,inf,inf,0,1,0,1,1,0,1,0,3,0,0,0,0
109725836,109724876,0,nan,nan,2.9076476,6.0285206,0.8094765,0.0,0.0,0.0,1.0155965,1.4848713,0.48489496,0.4415266,0.0011172326,0.008942618,0.0,0.19413643,0.4159665,-1.1121114,-0.092533894,-0.009521439,nan,0.1,3.865778,0.5162629,0.82909834,0.13409713,inf,inf,inf,inf,0,1,0,1,1,0,1,0,3,0,0,0,0
110724176,110723339,0,nan,nan,2.9421535,5.498186,1.2446342,0.0,0.0,0.0,1.053115,1.4561956,0.7227347,0.67356557,0.0011172326,0.008942618,0.0,0.6457752,0.90532684,-0.31040698,-0.13314165,-0.009521439,nan,0.1,3.838611,0.5141956,0.83191276,0.1337687,inf,inf,inf,inf,0,1,0,1,1,0,1,0,3,0,0,0,0
111727542,111726795,0,nan,nan,2.6194339,4.7534914,1.7486161,0.0,0.0,0.0,0.5482674,0.808684,0.9121666,0.84855294,0.0011172326,0.008942618,0.0,2.6344783,0.04574264,-0.45564854,-0.21409073,-0.009521439,nan,0.1,3.8151705,0.51732254,0.8392352,0.15877402,inf,inf,inf,inf,0,1,0,1,1,0,1,0,3,0,0,0,0
112226984,112226027,0,nan,nan,2.43762,4.308508,2.0971723,0.0,0.0,0.0,0.49276146,0.67265874,0.9025634,0.7771302,0.0011172326,0.008942618,0.0,0.45340642,0.020346675,1.0244445,-0.22644128,-0.009521439,nan,0.1,3.8735363,0.51437,0.85136694,0.15387179,inf,inf,inf,inf,0,1,0,1,1,0,1,0,3,0,0,0,0
112721050,112720267,0,nan,nan,2.2430453,3.841124,2.3532603,0.0,0.0,0.0,0.4465352,0.5306838,0.8673052,0.64792246,0.0011172326,0.008942618,0.0,0.6458132,-0.10274297,0.33739,-0.23827472,-0.009521439,nan,0.1,3.785707,0.51629263,0.84448105,0.15042348,inf,inf,inf,inf,0,1,0,1,1,0,1,0,3,0,0,0,0
113230504,113229486,0,nan,nan,2.0468912,3.3665385,2.5450852,0.0,0.0,0.0,0.39678073,0.3843071,0.8202897,0.50782084,0.0011172326,0.008942618,0.0,0.002217408,-0.25451604,0.16986878,-0.24406211,-0.009521439,nan,0.1,3.853624,0.52027696,0.86044574,0.14814414,inf,inf,inf,inf,0,1,0,1,1,0,1,0,3,0,0,1,0
113729623,113728718,0,nan,nan,0.13121323,0.04825297,2.6589715,0.0,0.0,0.0,0.02314165,-0.23310432,0.7632711,0.35945743,0.0011172326,0.008942618,0.0,0.06961744,-0.09393556,0.06497134,-0.25049376,-0.009521439,nan,0.1,0.4338006,0.5169848,0.5258189,0.14586501,inf,inf,inf,inf,0,1,0,1,1,0,1,0,3,0,0,1,0
