timestamp,timestamp_sample,baro_device_id,baro_alt_meter,baro_temp_celcius,baro_pressure_pa,rho
22203432,22180772,3997730,-9.047302,28.66,101433.75,1.2052008
22253618,22233492,3997730,-9.131856,28.67,101434.74,1.2052126
22414376,22394211,3997730,-9.131856,28.689999,101434.75,1.2052126
22625419,22607767,3997730,-9.06844,28.699999,101434.0,1.2052038
22786195,22768542,3997730,-9.300965,28.73,101436.74,1.2052363
23007199,22984490,3997730,-9.152995,28.75,101435.0,1.2052156
23218102,23197986,3997730,-8.883478,28.779999,101431.75,1.205177
23428977,23411373,3997730,-9.08958,28.8,101434.24,1.2052066
23589730,23572044,3997730,-9.3221035,28.82,101436.99,1.2052393
23810571,23787820,3997730,-9.152995,28.849998,101435.0,1.2052156
24021299,24001180,3997730,-9.08958,28.859999,101434.24,1.2052066
24182017,24161905,3997730,-8.9257555,28.89,101432.25,1.2051829
24392845,24375237,3997730,-9.152995,28.9,101435.0,1.2052156
24613849,24591228,3997730,-9.026163,28.939999,101433.5,1.2051978
24824675,24804539,3997730,-9.047302,28.96,101433.75,1.2052008
24985407,24965293,3997730,-8.904617,28.97,101432.0,1.2051799
25196266,25178667,3997730,-8.989171,28.99,101433.0,1.2051919
25417145,25394502,3997730,-8.677378,29.019999,101429.25,1.2051473
25628065,25607949,3997730,-8.592823,29.039999,101428.25,1.2051353
25788693,25768528,3997730,-8.550546,29.06,101427.75,1.2051295
25999651,25982014,3997730,-8.613962,29.09,101428.5,1.2051383
26220573,26197904,3997730,-8.677378,29.109999,101429.25,1.2051473
26381156,26358532,3997730,-8.571685,29.119999,101428.0,1.2051325
26592070,26571951,3997730,-8.5294075,29.15,101427.5,1.2051265
26802992,26785377,3997730,-8.423715,29.17,101426.25,1.2051116
27023879,27001212,3997730,-8.28103,29.199999,101424.5,1.2050909
27184481,27161865,3997730,-8.386723,29.21,101425.75,1.2051057
27395417,27375281,3997730,-8.154198,29.23,101423.0,1.205073
27606286,27588661,3997730,-8.011513,29.25,101421.25,1.2050523
27827259,27804648,3997730,-8.1330595,29.279999,101422.75,1.20507
27988020,27965387,3997730,-8.090783,29.3,101422.25,1.205064
28198880,28178772,3997730,-8.05379,29.32,101421.75,1.2050582
28409703,28392090,3997730,-8.074928,29.34,101422.0,1.2050611
28570524,28552824,3997730,-8.090783,29.349998,101422.25,1.205064
28791459,28768787,3997730,-7.969236,29.39,101420.74,1.2050462
29002301,28982162,3997730,-8.238752,29.41,101424.0,1.2050849
29213151,29195484,3997730,-7.969236,29.42,101420.74,1.2050462
29373695,29356071,3997730,-7.821266,29.439999,101419.0,1.2050254
29594618,29571976,3997730,-7.884681,29.47,101419.74,1.2050343
29805532,29785386,3997730,-7.720858,29.49,101417.75,1.2050107
30016593,29998873,3997730,-7.636304,29.5,101416.74,1.2049986
30177189,30159578,3997730,-7.47248,29.519999,101414.75,1.204975
30398222,30375540,3997730,-7.366787,29.539999,101413.49,1.2049601
30609139,30588958,3997730,-7.32451,29.57,101413.0,1.2049541
30820045,30802407,3997730,-7.3879256,29.59,101413.74,1.204963
30980643,30963039,3997730,-7.17654,29.599998,101411.26,1.2049335
31201599,31178953,3997730,-7.239956,29.63,101412.0,1.2049423
31412495,31392383,3997730,-7.155401,29.65,101410.99,1.2049303
31623437,31605817,3997730,-7.076132,29.67,101410.0,1.2049185
31784149,31766531,3997730,-7.09727,29.679998,101410.25,1.2049215
32005067,31982448,3997730,-7.17654,29.71,101411.26,1.2049335
32215979,32195816,3997730,-7.218817,29.73,101411.74,1.2049392
32426839,32409168,3997730,-7.0919857,29.75,101410.24,1.2049215
32587560,32569848,3997730,-6.9915776,29.76,101409.0,1.2049067
32808489,32785750,3997730,-7.1184087,29.789999,101410.5,1.2049245
33019363,32999161,3997730,-6.9915776,29.81,101409.0,1.2049067
33179991,33159850,3997730,-6.7009225,29.82,101405.5,1.2048651
33390838,33373173,3997730,-6.970439,29.84,101408.75,1.2049037
33611758,33589112,3997730,-6.907023,29.859999,101407.99,1.2048947
33822690,33802546,3997730,-6.843608,29.88,101407.25,1.2048858
33983395,33963278,3997730,-6.6586456,29.9,101405.0,1.2048591
34194232,34176632,3997730,-6.616368,29.92,101404.5,1.2048532
34415106,34392488,3997730,-6.7009225,29.939999,101405.5,1.2048651
34625984,34605871,3997730,-6.616368,29.96,101404.5,1.2048532
34786739,34766570,3997730,-6.822469,29.97,101406.99,1.2048829
34997616,34979984,3997730,-6.679784,29.99,101405.25,1.2048621
35218613,35195966,3997730,-6.7432,30.01,101406.0,1.204871
35379329,35356650,3997730,-6.885885,30.029999,101407.75,1.2048918
35590198,35570057,3997730,-6.864746,30.05,101407.49,1.2048887
35801046,35783404,3997730,-6.7432,30.07,101406.0,1.204871
36021875,35999166,3997730,-6.928162,30.09,101408.25,1.2048978
36182510,36159850,3997730,-7.033855,30.099998,101409.5,1.2049127
36393286,36373158,3997730,-7.09727,30.119999,101410.25,1.2049215
36604189,36586583,3997730,-7.054993,30.14,101409.74,1.2049155
36825091,36802432,3997730,-7.070847,30.16,101409.99,1.2049185
36985793,36963143,3997730,-7.2822328,30.179998,101412.5,1.2049483
37196639,37176532,3997730,-7.054993,30.189999,101409.75,1.2049156
37407521,37389918,3997730,-6.885885,30.21,101407.75,1.2048918
37628466,37605822,3997730,-7.139548,30.24,101410.76,1.2049276
37789133,37766504,3997730,-6.9915776,30.25,101409.0,1.2049067
38000073,37979930,3997730,-6.9915776,30.269999,101409.0,1.2049067
38210999,38193371,3997730,-7.076132,30.279999,101410.0,1.2049185
38371534,38353909,3997730,-7.0919857,30.3,101410.24,1.2049215
38592369,38569747,3997730,-7.139548,30.32,101410.76,1.2049276
38803297,38783168,3997730,-7.32451,30.34,101412.99,1.2049541
39014167,38996490,3997730,-7.2822328,30.349998,101412.5,1.2049483
39174909,39157297,3997730,-7.218817,30.369999,101411.76,1.2049395
39395896,39373249,3997730,-7.2822328,30.39,101412.5,1.2049483
39606817,39586684,3997730,-7.054993,30.41,101409.74,1.2049155
39817633,39800032,3997730,-7.218817,30.429998,101411.74,1.2049392
39978363,39960761,3997730,-7.218817,30.429998,101411.74,1.2049392
40199304,40176687,3997730,-7.197678,30.46,101411.5,1.2049364
40410209,40390084,3997730,-7.012716,30.48,101409.25,1.2049097
40621126,40603525,3997730,-6.928162,30.49,101408.25,1.2048978
40781820,40764175,3997730,-6.885885,30.51,101407.75,1.2048918
41002708,40980086,3997730,-6.780192,30.519999,101406.5,1.204877
41213555,41193388,3997730,-7.0919857,30.539999,101410.24,1.2049215
41424429,41406789,3997730,-6.928162,30.56,101408.25,1.2048978
41585045,41567408,3997730,-6.764338,30.57,101406.25,1.204874
41805902,41783270,3997730,-6.885885,30.59,101407.74,1.2048917
42016803,41996666,3997730,-6.822469,30.609999,101406.99,1.2048829
42227668,42210026,3997730,-6.885885,30.63,101407.74,1.2048917
42388363,42370762,3997730,-6.764338,30.64,101406.25,1.204874
42609242,42586632,3997730,-6.679784,30.66,101405.25,1.2048621
42820073,42799958,3997730,-6.885885,30.679998,101407.74,1.2048917
43030994,43013378,3997730,-6.616368,30.689999,101404.5,1.2048532
43191754,43174138,3997730,-6.7220607,30.71,101405.75,1.2048681
43412780,43390072,3997730,-6.8013306,30.72,101406.75,1.20488
43623622,43603511,3997730,-6.822469,30.74,101406.99,1.2048829
43784344,43764209,3997730,-6.949301,30.75,101408.5,1.2049007
43995241,43977543,3997730,-6.8013306,30.769999,101406.75,1.20488
44216164,44193445,3997730,-6.531814,30.789999,101403.5,1.2048414
44427038,44406873,3997730,-6.574091,30.8,101404.0,1.2048472
44587896,44567672,3997730,-6.6586456,30.82,101405.0,1.2048591
44798770,44781028,3997730,-6.552953,30.83,101403.75,1.2048444
45019661,44996886,3997730,-6.4525447,30.849998,101402.5,1.2048295
45230599,45210325,3997730,-6.531814,30.869999,101403.5,1.2048414
45391156,45370995,3997730,-6.574091,30.869999,101404.0,1.2048472
45602018,45584390,3997730,-6.637507,30.89,101404.75,1.2048562
45822966,45800352,3997730,-6.8013306,30.91,101406.75,1.20488
45983669,45961013,3997730,-6.6586456,30.929998,101405.0,1.2048591
46194524,46174413,3997730,-6.510675,30.939999,101403.25,1.2048384
46405480,46387853,3997730,-6.531814,30.949999,101403.5,1.2048414
46626422,46603781,3997730,-6.241159,30.97,101400.0,1.2047998
46787052,46764438,3997730,-6.4525447,30.98,101402.5,1.2048295
46997926,46977817,3997730,-6.241159,31.0,101400.0,1.2047998
47208927,47191220,3997730,-6.5952296,31.01,101404.25,1.2048502
47429809,47407174,3997730,-6.3679905,31.029999,101401.5,1.2048175
47590632,47567772,3997730,-6.4314055,31.05,101402.25,1.2048265
47801446,47781239,3997730,-6.3045745,31.06,101400.75,1.2048086
48012300,47994588,3997730,-6.3891287,31.07,101401.74,1.2048204
48172880,48155245,3997730,-6.552953,31.09,101403.75,1.2048444
48393820,48371183,3997730,-6.552953,31.109999,101403.75,1.2048444
48604696,48584576,3997730,-6.346852,31.119999,101401.24,1.2048146
48815618,48798001,3997730,-6.4525447,31.14,101402.5,1.2048295
49407977,49387866,3997730,-6.283436,31.179998,101400.5,1.2048057
49618880,49601274,3997730,-6.3045745,31.189999,101400.75,1.2048086
49779556,49761850,3997730,-6.3257127,31.21,101400.99,1.2048116
50000539,49977837,3997730,-6.4314055,31.22,101402.25,1.2048265
50211460,50191259,3997730,-6.2622976,31.24,101400.25,1.2048028
50422364,50404663,3997730,-6.1407504,31.25,101398.75,1.2047849
50582918,50565280,3997730,-6.1988816,31.26,101399.5,1.2047938
50803842,50781177,3997730,-6.4102674,31.279999,101401.99,1.2048234
51014727,50994592,3997730,-6.2622976,31.289999,101400.25,1.2048028
51225516,51207914,3997730,-6.241159,31.31,101400.0,1.2047998
51386208,51368588,3997730,-6.241159,31.32,101400.0,1.2047998
51607182,51584515,3997730,-6.156605,31.34,101399.0,1.2047879
51818039,51797917,3997730,-6.0139194,31.349998,101397.25,1.2047671
51978685,51958564,3997730,-6.3679905,31.359999,101401.5,1.2048175
52189554,52171910,3997730,-6.1407504,31.38,101398.75,1.2047849
52410581,52387940,3997730,-6.4102674,31.39,101401.99,1.2048234
52621540,52601366,3997730,-6.241159,31.41,101400.0,1.2047998
52782272,52762059,3997730,-6.3045745,31.42,101400.75,1.2048086
52993119,52975464,3997730,-6.2622976,31.429998,101400.24,1.2048026
53214008,53191313,3997730,-6.510675,31.449999,101403.25,1.2048384
53424687,53404558,3997730,-6.22002,31.46,101399.75,1.2047968
53585457,53565307,3997730,-6.3891287,31.47,101401.74,1.2048204
53796326,53778702,3997730,-6.473683,31.49,101402.75,1.2048324
54017212,53994600,3997730,-6.4948215,31.5,101403.0,1.2048354
54228197,54208083,3997730,-6.4525447,31.51,101402.5,1.2048295
54388977,54368868,3997730,-6.552953,31.529999,101403.75,1.2048444
54599848,54582236,3997730,-6.510675,31.539999,101403.25,1.2048384
54820835,54798188,3997730,-6.7009225,31.55,101405.49,1.204865
54981569,54958897,3997730,-6.7432,31.57,101406.0,1.204871
55192476,55172344,3997730,-6.473683,31.58,101402.75,1.2048324
55403396,55385770,3997730,-6.5952296,31.599998,101404.25,1.2048502
55624315,55601676,3997730,-6.531814,31.609999,101403.5,1.2048414
55785080,55762449,3997730,-6.764338,31.619999,101406.25,1.204874
55995987,55975876,3997730,-6.531814,31.63,101403.5,1.2048414
56206941,56189302,3997730,-6.531814,31.65,101403.5,1.2048414
56427841,56405206,3997730,-6.637507,31.66,101404.75,1.2048562
56588350,56565716,3997730,-6.4314055,31.67,101402.25,1.2048265
56799257,56779120,3997730,-6.4102674,31.679998,101401.99,1.2048234
57010130,56992487,3997730,-6.574091,31.689999,101404.0,1.2048472
57170893,57153263,3997730,-6.822469,31.71,101406.99,1.2048829
57391809,57369183,3997730,-6.679784,31.72,101405.25,1.2048621
57602671,57582555,3997730,-6.764338,31.73,101406.25,1.204874
57813549,57795945,3997730,-6.780192,31.74,101406.5,1.204877
57974211,57956610,3997730,-6.822469,31.75,101406.99,1.2048829
58195061,58172447,3997730,-6.8013306,31.769999,101406.75,1.20488
58405948,58385834,3997730,-6.6586456,31.779999,101405.0,1.2048591
58616867,58599255,3997730,-6.9915776,31.8,101409.0,1.2049067
58777515,58759798,3997730,-6.949301,31.81,101408.5,1.2049007
58998418,58975686,3997730,-6.907023,31.82,101408.0,1.2048948
59209356,59189106,3997730,-7.1184087,31.83,101410.5,1.2049245
59420282,59402542,3997730,-6.949301,31.84,101408.5,1.2049007
59580901,59563282,3997730,-7.155401,31.849998,101411.0,1.2049304
59801922,59779240,3997730,-7.17654,31.869999,101411.24,1.2049333
60012871,59992731,3997730,-7.012716,31.88,101409.25,1.2049097
60223754,60206141,3997730,-7.0919857,31.9,101410.24,1.2049215
60384486,60366852,3997730,-6.864746,31.9,101407.49,1.2048887
60605434,60582790,3997730,-7.033855,31.92,101409.5,1.2049127
60816235,60796124,3997730,-7.1184087,31.929998,101410.5,1.2049245
61027120,61009505,3997730,-7.197678,31.939999,101411.5,1.2049364
61187883,61170274,3997730,-7.1184087,31.949999,101410.5,1.2049245
61408804,61386146,3997730,-7.366787,31.96,101413.5,1.2049601
61619704,61599587,3997730,-7.3456483,31.98,101413.25,1.2049571
61780411,61760268,3997730,-7.261094,31.99,101412.24,1.2049452
61991409,61973766,3997730,-7.239956,32.0,101412.0,1.2049423
62212371,62189725,3997730,-7.2822328,32.01,101412.49,1.2049482
62423276,62403168,3997730,-7.32451,32.02,101412.99,1.2049541
62584019,62563816,3997730,-7.303371,32.03,101412.75,1.2049513
62794953,62777195,3997730,-7.47248,32.05,101414.75,1.204975
63015847,62993094,3997730,-7.218817,32.059998,101411.74,1.2049392
63226676,63206433,3997730,-7.218817,32.07,101411.75,1.2049394
63387205,63367098,3997730,-7.2822328,32.079998,101412.5,1.2049483
63598217,63580611,3997730,-7.3456483,32.09,101413.24,1.2049571
63819218,63796546,3997730,-7.2822328,32.1,101412.49,1.2049482
64030037,64009922,3997730,-7.2822328,32.11,101412.5,1.2049483
64190788,64170636,3997730,-7.197678,32.12,101411.5,1.2049364
64401562,64383956,3997730,-7.197678,32.13,101411.5,1.2049364
64622732,64600065,3997730,-7.134263,32.149998,101410.75,1.2049274
64783454,64760828,3997730,-7.32451,32.16,101413.0,1.2049541
64994297,64974193,3997730,-7.239956,32.17,101412.0,1.2049423
65205191,65187574,3997730,-7.303371,32.17,101412.74,1.2049512
65426150,65403538,3997730,-7.5094724,32.19,101415.25,1.204981
65586830,65564143,3997730,-7.366787,32.2,101413.5,1.2049601
65797635,65777464,3997730,-7.303371,32.21,101412.74,1.2049512
66008538,65990836,3997730,-7.2822328,32.219997,101412.5,1.2049483
66229586,66206918,3997730,-7.239956,32.23,101412.0,1.2049423
66390182,66367509,3997730,-7.551749,32.239998,101415.75,1.2049869
66601005,66580895,3997730,-7.47248,32.25,101414.75,1.204975
66811997,66794341,3997730,-7.530611,32.26,101415.5,1.204984
66972735,66955079,3997730,-7.488333,32.27,101415.0,1.204978
67193646,67171031,3997730,-7.572888,32.28,101415.99,1.2049898
67404581,67384474,3997730,-7.4460564,32.29,101414.49,1.2049719
67615391,67597788,3997730,-7.5094724,32.3,101415.25,1.204981
67776123,67758515,3997730,-7.424918,32.309998,101414.24,1.2049689
67997012,67974396,3997730,-7.551749,32.32,101415.75,1.2049869
68207921,68187811,3997730,-7.551749,32.329998,101415.75,1.2049869
68418900,68401256,3997730,-7.969236,32.34,101420.74,1.2050462
68579637,68561902,3997730,-7.699719,32.36,101417.5,1.2050077
68800623,68777910,3997730,-7.6785808,32.37,101417.24,1.2050046
69011485,68991321,3997730,-7.7419963,32.38,101417.99,1.2050135
69222348,69204719,3997730,-7.5094724,32.39,101415.25,1.204981
69382949,69365331,3997730,-7.409064,32.39,101414.0,1.2049661
69603904,69581268,3997730,-7.699719,32.41,101417.5,1.2050077
69814795,69794666,3997730,-7.5094724,32.41,101415.25,1.204981
70025668,70008035,3997730,-7.3879256,32.43,101413.74,1.204963
70186291,70168690,3997730,-7.551749,32.44,101415.75,1.2049869
70407284,70384657,3997730,-7.4037795,32.45,101413.99,1.204966
70618198,70598087,3997730,-7.5094724,32.46,101415.25,1.204981
70829206,70811595,3997730,-7.615165,32.469997,101416.5,1.2049958
70989923,70972319,3997730,-7.3879256,32.469997,101413.75,1.2049631
71210855,71188229,3997730,-7.366787,32.489998,101413.49,1.2049601
71421658,71401545,3997730,-7.47248,32.5,101414.75,1.204975
71582408,71562247,3997730,-7.636304,32.51,101416.75,1.2049987
71793346,71775736,3997730,-7.3456483,32.51,101413.24,1.2049571
72014325,71991662,3997730,-7.261094,32.53,101412.24,1.2049452
72225236,72205129,3997730,-7.197678,32.54,101411.5,1.2049364
72385968,72365715,3997730,-7.17654,32.55,101411.24,1.2049333
72596949,72579256,3997730,-6.780192,32.55,101406.49,1.2048769
72817879,72795131,3997730,-6.949301,32.57,101408.5,1.2049007
73028791,73008611,3997730,-6.679784,32.579998,101405.25,1.2048621
73189484,73169344,3997730,-6.764338,32.59,101406.25,1.204874
73400363,73382734,3997730,-6.843608,32.6,101407.25,1.2048858
73621488,73598730,3997730,-6.7432,32.61,101406.0,1.204871
73782084,73759464,3997730,-6.7432,32.61,101406.0,1.204871
73992947,73972842,3997730,-6.843608,32.62,101407.25,1.2048858
74203841,74186236,3997730,-6.3891287,32.63,101401.75,1.2048205
74424706,74402090,3997730,-6.510675,32.649998,101403.25,1.2048384
74585432,74562803,3997730,-6.637507,32.66,101404.75,1.2048562
74796266,74776152,3997730,-6.780192,32.66,101406.49,1.2048769
75007133,74989526,3997730,-6.6586456,32.67,101405.0,1.2048591
75228029,75205414,3997730,-6.637507,32.68,101404.75,1.2048562
75388746,75366004,3997730,-6.7009225,32.7,101405.5,1.2048651
75599620,75579423,3997730,-6.8013306,32.7,101406.74,1.2048799
75810584,75792838,3997730,-6.764338,32.71,101406.24,1.2048739
75971098,75953488,3997730,-6.574091,32.719997,101404.0,1.2048472
76191996,76169382,3997730,-6.5952296,32.73,101404.25,1.2048502
76402888,76382774,3997730,-6.7432,32.739998,101406.0,1.204871
76613761,76596137,3997730,-6.907023,32.75,101407.99,1.2048947
76774553,76756931,3997730,-6.907023,32.76,101407.99,1.2048947
76995513,76972894,3997730,-7.076132,32.76,101410.0,1.2049185
77206471,77186333,3997730,-7.076132,32.78,101410.0,1.2049185
77417336,77399725,3997730,-6.9915776,32.79,101409.0,1.2049067
77577920,77560318,3997730,-6.949301,32.79,101408.5,1.2049007
77798820,77776158,3997730,-6.907023,32.809998,101407.99,1.2048947
78009802,77989624,3997730,-6.780192,32.82,101406.5,1.204877
78220794,78203160,3997730,-6.928162,32.829998,101408.24,1.2048976
78381481,78363752,3997730,-6.679784,32.829998,101405.25,1.2048621
78602372,78579640,3997730,-6.885885,32.84,101407.75,1.2048918
78813239,78793009,3997730,-6.907023,32.85,101408.0,1.2048948
79024017,79006398,3997730,-7.054993,32.86,101409.74,1.2049155
79405623,79382995,3997730,-7.033855,32.88,101409.5,1.2049127
79616486,79596376,3997730,-6.780192,32.89,101406.5,1.204877
79827432,79809818,3997730,-6.764338,32.899998,101406.25,1.204874
79988141,79970537,3997730,-6.764338,32.899998,101406.25,1.204874
80209043,80186425,3997730,-6.7432,32.91,101405.99,1.2048709
80420020,80399904,3997730,-6.7009225,32.92,101405.5,1.2048651
80580812,80560619,3997730,-6.8013306,32.93,101406.75,1.20488
80791757,80774078,3997730,-6.7220607,32.94,101405.75,1.2048681
81012642,80989993,3997730,-6.885885,32.95,101407.75,1.2048918
81223506,81203315,3997730,-6.764338,32.96,101406.25,1.204874
81384074,81363953,3997730,-6.7009225,32.969997,101405.5,1.2048651
81595010,81577373,3997730,-6.7220607,32.969997,101405.75,1.2048681
81816089,81793393,3997730,-6.574091,32.98,101404.0,1.2048472
82027060,82006809,3997730,-6.574091,32.989998,101404.0,1.2048472
82187578,82167456,3997730,-6.885885,33.0,101407.75,1.2048918
82398529,82380922,3997730,-6.928162,33.01,101408.24,1.2048976
82619566,82596893,3997730,-6.9915776,33.02,101409.0,1.2049067
82780214,82757577,3997730,-6.970439,33.03,101408.75,1.2049037
82991155,82971050,3997730,-7.033855,33.03,101409.5,1.2049127
83202124,83184520,3997730,-7.1184087,33.04,101410.5,1.2049245
83423010,83400394,3997730,-7.139548,33.05,101410.76,1.2049276
83583672,83561057,3997730,-7.17654,33.059998,101411.25,1.2049334
83794607,83774441,3997730,-7.17654,33.07,101411.24,1.2049333
84005473,83987818,3997730,-7.197678,33.07,101411.5,1.2049364
84226414,84203736,3997730,-7.3456483,33.09,101413.24,1.2049571
84387059,84364361,3997730,-7.218817,33.09,101411.74,1.2049392
84597913,84577692,3997730,-7.47248,33.1,101414.75,1.204975
84808705,84791081,3997730,-7.239956,33.11,101412.0,1.2049423
85029761,85007011,3997730,-7.366787,33.11,101413.49,1.2049601
85190312,85167682,3997730,-7.239956,33.13,101412.0,1.2049423
85401200,85381030,3997730,-7.17654,33.13,101411.26,1.2049335
85612115,85594509,3997730,-7.012716,33.14,101409.25,1.2049097
85772914,85755243,3997730,-7.1184087,33.149998,101410.5,1.2049245
85993819,85971176,3997730,-7.4460564,33.16,101414.49,1.2049719
86204651,86184533,3997730,-7.134263,33.16,101410.74,1.2049273
86415518,86397917,3997730,-6.9915776,33.17,101409.0,1.2049067
86576177,86558481,3997730,-7.012716,33.18,101409.25,1.2049097
86797149,86774467,3997730,-6.928162,33.19,101408.25,1.2048978
88182884,88165278,3997730,-6.970439,33.239998,101408.75,1.2049037
88403807,88381146,3997730,-6.9915776,33.25,101409.0,1.2049067
88614702,88594579,3997730,-7.012716,33.26,101409.25,1.2049097
88825558,88807956,3997730,-6.864746,33.27,101407.49,1.2048887
88986262,88968602,3997730,-7.134263,33.28,101410.74,1.2049273
89207204,89184495,3997730,-7.076132,33.28,101410.0,1.2049185
89418173,89398049,3997730,-6.970439,33.29,101408.74,1.2049036
89629071,89611464,3997730,-7.218817,33.3,101411.74,1.2049392
89789807,89772093,3997730,-7.012716,33.3,101409.24,1.2049096
90010727,89987959,3997730,-7.09727,33.32,101410.25,1.2049215
90221627,90201393,3997730,-7.012716,33.32,101409.25,1.2049097
90382198,90362090,3997730,-7.134263,33.329998,101410.74,1.2049273
90593115,90575484,3997730,-7.134263,33.34,101410.74,1.2049273
90814085,90791446,3997730,-6.7220607,33.35,101405.75,1.2048681
91024908,91004787,3997730,-7.054993,33.35,101409.75,1.2049156
91185584,91165445,3997730,-6.843608,33.36,101407.25,1.2048858
91396515,91378871,3997730,-6.843608,33.37,101407.25,1.2048858
91617426,91594783,3997730,-7.197678,33.38,101411.49,1.2049363
91828214,91808107,3997730,-7.197678,33.39,101411.5,1.2049364
91988987,91968820,3997730,-7.261094,33.39,101412.24,1.2049452
92199886,92182216,3997730,-7.197678,33.399998,101411.5,1.2049364
92420834,92398165,3997730,-7.17654,33.41,101411.26,1.2049335
92581397,92558771,3997730,-7.134263,33.41,101410.74,1.2049273
92792282,92772166,3997730,-7.303371,33.42,101412.74,1.2049512
93003178,92985571,3997730,-6.970439,33.43,101408.75,1.2049037
93224099,93201483,3997730,-7.17654,33.44,101411.26,1.2049335
93384879,93362264,3997730,-7.239956,33.45,101411.99,1.2049422
93595859,93575702,3997730,-7.218817,33.46,101411.74,1.2049392
93806753,93789133,3997730,-7.2822328,33.46,101412.5,1.2049483
94027676,94005049,3997730,-7.09727,33.469997,101410.25,1.2049215
94188424,94165787,3997730,-7.155401,33.48,101411.0,1.2049304
94399476,94379342,3997730,-7.3456483,33.48,101413.24,1.2049571
94610417,94592804,3997730,-7.17654,33.489998,101411.24,1.2049333
94771118,94753516,3997730,-7.197678,33.5,101411.5,1.2049364
94992018,94969359,3997730,-7.17654,33.5,101411.24,1.2049333
95202888,95182721,3997730,-7.32451,33.51,101412.99,1.2049541
95413759,95396085,3997730,-7.054993,33.52,101409.75,1.2049156
95574333,95556676,3997730,-7.218817,33.52,101411.74,1.2049392
95795250,95772616,3997730,-7.4037795,33.53,101413.99,1.204966
96006148,95986013,3997730,-7.366787,33.54,101413.49,1.2049601
96217050,96199408,3997730,-7.488333,33.55,101415.0,1.204978
96377756,96360136,3997730,-6.9915776,33.55,101409.0,1.2049067
96598643,96576025,3997730,-7.3456483,33.559998,101413.24,1.2049571
96809484,96789377,3997730,-6.9915776,33.57,101409.0,1.2049067
97020454,97002823,3997730,-7.054993,33.57,101409.75,1.2049156
97181271,97163636,3997730,-7.09727,33.579998,101410.25,1.2049215
97402268,97379640,3997730,-6.928162,33.59,101408.25,1.2048978
97613109,97592998,3997730,-6.949301,33.6,101408.5,1.2049007
97823968,97806366,3997730,-6.949301,33.61,101408.5,1.2049007
97984710,97966938,3997730,-7.17654,33.61,101411.26,1.2049335
98205600,98182828,3997730,-7.155401,33.62,101411.0,1.2049304
98416447,98396232,3997730,-7.197678,33.62,101411.5,1.2049364
98627359,98609628,3997730,-6.949301,33.63,101408.5,1.2049007
98787973,98770370,3997730,-7.218817,33.64,101411.76,1.2049395
99008918,98986295,3997730,-7.197678,33.649998,101411.5,1.2049364
99219755,99199613,3997730,-7.239956,33.66,101412.0,1.2049423
99380517,99360386,3997730,-7.239956,33.66,101412.0,1.2049423
99591473,99573821,3997730,-7.2822328,33.67,101412.5,1.2049483
99812416,99789790,3997730,-7.47248,33.68,101414.75,1.204975
100023281,100003171,3997730,-7.488333,33.68,101415.0,1.204978
100183984,100163849,3997730,-7.366787,33.69,101413.49,1.2049601
100394915,100377276,3997730,-7.488333,33.69,101415.0,1.204978
100615820,100593190,3997730,-7.239956,33.7,101412.0,1.2049423
100826700,100806577,3997730,-7.4037795,33.71,101413.99,1.204966
100987468,100967227,3997730,-7.32451,33.719997,101413.0,1.2049541
101198192,101180576,3997730,-7.47248,33.73,101414.75,1.204975
101419316,101396574,3997730,-7.47248,33.73,101414.75,1.204975
101630016,101609895,3997730,-7.7419963,33.739998,101418.0,1.2050136
101790694,101770583,3997730,-7.47248,33.75,101414.75,1.204975
102001560,101983953,3997730,-7.530611,33.75,101415.5,1.204984
102222493,102199849,3997730,-7.9058204,33.76,101419.99,1.2050372
102383272,102360607,3997730,-7.657442,33.77,101417.0,1.2050017
102594067,102573960,3997730,-7.636304,33.77,101416.75,1.2049987
102805027,102787390,3997730,-7.7419963,33.78,101417.99,1.2050135
103025966,103003321,3997730,-7.7419963,33.79,101417.99,1.2050135
103186632,103163916,3997730,-7.926959,33.79,101420.24,1.2050402
103397522,103377315,3997730,-7.8001275,33.8,101418.74,1.2050225
103608547,103590860,3997730,-7.948097,33.809998,101420.49,1.2050432
103769173,103751551,3997730,-7.926959,33.809998,101420.24,1.2050402
103990134,103967504,3997730,-8.090783,33.82,101422.25,1.205064
104201059,104180932,3997730,-8.154198,33.829998,101423.0,1.205073
104411899,104394280,3997730,-8.217614,33.84,101423.75,1.2050819
104572552,104554950,3997730,-8.302168,33.84,101424.75,1.2050939
104793426,104770809,3997730,-8.465992,33.85,101426.75,1.2051176
105004368,104984226,3997730,-8.407861,33.86,101426.0,1.2051086
105215198,105197591,3997730,-8.111921,33.86,101422.5,1.205067
105375962,105358292,3997730,-7.990374,33.87,101421.0,1.2050493
105596874,105574238,3997730,-8.154198,33.87,101423.0,1.205073
105807815,105787683,3997730,-8.074928,33.88,101422.0,1.2050611
106018691,106001080,3997730,-8.011513,33.89,101421.25,1.2050523
106179430,106161741,3997730,-8.111921,33.89,101422.5,1.205067
106400367,106377659,3997730,-8.032652,33.899998,101421.5,1.2050552
106611291,106591131,3997730,-8.28103,33.91,101424.5,1.2050909
106822184,106804494,3997730,-8.365583,33.92,101425.5,1.2051027
106982707,106965099,3997730,-8.217614,33.92,101423.75,1.2050819
107203554,107180935,3997730,-8.302168,33.93,101424.75,1.2050939
107414486,107394377,3997730,-8.365583,33.94,101425.5,1.2051027
107625383,107607765,3997730,-8.365583,33.94,101425.5,1.2051027
107786060,107768440,3997730,-8.344445,33.94,101425.25,1.2050997
108007015,107984369,3997730,-8.719655,33.96,101429.75,1.2051532
108217866,108197751,3997730,-8.613962,33.96,101428.5,1.2051383
108378547,108358325,3997730,-8.756647,33.96,101430.25,1.2051592
108589246,108571635,3997730,-8.883478,33.969997,101431.75,1.205177
108810106,108787473,3997730,-9.047302,33.98,101433.75,1.2052008
109021031,109000899,3997730,-9.08958,33.989998,101434.24,1.2052066
109181709,109161587,3997730,-8.989171,33.989998,101432.99,1.2051917
109392548,109374942,3997730,-9.380235,34.0,101437.74,1.2052482
109613547,109590929,3997730,-9.655036,34.01,101441.0,1.2052869
109824425,109804318,3997730,-9.485928,34.01,101438.99,1.205263
109985143,109965030,3997730,-9.528204,34.02,101439.5,1.2052691
110196028,110178421,3997730,-9.528204,34.02,101439.49,1.205269
110416939,110394320,3997730,-9.655036,34.04,101441.0,1.2052869
110627810,110607695,3997730,-9.903413,34.04,101444.0,1.2053225
110788383,110768254,3997730,-9.776583,34.04,101442.49,1.2053046
110999309,110981692,3997730,-9.734305,34.05,101442.0,1.2052988
111220347,111197608,3997730,-9.924552,34.059998,101444.24,1.2053254
111380940,111358327,3997730,-10.342039,34.059998,101449.25,1.205385
111591843,111571725,3997730,-9.882276,34.07,101443.74,1.2053195
111802704,111785084,3997730,-9.945691,34.079998,101444.49,1.2053283
112023551,112000934,3997730,-9.776583,34.079998,101442.5,1.2053047
112184319,112161677,3997730,-9.987968,34.09,101445.0,1.2053344
112395209,112375088,3997730,-9.79772,34.09,101442.74,1.2053076
112606148,112588542,3997730,-9.839998,34.1,101443.25,1.2053136
112827037,112804409,3997730,-9.961545,34.11,101444.74,1.2053313
112987703,112964983,3997730,-10.236346,34.11,101448.0,1.2053701
113198591,113178328,3997730,-9.982683,34.12,101444.99,1.2053343
113409519,113391770,3997730,-9.903413,34.13,101444.0,1.2053225
113570269,113552628,3997730,-9.903413,34.13,101443.99,1.2053224
